{
  "meta": {
    "updated": 1783906731,
    "sources": [
      {
        "source": "奈良県食品営業許可施設一覧（奈良市を除く）",
        "license": "奈良県（出典明示・利用規約に従う）"
      },
      {
        "source": "厚生労働省 食品衛生申請等システム（オープンデータ）",
        "license": "公共データ利用規約（第1.0版, PDL1.0）"
      }
    ]
  },
  "data": [
    {
      "name": "ファミリーマート　広陵みささぎ台店",
      "name_kana": "",
      "business_type": "飲食店営業",
      "address": "北葛城郡広陵町みささぎ台　３９－１",
      "lat": 34.534322091,
      "lng": 135.733584365,
      "geocoding_level": 8,
      "phone": "0745-54-1028",
      "license_no": "第0211248号",
      "license_date": "2019-07-11",
      "expire_date": "2026-07-31"
    },
    {
      "name": "ファミリーマート　広陵みささぎ台店",
      "name_kana": "",
      "business_type": "魚介類販売業",
      "address": "北葛城郡広陵町みささぎ台　３９－１",
      "lat": 34.534322091,
      "lng": 135.733584365,
      "geocoding_level": 8,
      "phone": "0745-54-1028",
      "license_no": "第0211251号",
      "license_date": "2019-07-11",
      "expire_date": "2026-07-31"
    },
    {
      "name": "ファミリーマート　広陵みささぎ台店",
      "name_kana": "",
      "business_type": "食肉販売業",
      "address": "北葛城郡広陵町みささぎ台　３９－１",
      "lat": 34.534322091,
      "lng": 135.733584365,
      "geocoding_level": 8,
      "phone": "0745-54-1028",
      "license_no": "第0211250号",
      "license_date": "2019-07-11",
      "expire_date": "2026-07-31"
    },
    {
      "name": "コメダ珈琲　奈良広陵店",
      "name_kana": "",
      "business_type": "飲食店営業",
      "address": "北葛城郡広陵町みささぎ台　５－４３",
      "lat": 34.532324,
      "lng": 135.731206,
      "geocoding_level": 3,
      "phone": "0745-43-5810",
      "license_no": "第0819194号",
      "license_date": "2019-07-22",
      "expire_date": "2026-07-31"
    },
    {
      "name": "ｅａｒｔｈ　ｃｏｌｏｒｓ",
      "name_kana": "",
      "business_type": "飲食店営業",
      "address": "北葛城郡広陵町三吉　４７８－１",
      "lat": 34.551282,
      "lng": 135.741987,
      "geocoding_level": 3,
      "phone": "0745-55-7889",
      "license_no": "第0819455号",
      "license_date": "2019-12-12",
      "expire_date": "2026-07-31"
    },
    {
      "name": "カラオケ　プリーズ",
      "name_kana": "",
      "business_type": "飲食店営業",
      "address": "北葛城郡広陵町平尾　６８３－５",
      "lat": 34.540368799,
      "lng": 135.73950756800002,
      "geocoding_level": 8,
      "phone": "0745-54-5646",
      "license_no": "第0820058号",
      "license_date": "2020-04-16",
      "expire_date": "2026-07-31"
    },
    {
      "name": "食神苑",
      "name_kana": "",
      "business_type": "食肉販売業",
      "address": "北葛城郡広陵町三吉　３１０－１",
      "lat": 34.551282,
      "lng": 135.741987,
      "geocoding_level": 3,
      "phone": "0745-55-2999",
      "license_no": "第0820073号",
      "license_date": "2020-04-22",
      "expire_date": "2026-07-31"
    },
    {
      "name": "ＺＥＬＥ",
      "name_kana": "",
      "business_type": "飲食店営業",
      "address": "北葛城郡広陵町南郷　９４９",
      "lat": 34.535341209,
      "lng": 135.752066126,
      "geocoding_level": 8,
      "phone": "0745-44-8923",
      "license_no": "第0820081号",
      "license_date": "2020-04-27",
      "expire_date": "2026-07-31"
    },
    {
      "name": "セブンイレブン広陵町役場前店",
      "name_kana": "",
      "business_type": "飲食店営業",
      "address": "北葛城郡広陵町南郷　５４６－１",
      "lat": 34.542326137,
      "lng": 135.75163081,
      "geocoding_level": 8,
      "phone": "0745-54-5522",
      "license_no": "第0820145号",
      "license_date": "2020-05-20",
      "expire_date": "2026-07-31"
    },
    {
      "name": "セブンイレブン広陵町役場前店",
      "name_kana": "",
      "business_type": "魚介類販売業",
      "address": "北葛城郡広陵町南郷　５４６－１",
      "lat": 34.542326137,
      "lng": 135.75163081,
      "geocoding_level": 8,
      "phone": "0745-54-5522",
      "license_no": "第0820146号",
      "license_date": "2020-05-20",
      "expire_date": "2026-07-31"
    },
    {
      "name": "セブンイレブン広陵町役場前店",
      "name_kana": "",
      "business_type": "食肉販売業",
      "address": "北葛城郡広陵町南郷　５４６－１",
      "lat": 34.542326137,
      "lng": 135.75163081,
      "geocoding_level": 8,
      "phone": "0745-54-5522",
      "license_no": "第0820148号",
      "license_date": "2020-05-20",
      "expire_date": "2026-07-31"
    },
    {
      "name": "ごんちゃん",
      "name_kana": "",
      "business_type": "飲食店営業",
      "address": "北葛城郡広陵町馬見北　１－７－１３",
      "lat": 34.555200544,
      "lng": 135.73311440000003,
      "geocoding_level": 8,
      "phone": "0745-55-6827",
      "license_no": "第0820211号",
      "license_date": "2020-06-10",
      "expire_date": "2026-07-31"
    },
    {
      "name": "お好み焼・鉄板焼　浪花",
      "name_kana": "",
      "business_type": "飲食店営業",
      "address": "北葛城郡広陵町笠　　２３０－１",
      "lat": 34.548290128,
      "lng": 135.745298321,
      "geocoding_level": 8,
      "phone": "0745-54-0728",
      "license_no": "第0214109号",
      "license_date": "2020-07-09",
      "expire_date": "2026-07-31"
    },
    {
      "name": "おうちＣａｆｅ　わんこ堂",
      "name_kana": "",
      "business_type": "飲食店営業",
      "address": "北葛城郡広陵町馬見北　５－３－１２",
      "lat": 34.553236281,
      "lng": 135.72717567,
      "geocoding_level": 8,
      "phone": "0745-55-7065",
      "license_no": "第0213252号",
      "license_date": "2020-07-02",
      "expire_date": "2026-07-31"
    },
    {
      "name": "チキンショップ仲島",
      "name_kana": "",
      "business_type": "飲食店営業",
      "address": "北葛城郡広陵町安部　５１１－７",
      "lat": 34.534879427,
      "lng": 135.737209695,
      "geocoding_level": 8,
      "phone": "0745-55-1785",
      "license_no": "第0285012号",
      "license_date": "2020-07-02",
      "expire_date": "2026-07-31"
    },
    {
      "name": "チキンショップ仲島",
      "name_kana": "",
      "business_type": "食肉販売業",
      "address": "北葛城郡広陵町安部　５１１－７",
      "lat": 34.534879427,
      "lng": 135.737209695,
      "geocoding_level": 8,
      "phone": "0745-55-1785",
      "license_no": "第0285013号",
      "license_date": "2020-07-02",
      "expire_date": "2026-07-31"
    },
    {
      "name": "広陵レストラん",
      "name_kana": "",
      "business_type": "飲食店営業",
      "address": "北葛城郡広陵町笠　１６１－２",
      "lat": 34.542563654,
      "lng": 135.744619225,
      "geocoding_level": 8,
      "phone": "0745-55-2455",
      "license_no": "第0213093号",
      "license_date": "2020-07-02",
      "expire_date": "2027-07-31"
    },
    {
      "name": "いろり家",
      "name_kana": "",
      "business_type": "飲食店営業",
      "address": "北葛城郡広陵町三吉　３０３－６",
      "lat": 34.551282,
      "lng": 135.741987,
      "geocoding_level": 3,
      "phone": "0745-55-4919",
      "license_no": "第0202110号",
      "license_date": "2020-07-02",
      "expire_date": "2026-07-31"
    },
    {
      "name": "もりむら",
      "name_kana": "",
      "business_type": "飲食店営業",
      "address": "北葛城郡広陵町弁財天　１８－２",
      "lat": 34.56399100000001,
      "lng": 135.759704,
      "geocoding_level": 3,
      "phone": "0745-56-4810",
      "license_no": "第0285092号",
      "license_date": "2020-07-02",
      "expire_date": "2026-07-31"
    },
    {
      "name": "カラオケステージステーション",
      "name_kana": "",
      "business_type": "飲食店営業",
      "address": "北葛城郡広陵町三吉　２３９－１",
      "lat": 34.551282,
      "lng": 135.741987,
      "geocoding_level": 3,
      "phone": "0745-43-9995",
      "license_no": "第0820183号",
      "license_date": "2020-05-25",
      "expire_date": "2026-07-31"
    },
    {
      "name": "Ｐｉｚｚｅｒｉａ　ＨＡＲＵ",
      "name_kana": "",
      "business_type": "飲食店営業",
      "address": "北葛城郡広陵町みささぎ台　３８－１",
      "lat": 34.533342437,
      "lng": 135.732811186,
      "geocoding_level": 8,
      "phone": "0745-47-0738",
      "license_no": "第0213034号",
      "license_date": "2020-07-02",
      "expire_date": "2027-07-31"
    },
    {
      "name": "和牛焼肉幸庵　奈良広陵店",
      "name_kana": "",
      "business_type": "飲食店営業",
      "address": "北葛城郡広陵町馬見北　９－１２－７",
      "lat": 34.552770112,
      "lng": 135.722077662,
      "geocoding_level": 8,
      "phone": "0745-55-9929",
      "license_no": "第0208085号",
      "license_date": "2020-07-02",
      "expire_date": "2026-07-31"
    },
    {
      "name": "ローソン広陵大野店",
      "name_kana": "",
      "business_type": "飲食店営業",
      "address": "北葛城郡広陵町大野　５２９－１",
      "lat": 34.56633389,
      "lng": 135.74465164,
      "geocoding_level": 8,
      "phone": "0745-57-3963",
      "license_no": "第0213245号",
      "license_date": "2020-07-09",
      "expire_date": "2026-07-31"
    },
    {
      "name": "ローソン広陵大野店",
      "name_kana": "",
      "business_type": "魚介類販売業",
      "address": "北葛城郡広陵町大野　５２９－１",
      "lat": 34.56633389,
      "lng": 135.74465164,
      "geocoding_level": 8,
      "phone": "0745-57-3963",
      "license_no": "第0213248号",
      "license_date": "2020-07-09",
      "expire_date": "2026-07-31"
    },
    {
      "name": "ローソン広陵大野店",
      "name_kana": "",
      "business_type": "食肉販売業",
      "address": "北葛城郡広陵町大野　５２９－１",
      "lat": 34.56633389,
      "lng": 135.74465164,
      "geocoding_level": 8,
      "phone": "0745-57-3963",
      "license_no": "第0213247号",
      "license_date": "2020-07-09",
      "expire_date": "2026-07-31"
    },
    {
      "name": "和牛焼肉幸庵　奈良広陵店",
      "name_kana": "",
      "business_type": "食肉販売業",
      "address": "北葛城郡広陵町馬見北　９－１２－７",
      "lat": 34.552770112,
      "lng": 135.722077662,
      "geocoding_level": 8,
      "phone": "0745-55-9929",
      "license_no": "第0820267号",
      "license_date": "2020-07-02",
      "expire_date": "2026-07-31"
    },
    {
      "name": "梵天丸",
      "name_kana": "",
      "business_type": "飲食店営業",
      "address": "北葛城郡広陵町馬見北　９－９－２５",
      "lat": 34.55228496000001,
      "lng": 135.72252776,
      "geocoding_level": 8,
      "phone": "0745-54-0101",
      "license_no": "第0214004号",
      "license_date": "2020-07-10",
      "expire_date": "2026-07-31"
    },
    {
      "name": "一姫二太郎",
      "name_kana": "",
      "business_type": "飲食店営業",
      "address": "北葛城郡広陵町馬見北　９－１－３９",
      "lat": 34.550129844,
      "lng": 135.722602233,
      "geocoding_level": 8,
      "phone": "0745-54-5432",
      "license_no": "第0295082号",
      "license_date": "2020-07-02",
      "expire_date": "2026-07-31"
    },
    {
      "name": "鳥正",
      "name_kana": "",
      "business_type": "食肉販売業",
      "address": "北葛城郡広陵町南　大豆川三角地",
      "lat": 34.56336,
      "lng": 135.753063,
      "geocoding_level": 3,
      "phone": "0745-57-1006",
      "license_no": "第0285054号",
      "license_date": "2020-07-09",
      "expire_date": "2026-07-31"
    },
    {
      "name": "陵",
      "name_kana": "",
      "business_type": "飲食店営業",
      "address": "北葛城郡広陵町みささぎ台　６－２２",
      "lat": 34.533574805,
      "lng": 135.735088935,
      "geocoding_level": 8,
      "phone": "0745-55-2102",
      "license_no": "第0285008号",
      "license_date": "2020-07-02",
      "expire_date": "2026-07-31"
    },
    {
      "name": "Ｆａｋｅｒｓ’",
      "name_kana": "",
      "business_type": "飲食店営業",
      "address": "北葛城郡広陵町みささぎ台　１－３１",
      "lat": 34.534087039,
      "lng": 135.734485171,
      "geocoding_level": 8,
      "phone": "0745-55-7473",
      "license_no": "第0201250号",
      "license_date": "2020-07-10",
      "expire_date": "2026-07-31"
    },
    {
      "name": "ぜろ",
      "name_kana": "",
      "business_type": "飲食店営業",
      "address": "北葛城郡広陵町みささぎ台　６－２２－２",
      "lat": 34.532324,
      "lng": 135.731206,
      "geocoding_level": 3,
      "phone": "0745-55-0009",
      "license_no": "第0214030号",
      "license_date": "2020-07-10",
      "expire_date": "2026-07-31"
    },
    {
      "name": "ヒナタ",
      "name_kana": "",
      "business_type": "飲食店営業",
      "address": "北葛城郡広陵町三吉　５８７－５",
      "lat": 34.551282,
      "lng": 135.741987,
      "geocoding_level": 3,
      "phone": "0745-54-0208",
      "license_no": "第0213256号",
      "license_date": "2020-07-15",
      "expire_date": "2026-07-31"
    },
    {
      "name": "ファミリーマート　広陵町平尾店",
      "name_kana": "",
      "business_type": "飲食店営業",
      "address": "北葛城郡広陵町平尾　８７１－１",
      "lat": 34.541847252,
      "lng": 135.745410544,
      "geocoding_level": 8,
      "phone": "0745-55-7294",
      "license_no": "第0207357号",
      "license_date": "2020-07-07",
      "expire_date": "2026-07-31"
    },
    {
      "name": "ファミリーマート　広陵町平尾店",
      "name_kana": "",
      "business_type": "魚介類販売業",
      "address": "北葛城郡広陵町平尾　８７１－１",
      "lat": 34.541847252,
      "lng": 135.745410544,
      "geocoding_level": 8,
      "phone": "0745-55-7294",
      "license_no": "第0207359号",
      "license_date": "2020-07-07",
      "expire_date": "2026-07-31"
    },
    {
      "name": "ファミリーマート　広陵町平尾店",
      "name_kana": "",
      "business_type": "食肉販売業",
      "address": "北葛城郡広陵町平尾　８７１－１",
      "lat": 34.541847252,
      "lng": 135.745410544,
      "geocoding_level": 8,
      "phone": "0745-55-7294",
      "license_no": "第0207361号",
      "license_date": "2020-07-07",
      "expire_date": "2026-07-31"
    },
    {
      "name": "中華飯店　金峰閣",
      "name_kana": "",
      "business_type": "飲食店営業",
      "address": "北葛城郡広陵町寺戸　１２－４",
      "lat": 34.564826396,
      "lng": 135.746791469,
      "geocoding_level": 8,
      "phone": "0745-57-1299",
      "license_no": "第0820275号",
      "license_date": "2020-07-07",
      "expire_date": "2026-07-31"
    },
    {
      "name": "セブンーイレブン広陵町笠東店",
      "name_kana": "",
      "business_type": "飲食店営業",
      "address": "北葛城郡広陵町笠　２５０－１",
      "lat": 34.549716831,
      "lng": 135.746481823,
      "geocoding_level": 8,
      "phone": "0745-55-1807",
      "license_no": "第0819252号",
      "license_date": "2019-08-21",
      "expire_date": "2026-07-31"
    },
    {
      "name": "セブンーイレブン広陵町笠東店",
      "name_kana": "",
      "business_type": "食肉販売業",
      "address": "北葛城郡広陵町笠　２５０－１",
      "lat": 34.549716831,
      "lng": 135.746481823,
      "geocoding_level": 8,
      "phone": "0745-55-1807",
      "license_no": "第0819253号",
      "license_date": "2019-08-21",
      "expire_date": "2026-07-31"
    },
    {
      "name": "セブンーイレブン広陵町笠東店",
      "name_kana": "",
      "business_type": "魚介類販売業",
      "address": "北葛城郡広陵町笠　２５０－１",
      "lat": 34.549716831,
      "lng": 135.746481823,
      "geocoding_level": 8,
      "phone": "0745-55-1807",
      "license_no": "第0819254号",
      "license_date": "2019-08-21",
      "expire_date": "2026-07-31"
    },
    {
      "name": "Ｃａｆｅ　そらみる",
      "name_kana": "",
      "business_type": "飲食店営業",
      "address": "北葛城郡広陵町笠　２７４－５",
      "lat": 34.547824421,
      "lng": 135.746463578,
      "geocoding_level": 8,
      "phone": "0745-55-3225",
      "license_no": "第0213033号",
      "license_date": "2020-07-15",
      "expire_date": "2027-07-31"
    },
    {
      "name": "フードハウス　タケシマ",
      "name_kana": "",
      "business_type": "飲食店営業",
      "address": "北葛城郡広陵町百済　１３１１－１",
      "lat": 34.542381947,
      "lng": 135.763432783,
      "geocoding_level": 8,
      "phone": "0745-55-4466",
      "license_no": "第0285078号",
      "license_date": "2020-07-07",
      "expire_date": "2026-07-31"
    },
    {
      "name": "フードハウス　タケシマ",
      "name_kana": "",
      "business_type": "魚介類販売業",
      "address": "北葛城郡広陵町百済　１３１１－１",
      "lat": 34.542381947,
      "lng": 135.763432783,
      "geocoding_level": 8,
      "phone": "0745-55-4466",
      "license_no": "第0285079号",
      "license_date": "2020-07-07",
      "expire_date": "2026-07-31"
    },
    {
      "name": "フードハウス　タケシマ",
      "name_kana": "",
      "business_type": "食肉販売業",
      "address": "北葛城郡広陵町百済　１３１１－１",
      "lat": 34.542381947,
      "lng": 135.763432783,
      "geocoding_level": 8,
      "phone": "0745-55-4466",
      "license_no": "第0285081号",
      "license_date": "2020-07-07",
      "expire_date": "2026-07-31"
    },
    {
      "name": "旬菜工房　七色",
      "name_kana": "",
      "business_type": "飲食店営業",
      "address": "北葛城郡広陵町馬見北　１－７－９真美ヶ丘サカエタウン",
      "lat": 34.554840139,
      "lng": 135.733090423,
      "geocoding_level": 8,
      "phone": "0745-54-0044",
      "license_no": "第0214074号",
      "license_date": "2020-07-17",
      "expire_date": "2026-07-31"
    },
    {
      "name": "イタリア料理　Ｃｏｌｚａ",
      "name_kana": "",
      "business_type": "飲食店営業",
      "address": "北葛城郡広陵町みささぎ台　２１－２",
      "lat": 34.529553547,
      "lng": 135.73143292,
      "geocoding_level": 8,
      "phone": "0745-54-5578",
      "license_no": "第0212241号",
      "license_date": "2020-07-30",
      "expire_date": "2026-07-31"
    },
    {
      "name": "ジュン",
      "name_kana": "",
      "business_type": "飲食店営業",
      "address": "北葛城郡広陵町的場　１５３－３",
      "lat": 34.56758700000001,
      "lng": 135.760107,
      "geocoding_level": 3,
      "phone": "0745-57-0295",
      "license_no": "第0285051号",
      "license_date": "2020-07-30",
      "expire_date": "2026-07-31"
    },
    {
      "name": "ＴＴ　ｂｙ　ＫｉｎｄＣａｆｅ",
      "name_kana": "",
      "business_type": "飲食店営業",
      "address": "北葛城郡広陵町馬見中　４－１－１",
      "lat": 34.546211,
      "lng": 135.723614,
      "geocoding_level": 3,
      "phone": "0745-44-9939",
      "license_no": "第0819249号",
      "license_date": "2019-08-21",
      "expire_date": "2026-07-31"
    },
    {
      "name": "広陵株式会社",
      "name_kana": "",
      "business_type": "麺類製造業",
      "address": "北葛城郡広陵町三吉　１７９６",
      "lat": 34.551282,
      "lng": 135.741987,
      "geocoding_level": 3,
      "phone": "0745-57-0138",
      "license_no": "第0208075号",
      "license_date": "2020-07-02",
      "expire_date": "2026-07-31"
    },
    {
      "name": "かざみどり",
      "name_kana": "",
      "business_type": "飲食店営業",
      "address": "北葛城郡広陵町みささぎ台　３９－２２",
      "lat": 34.533873702,
      "lng": 135.732879375,
      "geocoding_level": 8,
      "phone": "0745-55-2463",
      "license_no": "第0820329号",
      "license_date": "2020-08-25",
      "expire_date": "2027-07-31"
    },
    {
      "name": "ｔｏｉ　ｔｏｉ　ｔｏｉ",
      "name_kana": "",
      "business_type": "そうざい製造業",
      "address": "北葛城郡広陵町萱野　６７６",
      "lat": 34.571071,
      "lng": 135.751656,
      "geocoding_level": 3,
      "phone": "0745-56-2436",
      "license_no": "第0820337号",
      "license_date": "2020-09-02",
      "expire_date": "2027-07-31"
    },
    {
      "name": "ＣＡＬＤＯ",
      "name_kana": "",
      "business_type": "飲食店営業",
      "address": "北葛城郡広陵町的場　１２２－４",
      "lat": 34.565288737,
      "lng": 135.755519043,
      "geocoding_level": 8,
      "phone": "",
      "license_no": "第0820352号",
      "license_date": "2020-09-14",
      "expire_date": "2027-07-31"
    },
    {
      "name": "株式会社ミートステイション",
      "name_kana": "",
      "business_type": "食肉製品製造業",
      "address": "北葛城郡広陵町笠　１８６－１",
      "lat": 34.544731288,
      "lng": 135.744447979,
      "geocoding_level": 8,
      "phone": "0745-44-3804",
      "license_no": "第0820423号",
      "license_date": "2020-10-21",
      "expire_date": "2028-07-31"
    },
    {
      "name": "株式会社ミートステイション",
      "name_kana": "",
      "business_type": "食肉販売業",
      "address": "北葛城郡広陵町笠　１８６－１",
      "lat": 34.544731288,
      "lng": 135.744447979,
      "geocoding_level": 8,
      "phone": "0745-44-3804",
      "license_no": "第0820424号",
      "license_date": "2020-10-21",
      "expire_date": "2028-07-31"
    },
    {
      "name": "株式会社ミートステイション",
      "name_kana": "",
      "business_type": "そうざい製造業",
      "address": "北葛城郡広陵町笠　１８６－１",
      "lat": 34.544731288,
      "lng": 135.744447979,
      "geocoding_level": 8,
      "phone": "0745-44-3804",
      "license_no": "第0820425号",
      "license_date": "2020-10-21",
      "expire_date": "2028-07-31"
    },
    {
      "name": "炭火焼肉　鶴兆　広陵店",
      "name_kana": "",
      "business_type": "食肉販売業",
      "address": "北葛城郡広陵町安部　２１４－１",
      "lat": 34.534034736,
      "lng": 135.743516257,
      "geocoding_level": 8,
      "phone": "0745-55-1229",
      "license_no": "第0820079号",
      "license_date": "2020-04-27",
      "expire_date": "2026-07-31"
    },
    {
      "name": "焼鳥　燈",
      "name_kana": "",
      "business_type": "自動車飲食店営業",
      "address": "北葛城郡広陵町他　県内一円（奈良市を除く）",
      "lat": 34.54274,
      "lng": 135.750842,
      "geocoding_level": 2,
      "phone": "",
      "license_no": "第0820544号",
      "license_date": "2021-01-07",
      "expire_date": "2026-09-30"
    },
    {
      "name": "旬海",
      "name_kana": "",
      "business_type": "露店飲食店営業",
      "address": "北葛城郡広陵町他県内一円（奈良市を除く）",
      "lat": 34.54274,
      "lng": 135.750842,
      "geocoding_level": 2,
      "phone": "",
      "license_no": "第0815217号",
      "license_date": "2021-02-05",
      "expire_date": "2027-02-28"
    },
    {
      "name": "山小舎",
      "name_kana": "",
      "business_type": "飲食店営業",
      "address": "北葛城郡広陵町馬見北　９－１－４３",
      "lat": 34.54977521,
      "lng": 135.722637041,
      "geocoding_level": 8,
      "phone": "0745-55-4136",
      "license_no": "第0820561号",
      "license_date": "2021-01-25",
      "expire_date": "2027-07-31"
    },
    {
      "name": "神戸クックワールドビュッフェ奈良広陵店",
      "name_kana": "",
      "business_type": "飲食店営業",
      "address": "北葛城郡広陵町安部　４５０－１",
      "lat": 34.533896651,
      "lng": 135.744925337,
      "geocoding_level": 8,
      "phone": "0745-54-6001",
      "license_no": "第0821102号",
      "license_date": "2021-05-26",
      "expire_date": "2027-07-31"
    },
    {
      "name": "セブン－イレブン広陵町笠東店",
      "name_kana": "",
      "business_type": "飲食店営業",
      "address": "北葛城郡広陵町笠　２５０－１",
      "lat": 34.549716831,
      "lng": 135.746481823,
      "geocoding_level": 8,
      "phone": "0745-55-1807",
      "license_no": "第0821104号",
      "license_date": "2021-05-31",
      "expire_date": "2027-07-31"
    },
    {
      "name": "熊石食料品店",
      "name_kana": "",
      "business_type": "魚介類販売業",
      "address": "北葛城郡広陵町三吉　７０４",
      "lat": 34.551282,
      "lng": 135.741987,
      "geocoding_level": 3,
      "phone": "0745-55-2254",
      "license_no": "第0821146号",
      "license_date": "2021-07-02",
      "expire_date": "2027-07-31"
    },
    {
      "name": "炭火焼肉　鶴兆　広陵店",
      "name_kana": "",
      "business_type": "飲食店営業",
      "address": "北葛城郡広陵町安部　２１４－１",
      "lat": 34.534034736,
      "lng": 135.743516257,
      "geocoding_level": 8,
      "phone": "0745-55-1229",
      "license_no": "第0821254号",
      "license_date": "2021-07-12",
      "expire_date": "2027-07-31"
    },
    {
      "name": "広陵炊飯センター",
      "name_kana": "",
      "business_type": "飲食店営業",
      "address": "北葛城郡広陵町笠　１３３－３",
      "lat": 34.543929438,
      "lng": 135.743296726,
      "geocoding_level": 8,
      "phone": "0745-55-7183",
      "license_no": "第0821257号",
      "license_date": "2021-07-12",
      "expire_date": "2027-07-31"
    },
    {
      "name": "和田糀店",
      "name_kana": "",
      "business_type": "みそ又はしょうゆ製造業",
      "address": "北葛城郡広陵町古寺　３２７",
      "lat": 34.552366662,
      "lng": 135.752531237,
      "geocoding_level": 8,
      "phone": "0745-56-2788",
      "license_no": "第0821298号",
      "license_date": "2021-07-21",
      "expire_date": "2027-07-31"
    },
    {
      "name": "杉本食料品店",
      "name_kana": "",
      "business_type": "魚介類販売業",
      "address": "北葛城郡広陵町古寺　５９２－３",
      "lat": 34.551938163,
      "lng": 135.751240285,
      "geocoding_level": 8,
      "phone": "0745-56-4333",
      "license_no": "第0821258号",
      "license_date": "2021-07-12",
      "expire_date": "2027-07-31"
    },
    {
      "name": "ショップ竹取",
      "name_kana": "",
      "business_type": "飲食店営業",
      "address": "北葛城郡広陵町三吉　３８８－１",
      "lat": 34.551282,
      "lng": 135.741987,
      "geocoding_level": 3,
      "phone": "",
      "license_no": "第0821259号",
      "license_date": "2021-07-12",
      "expire_date": "2027-07-31"
    },
    {
      "name": "みねちゃん",
      "name_kana": "",
      "business_type": "飲食店営業",
      "address": "北葛城郡広陵町寺戸　１７－４",
      "lat": 34.56544768,
      "lng": 135.746298646,
      "geocoding_level": 8,
      "phone": "",
      "license_no": "第0821260号",
      "license_date": "2021-07-12",
      "expire_date": "2027-07-31"
    },
    {
      "name": "オランダ屋高田店",
      "name_kana": "",
      "business_type": "飲食店営業",
      "address": "北葛城郡広陵町大塚　６２－１",
      "lat": 34.532012205,
      "lng": 135.744159686,
      "geocoding_level": 8,
      "phone": "0745-55-4610",
      "license_no": "第0821262号",
      "license_date": "2021-07-12",
      "expire_date": "2027-07-31"
    },
    {
      "name": "ビゴテ",
      "name_kana": "",
      "business_type": "飲食店営業",
      "address": "北葛城郡広陵町南郷　３６０－３",
      "lat": 34.542026925,
      "lng": 135.755820301,
      "geocoding_level": 8,
      "phone": "0745-55-2986",
      "license_no": "第0821264号",
      "license_date": "2021-07-12",
      "expire_date": "2027-07-31"
    },
    {
      "name": "ドゥリーム",
      "name_kana": "",
      "business_type": "飲食店営業",
      "address": "北葛城郡広陵町南郷　５７６－６",
      "lat": 34.541970235,
      "lng": 135.750347014,
      "geocoding_level": 8,
      "phone": "0745-55-3996",
      "license_no": "第0821265号",
      "license_date": "2021-07-12",
      "expire_date": "2027-07-31"
    },
    {
      "name": "京都キョーワズ珈琲真美ヶ丘店",
      "name_kana": "",
      "business_type": "飲食店営業",
      "address": "北葛城郡広陵町馬見中　４－１－１",
      "lat": 34.546211,
      "lng": 135.723614,
      "geocoding_level": 3,
      "phone": "0745-54-1450",
      "license_no": "第0821267号",
      "license_date": "2021-07-12",
      "expire_date": "2027-07-31"
    },
    {
      "name": "ＲＥＡＬＥ",
      "name_kana": "",
      "business_type": "飲食店営業",
      "address": "北葛城郡広陵町馬見南　１－６－２６",
      "lat": 34.542180795,
      "lng": 135.728907645,
      "geocoding_level": 8,
      "phone": "",
      "license_no": "第0821268号",
      "license_date": "2021-07-12",
      "expire_date": "2027-07-31"
    },
    {
      "name": "乾食品",
      "name_kana": "",
      "business_type": "魚介類販売業",
      "address": "北葛城郡広陵町百済　１７００－１",
      "lat": 34.546176233,
      "lng": 135.763333769,
      "geocoding_level": 8,
      "phone": "0745-55-0215",
      "license_no": "第0821269号",
      "license_date": "2021-07-12",
      "expire_date": "2028-07-31"
    },
    {
      "name": "鶴橋里",
      "name_kana": "",
      "business_type": "飲食店営業",
      "address": "北葛城郡広陵町平尾　６８３－１",
      "lat": 34.540107873,
      "lng": 135.739511503,
      "geocoding_level": 8,
      "phone": "0745-54-0255",
      "license_no": "第0821270号",
      "license_date": "2021-07-12",
      "expire_date": "2027-07-31"
    },
    {
      "name": "釜揚げうどん　鈴庵",
      "name_kana": "",
      "business_type": "飲食店営業",
      "address": "北葛城郡広陵町馬見中　５－１－２６　（１０１）",
      "lat": 34.54785852,
      "lng": 135.722218887,
      "geocoding_level": 8,
      "phone": "0745-55-9116",
      "license_no": "第0821294号",
      "license_date": "2021-07-15",
      "expire_date": "2027-07-31"
    },
    {
      "name": "お好焼　慶州",
      "name_kana": "",
      "business_type": "飲食店営業",
      "address": "北葛城郡広陵町南郷　６５９－１８",
      "lat": 34.542000328,
      "lng": 135.749139895,
      "geocoding_level": 8,
      "phone": "0745-55-3901",
      "license_no": "第0821319号",
      "license_date": "2021-07-26",
      "expire_date": "2027-07-31"
    },
    {
      "name": "食神苑",
      "name_kana": "",
      "business_type": "飲食店営業",
      "address": "北葛城郡広陵町三吉　３１０－１",
      "lat": 34.551282,
      "lng": 135.741987,
      "geocoding_level": 3,
      "phone": "0745-55-2999",
      "license_no": "第0821320号",
      "license_date": "2021-07-27",
      "expire_date": "2027-07-31"
    },
    {
      "name": "広陵町立広陵東小学校",
      "name_kana": "",
      "business_type": "飲食店営業",
      "address": "北葛城郡広陵町百済　１６２５－１",
      "lat": 34.545585271,
      "lng": 135.75716610300003,
      "geocoding_level": 8,
      "phone": "0745-55-2564",
      "license_no": "第0821324号",
      "license_date": "2021-07-28",
      "expire_date": "2028-07-31"
    },
    {
      "name": "まごころ弁当　磯城店",
      "name_kana": "",
      "business_type": "飲食店営業",
      "address": "北葛城郡広陵町大場　１７２－２",
      "lat": 34.572741496,
      "lng": 135.76336662,
      "geocoding_level": 8,
      "phone": "0745-47-7797",
      "license_no": "第0821343号",
      "license_date": "2021-08-10",
      "expire_date": "2028-07-31"
    },
    {
      "name": "西つよしの店　ｋａｒａｏｋｅ＆ｌｉｖｅｈｏｕｓｅ　ＫＡＺＡＭＩＤＯＲＩ",
      "name_kana": "",
      "business_type": "飲食店営業",
      "address": "北葛城郡広陵町みささぎ台　３９－２２",
      "lat": 34.533873702,
      "lng": 135.732879375,
      "geocoding_level": 8,
      "phone": "",
      "license_no": "第0821366号",
      "license_date": "2021-08-24",
      "expire_date": "2028-07-31"
    },
    {
      "name": "旬の里・まみが丘",
      "name_kana": "",
      "business_type": "飲食店営業",
      "address": "北葛城郡広陵町疋相　４８９－１",
      "lat": 34.543690956,
      "lng": 135.731582302,
      "geocoding_level": 8,
      "phone": "0745-51-5144",
      "license_no": "第0214032号",
      "license_date": "2020-07-02",
      "expire_date": "2026-07-31"
    },
    {
      "name": "旬の里・まみが丘",
      "name_kana": "",
      "business_type": "食肉販売業",
      "address": "北葛城郡広陵町疋相　４８９－１",
      "lat": 34.543690956,
      "lng": 135.731582302,
      "geocoding_level": 8,
      "phone": "0745-51-5144",
      "license_no": "第0214033号",
      "license_date": "2020-07-02",
      "expire_date": "2026-07-31"
    },
    {
      "name": "んっちゃん",
      "name_kana": "",
      "business_type": "露店飲食店営業",
      "address": "北葛城郡広陵町　他県内一円（奈良市を除く）",
      "lat": 34.54274,
      "lng": 135.750842,
      "geocoding_level": 2,
      "phone": "",
      "license_no": "第0821457号",
      "license_date": "2021-09-16",
      "expire_date": "2027-02-28"
    },
    {
      "name": "Ｋ　ＣＯＦＦＥＥ　モリ　ロースタリ",
      "name_kana": "",
      "business_type": "飲食店営業",
      "address": "北葛城郡広陵町馬見中　１－８－６",
      "lat": 34.545599837,
      "lng": 135.729775017,
      "geocoding_level": 8,
      "phone": "",
      "license_no": "第0821470号",
      "license_date": "2021-09-28",
      "expire_date": "2028-07-31"
    },
    {
      "name": "寿司　秀すし",
      "name_kana": "",
      "business_type": "飲食店営業",
      "address": "北葛城郡広陵町平尾　６１１－３",
      "lat": 34.541611815,
      "lng": 135.738229279,
      "geocoding_level": 8,
      "phone": "0745-55-2015",
      "license_no": "第0821677号",
      "license_date": "2021-11-05",
      "expire_date": "2028-07-31"
    },
    {
      "name": "にぎり長次郎　真美ヶ丘店",
      "name_kana": "",
      "business_type": "飲食店営業",
      "address": "北葛城郡広陵町馬見北　９－１－３３",
      "lat": 34.550655365,
      "lng": 135.722477213,
      "geocoding_level": 8,
      "phone": "0745-54-3338",
      "license_no": "第0299230号",
      "license_date": "2019-07-12",
      "expire_date": "2026-07-31"
    },
    {
      "name": "食の逸品会",
      "name_kana": "",
      "business_type": "露店飲食店営業",
      "address": "北葛城郡広陵町他県内一円（奈良市を除く）",
      "lat": 34.54274,
      "lng": 135.750842,
      "geocoding_level": 2,
      "phone": "",
      "license_no": "第0821888号",
      "license_date": "2021-12-21",
      "expire_date": "2027-02-28"
    },
    {
      "name": "凜",
      "name_kana": "",
      "business_type": "飲食店営業",
      "address": "北葛城郡広陵町馬見中　４－１－１",
      "lat": 34.546211,
      "lng": 135.723614,
      "geocoding_level": 3,
      "phone": "",
      "license_no": "第0821894号",
      "license_date": "2022-01-05",
      "expire_date": "2028-07-31"
    },
    {
      "name": "おばんざい・寿司　夢楽",
      "name_kana": "",
      "business_type": "飲食店営業",
      "address": "北葛城郡広陵町南　３０－１",
      "lat": 34.565288882,
      "lng": 135.749286047,
      "geocoding_level": 8,
      "phone": "0745-28-2338",
      "license_no": "第0821991号",
      "license_date": "2022-02-21",
      "expire_date": "2028-07-31"
    },
    {
      "name": "焼肉　牛若丸",
      "name_kana": "",
      "business_type": "飲食店営業",
      "address": "北葛城郡広陵町馬見北　９－９－２５",
      "lat": 34.55228496000001,
      "lng": 135.72252776,
      "geocoding_level": 8,
      "phone": "0745-51-2925",
      "license_no": "第0821919号",
      "license_date": "2022-01-28",
      "expire_date": "2028-07-31"
    },
    {
      "name": "フラワーサークル",
      "name_kana": "",
      "business_type": "そうざい製造業",
      "address": "北葛城郡広陵町弁財天　３４８－３",
      "lat": 34.564096753,
      "lng": 135.752629753,
      "geocoding_level": 8,
      "phone": "0745-57-2493",
      "license_no": "第0821997号",
      "license_date": "2022-02-18",
      "expire_date": "2028-07-31"
    },
    {
      "name": "フラワーサークル",
      "name_kana": "",
      "business_type": "漬物製造業",
      "address": "北葛城郡広陵町弁財天　３４８－３",
      "lat": 34.564096753,
      "lng": 135.752629753,
      "geocoding_level": 8,
      "phone": "0745-57-2493",
      "license_no": "第0821998号",
      "license_date": "2022-02-18",
      "expire_date": "2028-07-31"
    },
    {
      "name": "こまめ焼菓子店",
      "name_kana": "",
      "business_type": "露店飲食店営業",
      "address": "北葛城郡広陵町他県内一円（奈良市を除く）",
      "lat": 34.54274,
      "lng": 135.750842,
      "geocoding_level": 2,
      "phone": "",
      "license_no": "第0821967号",
      "license_date": "2022-02-10",
      "expire_date": "2027-02-28"
    },
    {
      "name": "長龍ブリューパーク",
      "name_kana": "",
      "business_type": "飲食店営業",
      "address": "北葛城郡広陵町南　７－１",
      "lat": 34.566561381,
      "lng": 135.74829298,
      "geocoding_level": 8,
      "phone": "0745-56-2026",
      "license_no": "第08211001号",
      "license_date": "2022-02-18",
      "expire_date": "2028-07-31"
    },
    {
      "name": "ＲＥＡＬＥ",
      "name_kana": "",
      "business_type": "麺類製造業",
      "address": "北葛城郡広陵町馬見南　１－６－２６",
      "lat": 34.542180795,
      "lng": 135.728907645,
      "geocoding_level": 8,
      "phone": "",
      "license_no": "第08211003号",
      "license_date": "2022-02-22",
      "expire_date": "2028-07-31"
    },
    {
      "name": "早川精肉店",
      "name_kana": "",
      "business_type": "食肉販売業",
      "address": "北葛城郡広陵町疋相　７２",
      "lat": 34.544087,
      "lng": 135.737274,
      "geocoding_level": 3,
      "phone": "",
      "license_no": "第08211172号",
      "license_date": "2022-03-14",
      "expire_date": "2028-07-31"
    },
    {
      "name": "ＴＡＫＥＹＡＮ　ＣＡＦＥ",
      "name_kana": "",
      "business_type": "自動車飲食店営業",
      "address": "北葛城郡広陵町他県内一円（奈良市を除く）",
      "lat": 34.54274,
      "lng": 135.750842,
      "geocoding_level": 2,
      "phone": "",
      "license_no": "第08211218号",
      "license_date": "2022-03-28",
      "expire_date": "2027-09-30"
    },
    {
      "name": "一味",
      "name_kana": "",
      "business_type": "飲食店営業",
      "address": "北葛城郡広陵町馬見北　３－７－３３",
      "lat": 34.553857534,
      "lng": 135.732807501,
      "geocoding_level": 8,
      "phone": "",
      "license_no": "第08220135号",
      "license_date": "2022-04-28",
      "expire_date": "2028-07-31"
    },
    {
      "name": "伯爵",
      "name_kana": "",
      "business_type": "飲食店営業",
      "address": "北葛城郡広陵町南郷　８４－１",
      "lat": 34.533047175,
      "lng": 135.754443116,
      "geocoding_level": 8,
      "phone": "",
      "license_no": "第08220215号",
      "license_date": "2022-05-31",
      "expire_date": "2028-07-31"
    },
    {
      "name": "やきにく　神城",
      "name_kana": "",
      "business_type": "飲食店営業",
      "address": "北葛城郡広陵町平尾　８１２－１",
      "lat": 34.537945196,
      "lng": 135.744132301,
      "geocoding_level": 8,
      "phone": "0745-43-7794",
      "license_no": "第08220250号",
      "license_date": "2022-06-21",
      "expire_date": "2028-07-31"
    },
    {
      "name": "長龍酒造（株）　広陵蔵",
      "name_kana": "",
      "business_type": "酒類製造業",
      "address": "北葛城郡広陵町南　４",
      "lat": 34.56336,
      "lng": 135.753063,
      "geocoding_level": 3,
      "phone": "0745-56-2026",
      "license_no": "第08220296号",
      "license_date": "2022-07-05",
      "expire_date": "2029-07-31"
    },
    {
      "name": "第一楼",
      "name_kana": "",
      "business_type": "飲食店営業",
      "address": "北葛城郡広陵町馬見中　４－１－１",
      "lat": 34.546211,
      "lng": 135.723614,
      "geocoding_level": 3,
      "phone": "",
      "license_no": "第08220284号",
      "license_date": "2022-06-27",
      "expire_date": "2029-07-31"
    },
    {
      "name": "イタリア工房　アペティート",
      "name_kana": "",
      "business_type": "飲食店営業",
      "address": "北葛城郡広陵町馬見北　７－９－１８",
      "lat": 34.553516115,
      "lng": 135.723252344,
      "geocoding_level": 8,
      "phone": "0745-55-6867",
      "license_no": "第08220297号",
      "license_date": "2022-06-27",
      "expire_date": "2028-07-31"
    },
    {
      "name": "Ｍａｎｏ　Ｍａｎｏ",
      "name_kana": "",
      "business_type": "飲食店営業",
      "address": "北葛城郡広陵町疋相　５１－４",
      "lat": 34.542260894,
      "lng": 135.742992247,
      "geocoding_level": 8,
      "phone": "0745-55-1353",
      "license_no": "第08220300号",
      "license_date": "2022-06-29",
      "expire_date": "2028-07-31"
    },
    {
      "name": "なごみ",
      "name_kana": "",
      "business_type": "飲食店営業",
      "address": "北葛城郡広陵町馬見北　９－１２－２７",
      "lat": 34.552656232,
      "lng": 135.722537146,
      "geocoding_level": 8,
      "phone": "0745-54-5865",
      "license_no": "第08220301号",
      "license_date": "2022-06-29",
      "expire_date": "2028-07-31"
    },
    {
      "name": "讃良",
      "name_kana": "",
      "business_type": "飲食店営業",
      "address": "北葛城郡広陵町みささぎ台　２１－５",
      "lat": 34.529825423,
      "lng": 135.731319523,
      "geocoding_level": 8,
      "phone": "0745-54-0129",
      "license_no": "第08220302号",
      "license_date": "2022-06-29",
      "expire_date": "2028-07-31"
    },
    {
      "name": "カラオケ　美津子",
      "name_kana": "",
      "business_type": "飲食店営業",
      "address": "北葛城郡広陵町馬見北　１－７－５",
      "lat": 34.554479733,
      "lng": 135.733066446,
      "geocoding_level": 8,
      "phone": "",
      "license_no": "第08220303号",
      "license_date": "2022-06-30",
      "expire_date": "2028-07-31"
    },
    {
      "name": "広陵南保育園",
      "name_kana": "",
      "business_type": "飲食店営業",
      "address": "北葛城郡広陵町南郷　１１５０",
      "lat": 34.538369326,
      "lng": 135.752251486,
      "geocoding_level": 8,
      "phone": "",
      "license_no": "第08220305号",
      "license_date": "2022-07-05",
      "expire_date": "2028-07-31"
    },
    {
      "name": "海鮮中華料理　呑",
      "name_kana": "",
      "business_type": "飲食店営業",
      "address": "北葛城郡広陵町みささぎ台　１－３５",
      "lat": 34.534289635,
      "lng": 135.734114649,
      "geocoding_level": 8,
      "phone": "0745-55-3319",
      "license_no": "第08220306号",
      "license_date": "2022-07-01",
      "expire_date": "2028-07-31"
    },
    {
      "name": "グラデボーレ　アルバ",
      "name_kana": "",
      "business_type": "飲食店営業",
      "address": "北葛城郡広陵町馬見中　２－５－１２",
      "lat": 34.549214393,
      "lng": 135.732149234,
      "geocoding_level": 8,
      "phone": "0745-55-5067",
      "license_no": "第08220308号",
      "license_date": "2022-07-04",
      "expire_date": "2028-07-31"
    },
    {
      "name": "ホリーズカフェ　イズミヤ広陵店",
      "name_kana": "",
      "business_type": "飲食店営業",
      "address": "北葛城郡広陵町安部　４５０－１",
      "lat": 34.533896651,
      "lng": 135.744925337,
      "geocoding_level": 8,
      "phone": "0745-54-6616",
      "license_no": "第08220309号",
      "license_date": "2022-07-04",
      "expire_date": "2028-07-31"
    },
    {
      "name": "かぐやの里　厨房",
      "name_kana": "",
      "business_type": "飲食店営業",
      "address": "北葛城郡広陵町三吉　１７９９－１",
      "lat": 34.551282,
      "lng": 135.741987,
      "geocoding_level": 3,
      "phone": "0745-58-2224",
      "license_no": "第08220310号",
      "license_date": "2022-07-04",
      "expire_date": "2029-07-31"
    },
    {
      "name": "Ｃａｆｅ　Ｓａｒａｒａ＆Ｓｕｎｒｉｃｅ",
      "name_kana": "",
      "business_type": "飲食店営業",
      "address": "北葛城郡広陵町百済　１８１１－１",
      "lat": 34.546508055,
      "lng": 135.75951349,
      "geocoding_level": 8,
      "phone": "",
      "license_no": "第08220311号",
      "license_date": "2022-07-05",
      "expire_date": "2028-07-31"
    },
    {
      "name": "だがし屋ラフター",
      "name_kana": "",
      "business_type": "露店飲食店営業",
      "address": "北葛城郡広陵町他県内一円（奈良市を除く）",
      "lat": 34.54274,
      "lng": 135.750842,
      "geocoding_level": 2,
      "phone": "",
      "license_no": "第08220410号",
      "license_date": "2022-07-15",
      "expire_date": "2028-02-29"
    },
    {
      "name": "やまざき屋",
      "name_kana": "",
      "business_type": "飲食店営業",
      "address": "北葛城郡広陵町馬見北　９－１－３８",
      "lat": 34.550223536,
      "lng": 135.722585107,
      "geocoding_level": 8,
      "phone": "0745-54-0277",
      "license_no": "第08220414号",
      "license_date": "2022-07-25",
      "expire_date": "2028-07-31"
    },
    {
      "name": "仕出し　津川",
      "name_kana": "",
      "business_type": "そうざい製造業",
      "address": "北葛城郡広陵町萱野　６５４",
      "lat": 34.565000316,
      "lng": 135.750445942,
      "geocoding_level": 8,
      "phone": "0745-56-2154",
      "license_no": "第08220434号",
      "license_date": "2022-08-02",
      "expire_date": "2029-07-31"
    },
    {
      "name": "広陵町立広陵西小学校",
      "name_kana": "",
      "business_type": "飲食店営業",
      "address": "北葛城郡広陵町平尾　５４２",
      "lat": 34.539895,
      "lng": 135.740043,
      "geocoding_level": 3,
      "phone": "0745-55-2388",
      "license_no": "第0821358号",
      "license_date": "2021-08-23",
      "expire_date": "2029-07-31"
    },
    {
      "name": "焼肉・高石",
      "name_kana": "",
      "business_type": "飲食店営業",
      "address": "北葛城郡広陵町大塚　５２－１",
      "lat": 34.533006092,
      "lng": 135.743492143,
      "geocoding_level": 8,
      "phone": "",
      "license_no": "第08230007号",
      "license_date": "2023-04-04",
      "expire_date": "2029-07-31"
    },
    {
      "name": "まるや",
      "name_kana": "",
      "business_type": "露店飲食店営業",
      "address": "北葛城郡広陵町他県内一円（奈良市を除く）",
      "lat": 34.54274,
      "lng": 135.750842,
      "geocoding_level": 2,
      "phone": "",
      "license_no": "第08220574号",
      "license_date": "2022-09-27",
      "expire_date": "2028-02-29"
    },
    {
      "name": "激おこぷんぷんまる",
      "name_kana": "",
      "business_type": "飲食店営業",
      "address": "北葛城郡広陵町笠　１７８－１",
      "lat": 34.542920396,
      "lng": 135.745730255,
      "geocoding_level": 8,
      "phone": "",
      "license_no": "第08220680号",
      "license_date": "2022-11-01",
      "expire_date": "2029-07-31"
    },
    {
      "name": "Ｈａｎａ",
      "name_kana": "",
      "business_type": "飲食店営業",
      "address": "北葛城郡広陵町みささぎ台　１６－５",
      "lat": 34.532482045,
      "lng": 135.732804577,
      "geocoding_level": 8,
      "phone": "",
      "license_no": "第08220512号",
      "license_date": "2022-09-06",
      "expire_date": "2029-07-31"
    },
    {
      "name": "炭火焼肉　食神苑　はなれ",
      "name_kana": "",
      "business_type": "飲食店営業",
      "address": "北葛城郡広陵町三吉　３０９－１",
      "lat": 34.551282,
      "lng": 135.741987,
      "geocoding_level": 3,
      "phone": "0745-55-2999",
      "license_no": "第08220679号",
      "license_date": "2022-11-01",
      "expire_date": "2029-07-31"
    },
    {
      "name": "奈良広陵食堂",
      "name_kana": "",
      "business_type": "飲食店営業",
      "address": "北葛城郡広陵町大塚　７０－３",
      "lat": 34.531261156,
      "lng": 135.74416042,
      "geocoding_level": 8,
      "phone": "0745-54-6123",
      "license_no": "第08220979号",
      "license_date": "2022-12-08",
      "expire_date": "2029-07-31"
    },
    {
      "name": "ＯＧＡＳＰＡ",
      "name_kana": "",
      "business_type": "自動車飲食店営業",
      "address": "北葛城郡広陵町他県内一円（奈良市を除く）",
      "lat": 34.54274,
      "lng": 135.750842,
      "geocoding_level": 2,
      "phone": "",
      "license_no": "第08221017号",
      "license_date": "2023-01-06",
      "expire_date": "2028-09-30"
    },
    {
      "name": "餃子の王将広陵店",
      "name_kana": "",
      "business_type": "飲食店営業",
      "address": "北葛城郡広陵町安部　６３－１",
      "lat": 34.536123218,
      "lng": 135.74354933,
      "geocoding_level": 8,
      "phone": "0745-55-2568",
      "license_no": "第0211185号",
      "license_date": "2019-07-29",
      "expire_date": "2026-07-31"
    },
    {
      "name": "トリ・ストーリー",
      "name_kana": "",
      "business_type": "飲食店営業",
      "address": "北葛城郡広陵町三吉　３９７－１",
      "lat": 34.551282,
      "lng": 135.741987,
      "geocoding_level": 3,
      "phone": "0745-44-3157",
      "license_no": "第08221056号",
      "license_date": "2023-02-08",
      "expire_date": "2029-07-31"
    },
    {
      "name": "トリ・ストーリー",
      "name_kana": "",
      "business_type": "自動車飲食店営業",
      "address": "北葛城郡広陵町他県内一円（奈良市を除く）",
      "lat": 34.54274,
      "lng": 135.750842,
      "geocoding_level": 2,
      "phone": "",
      "license_no": "第08221055号",
      "license_date": "2023-02-07",
      "expire_date": "2028-09-30"
    },
    {
      "name": "Ｃａｆｅ＇　ｄｅ　からん",
      "name_kana": "",
      "business_type": "露店飲食店営業",
      "address": "北葛城郡広陵町他県内一円（奈良市を除く）",
      "lat": 34.54274,
      "lng": 135.750842,
      "geocoding_level": 2,
      "phone": "",
      "license_no": "第08221070号",
      "license_date": "2023-02-13",
      "expire_date": "2028-02-29"
    },
    {
      "name": "肉匠たけ田",
      "name_kana": "",
      "business_type": "露店飲食店営業",
      "address": "北葛城郡広陵町他県内一円（奈良市を除く）",
      "lat": 34.54274,
      "lng": 135.750842,
      "geocoding_level": 2,
      "phone": "",
      "license_no": "第08221087号",
      "license_date": "2023-02-21",
      "expire_date": "2028-02-29"
    },
    {
      "name": "麺　１００％",
      "name_kana": "",
      "business_type": "飲食店営業",
      "address": "北葛城郡広陵町みささぎ台　６－２２",
      "lat": 34.533574805,
      "lng": 135.735088935,
      "geocoding_level": 8,
      "phone": "0745-27-9627",
      "license_no": "第08221285号",
      "license_date": "2023-03-10",
      "expire_date": "2029-07-31"
    },
    {
      "name": "おきなの杜",
      "name_kana": "",
      "business_type": "飲食店営業",
      "address": "北葛城郡広陵町南郷　８４－１",
      "lat": 34.533047175,
      "lng": 135.754443116,
      "geocoding_level": 8,
      "phone": "0745-55-5551",
      "license_no": "第08221307号",
      "license_date": "2023-03-20",
      "expire_date": "2029-07-31"
    },
    {
      "name": "まちの駅　広陵　はしお元気村　マルシェ",
      "name_kana": "",
      "business_type": "飲食店営業",
      "address": "北葛城郡広陵町弁財天　２９５－３",
      "lat": 34.563004484,
      "lng": 135.74917748,
      "geocoding_level": 8,
      "phone": "0745-57-3232",
      "license_no": "第0820644号",
      "license_date": "2021-03-16",
      "expire_date": "2027-07-31"
    },
    {
      "name": "Ｃａｆｅ’ｄｅ　からん　雅",
      "name_kana": "",
      "business_type": "飲食店営業",
      "address": "北葛城郡広陵町三吉　３９６－１",
      "lat": 34.551282,
      "lng": 135.741987,
      "geocoding_level": 3,
      "phone": "0745-55-4946",
      "license_no": "第08230008号",
      "license_date": "2023-04-04",
      "expire_date": "2029-07-31"
    },
    {
      "name": "おはようこんにちはこんばんはたると",
      "name_kana": "",
      "business_type": "飲食店営業",
      "address": "北葛城郡広陵町馬見北　９－９－３０",
      "lat": 34.551839939,
      "lng": 135.722490317,
      "geocoding_level": 8,
      "phone": "0745-28-2999",
      "license_no": "第08230198号",
      "license_date": "2023-06-20",
      "expire_date": "2029-07-31"
    },
    {
      "name": "ｃａｆｅ　ｄｉｎｉｎｇ　Ｗａｎｄ’ｓ３",
      "name_kana": "",
      "business_type": "飲食店営業",
      "address": "北葛城郡広陵町大塚　５２",
      "lat": 34.531514,
      "lng": 135.738754,
      "geocoding_level": 3,
      "phone": "",
      "license_no": "第08230422号",
      "license_date": "2023-09-07",
      "expire_date": "2030-07-31"
    },
    {
      "name": "株式会社エイチ・ツー・オー商業開発",
      "name_kana": "",
      "business_type": "自動車飲食店営業",
      "address": "北葛城郡広陵町他県内一円（奈良市を除く）",
      "lat": 34.54274,
      "lng": 135.750842,
      "geocoding_level": 2,
      "phone": "",
      "license_no": "第08230136号",
      "license_date": "2023-05-25",
      "expire_date": "2028-09-30"
    },
    {
      "name": "畿央大学",
      "name_kana": "",
      "business_type": "飲食店営業",
      "address": "北葛城郡広陵町馬見中　４－２－２",
      "lat": 34.546211,
      "lng": 135.723614,
      "geocoding_level": 3,
      "phone": "",
      "license_no": "第08230208号",
      "license_date": "2023-06-22",
      "expire_date": "2029-07-31"
    },
    {
      "name": "次郎坊",
      "name_kana": "",
      "business_type": "飲食店営業",
      "address": "北葛城郡広陵町みささぎ台　８－２６",
      "lat": 34.533824655,
      "lng": 135.733414749,
      "geocoding_level": 8,
      "phone": "0745-55-8899",
      "license_no": "第08230215号",
      "license_date": "2023-06-26",
      "expire_date": "2029-07-31"
    },
    {
      "name": "鳥音　かしわ店",
      "name_kana": "",
      "business_type": "飲食店営業",
      "address": "北葛城郡広陵町馬見中　４－１",
      "lat": 34.546211,
      "lng": 135.723614,
      "geocoding_level": 3,
      "phone": "0745-55-8098",
      "license_no": "第08230242号",
      "license_date": "2023-07-04",
      "expire_date": "2029-07-31"
    },
    {
      "name": "鳥音　かしわ店",
      "name_kana": "",
      "business_type": "食肉販売業",
      "address": "北葛城郡広陵町馬見中　４－１",
      "lat": 34.546211,
      "lng": 135.723614,
      "geocoding_level": 3,
      "phone": "0745-55-8098",
      "license_no": "第08230243号",
      "license_date": "2023-07-04",
      "expire_date": "2029-07-31"
    },
    {
      "name": "ヒュッテ　虹",
      "name_kana": "",
      "business_type": "飲食店営業",
      "address": "北葛城郡広陵町南郷　６５１－１",
      "lat": 34.542358084,
      "lng": 135.749947812,
      "geocoding_level": 8,
      "phone": "0745-55-5300",
      "license_no": "第08230216号",
      "license_date": "2023-06-26",
      "expire_date": "2029-07-31"
    },
    {
      "name": "じゃんぼ總本店　広陵中和幹線店",
      "name_kana": "",
      "business_type": "飲食店営業",
      "address": "北葛城郡広陵町安部　４０１",
      "lat": 34.533654,
      "lng": 135.742731,
      "geocoding_level": 3,
      "phone": "0745-55-9944",
      "license_no": "第08230209号",
      "license_date": "2023-06-22",
      "expire_date": "2029-07-31"
    },
    {
      "name": "長龍酒造　株式会社　広陵蔵",
      "name_kana": "",
      "business_type": "清涼飲料水製造業",
      "address": "北葛城郡広陵町南　４",
      "lat": 34.56336,
      "lng": 135.753063,
      "geocoding_level": 3,
      "phone": "0745-56-2026",
      "license_no": "第08230225号",
      "license_date": "2023-06-29",
      "expire_date": "2030-07-31"
    },
    {
      "name": "３ｃａｆé",
      "name_kana": "",
      "business_type": "飲食店営業",
      "address": "北葛城郡広陵町三吉　３０８－１",
      "lat": 34.551282,
      "lng": 135.741987,
      "geocoding_level": 3,
      "phone": "0745-27-7789",
      "license_no": "第08230213号",
      "license_date": "2023-06-26",
      "expire_date": "2029-07-31"
    },
    {
      "name": "肉匠　たけ田",
      "name_kana": "",
      "business_type": "飲食店営業",
      "address": "北葛城郡広陵町古寺　６２４－１",
      "lat": 34.549278737,
      "lng": 135.749696656,
      "geocoding_level": 8,
      "phone": "0745-56-2983",
      "license_no": "第08230244号",
      "license_date": "2023-07-04",
      "expire_date": "2029-07-31"
    },
    {
      "name": "肉匠　たけ田",
      "name_kana": "",
      "business_type": "食肉販売業",
      "address": "北葛城郡広陵町古寺　６２４－１",
      "lat": 34.549278737,
      "lng": 135.749696656,
      "geocoding_level": 8,
      "phone": "0745-56-2983",
      "license_no": "第08230245号",
      "license_date": "2023-07-04",
      "expire_date": "2029-07-31"
    },
    {
      "name": "樹苑",
      "name_kana": "",
      "business_type": "食肉販売業",
      "address": "北葛城郡広陵町南郷　５６７－５",
      "lat": 34.541847066,
      "lng": 135.751119956,
      "geocoding_level": 8,
      "phone": "0745-54-1129",
      "license_no": "第08230218号",
      "license_date": "2023-06-26",
      "expire_date": "2029-07-31"
    },
    {
      "name": "ボヌール",
      "name_kana": "",
      "business_type": "飲食店営業",
      "address": "北葛城郡広陵町馬見北　９－９－３０",
      "lat": 34.551839939,
      "lng": 135.722490317,
      "geocoding_level": 8,
      "phone": "0745-54-6555",
      "license_no": "第08230267号",
      "license_date": "2023-07-07",
      "expire_date": "2029-07-31"
    },
    {
      "name": "ふぃ～りんぐ",
      "name_kana": "",
      "business_type": "飲食店営業",
      "address": "北葛城郡広陵町馬見北　９－１－４２",
      "lat": 34.549863803,
      "lng": 135.722631437,
      "geocoding_level": 8,
      "phone": "0745-55-8607",
      "license_no": "第08230210号",
      "license_date": "2023-06-20",
      "expire_date": "2029-07-31"
    },
    {
      "name": "真美ヶ丘第一小学校",
      "name_kana": "",
      "business_type": "飲食店営業",
      "address": "北葛城郡広陵町馬見南　２－１－３０",
      "lat": 34.539997229,
      "lng": 135.731917399,
      "geocoding_level": 8,
      "phone": "0745-55-2764",
      "license_no": "第08230226号",
      "license_date": "2023-06-29",
      "expire_date": "2030-07-31"
    },
    {
      "name": "真美ケ丘第二小学校",
      "name_kana": "",
      "business_type": "飲食店営業",
      "address": "北葛城郡広陵町馬見北　７－１－３２",
      "lat": 34.552021755,
      "lng": 135.723102792,
      "geocoding_level": 8,
      "phone": "0745-55-6230",
      "license_no": "第08230227号",
      "license_date": "2023-06-29",
      "expire_date": "2030-07-31"
    },
    {
      "name": "広陵北小学校",
      "name_kana": "",
      "business_type": "飲食店営業",
      "address": "北葛城郡広陵町弁財天　３０３",
      "lat": 34.56399100000001,
      "lng": 135.759704,
      "geocoding_level": 3,
      "phone": "0745-56-2062",
      "license_no": "第08230228号",
      "license_date": "2023-06-29",
      "expire_date": "2030-07-31"
    },
    {
      "name": "居酒屋　あおい",
      "name_kana": "",
      "business_type": "飲食店営業",
      "address": "北葛城郡広陵町平尾　６８３－１",
      "lat": 34.540107873,
      "lng": 135.739511503,
      "geocoding_level": 8,
      "phone": "0745-55-0577",
      "license_no": "第08230290号",
      "license_date": "2023-07-11",
      "expire_date": "2029-07-31"
    },
    {
      "name": "畿央大学食堂",
      "name_kana": "",
      "business_type": "飲食店営業",
      "address": "北葛城郡広陵町馬見中　４－２－２",
      "lat": 34.546211,
      "lng": 135.723614,
      "geocoding_level": 3,
      "phone": "0745-55-8120",
      "license_no": "第08230291号",
      "license_date": "2023-07-11",
      "expire_date": "2030-07-31"
    },
    {
      "name": "七海水産株式会社　旬海",
      "name_kana": "",
      "business_type": "飲食店営業",
      "address": "北葛城郡広陵町馬見中　４－１－１",
      "lat": 34.546211,
      "lng": 135.723614,
      "geocoding_level": 3,
      "phone": "0745-55-1030",
      "license_no": "第08230324号",
      "license_date": "2023-07-20",
      "expire_date": "2030-07-31"
    },
    {
      "name": "七海水産株式会社　旬海",
      "name_kana": "",
      "business_type": "魚介類販売業",
      "address": "北葛城郡広陵町馬見中４－１－１",
      "lat": 34.546211,
      "lng": 135.723614,
      "geocoding_level": 3,
      "phone": "0745-55-1030",
      "license_no": "第08230325号",
      "license_date": "2023-07-20",
      "expire_date": "2030-07-31"
    },
    {
      "name": "ふじみや",
      "name_kana": "",
      "business_type": "食肉処理業",
      "address": "北葛城郡広陵町南郷　５２１",
      "lat": 34.538205,
      "lng": 135.752117,
      "geocoding_level": 3,
      "phone": "0745-57-2349",
      "license_no": "第08230341号",
      "license_date": "2023-07-28",
      "expire_date": "2029-07-31"
    },
    {
      "name": "黄金屋",
      "name_kana": "",
      "business_type": "飲食店営業",
      "address": "北葛城郡広陵町安部　７２７",
      "lat": 34.533654,
      "lng": 135.742731,
      "geocoding_level": 3,
      "phone": "",
      "license_no": "第08230342号",
      "license_date": "2023-07-31",
      "expire_date": "2029-07-31"
    },
    {
      "name": "スマイル食堂。",
      "name_kana": "",
      "business_type": "飲食店営業",
      "address": "北葛城郡広陵町大野　３８２－１",
      "lat": 34.568796796,
      "lng": 135.745324386,
      "geocoding_level": 8,
      "phone": "",
      "license_no": "第08230392号",
      "license_date": "2023-08-28",
      "expire_date": "2030-07-31"
    },
    {
      "name": "Ｎａｒａｆｏｒｎｉａ",
      "name_kana": "",
      "business_type": "飲食店営業",
      "address": "北葛城郡広陵町沢　４８３－１",
      "lat": 34.5763155,
      "lng": 135.742762027,
      "geocoding_level": 8,
      "phone": "0745-57-3000",
      "license_no": "第08230546号",
      "license_date": "2023-10-12",
      "expire_date": "2030-07-31"
    },
    {
      "name": "からくれなゐ",
      "name_kana": "",
      "business_type": "飲食店営業",
      "address": "北葛城郡広陵町寺戸　６３０",
      "lat": 34.558402876,
      "lng": 135.743297465,
      "geocoding_level": 8,
      "phone": "",
      "license_no": "第08220021号",
      "license_date": "2022-04-13",
      "expire_date": "2028-07-31"
    },
    {
      "name": "海せん酒場　笑間",
      "name_kana": "",
      "business_type": "飲食店営業",
      "address": "北葛城郡広陵町南郷　５７８－６",
      "lat": 34.542262982,
      "lng": 135.750258375,
      "geocoding_level": 8,
      "phone": "",
      "license_no": "第08230758号",
      "license_date": "2023-12-01",
      "expire_date": "2030-07-31"
    },
    {
      "name": "ｅａｒｔｈ　ｃｏｌｏｒｓ",
      "name_kana": "",
      "business_type": "露店飲食店営業",
      "address": "北葛城郡広陵町他県内一円（奈良市を除く）",
      "lat": 34.54274,
      "lng": 135.750842,
      "geocoding_level": 2,
      "phone": "",
      "license_no": "第08230787号",
      "license_date": "2023-12-11",
      "expire_date": "2029-02-28"
    },
    {
      "name": "ｃａｆｅ　ｍａｎｏ＆ｍａｎｏ",
      "name_kana": "",
      "business_type": "飲食店営業",
      "address": "北葛城郡広陵町疋相　５１－４",
      "lat": 34.542260894,
      "lng": 135.742992247,
      "geocoding_level": 8,
      "phone": "",
      "license_no": "第08230833号",
      "license_date": "2024-01-26",
      "expire_date": "2030-07-31"
    },
    {
      "name": "生嶋　良信",
      "name_kana": "",
      "business_type": "露店飲食店営業",
      "address": "北葛城郡広陵町他県内一円（奈良市を除く）",
      "lat": 34.54274,
      "lng": 135.750842,
      "geocoding_level": 2,
      "phone": "",
      "license_no": "第08230832号",
      "license_date": "2024-01-23",
      "expire_date": "2029-02-28"
    },
    {
      "name": "もっちりうどんと追い鰹　杵の音　真美ヶ丘店",
      "name_kana": "",
      "business_type": "飲食店営業",
      "address": "北葛城郡広陵町馬見北　９－９－３４",
      "lat": 34.551484712,
      "lng": 135.722454074,
      "geocoding_level": 8,
      "phone": "0745-51-1151",
      "license_no": "第08240034号",
      "license_date": "2024-04-17",
      "expire_date": "2030-07-31"
    },
    {
      "name": "ＭＡＧ’ｓ　ｋｉｔｃｈｅｎ",
      "name_kana": "",
      "business_type": "露店飲食店営業",
      "address": "北葛城郡広陵町　他県内一円（奈良市を除く）",
      "lat": 34.54274,
      "lng": 135.750842,
      "geocoding_level": 2,
      "phone": "",
      "license_no": "第08240057号",
      "license_date": "2024-04-23",
      "expire_date": "2030-02-28"
    },
    {
      "name": "イズミヤ広陵店",
      "name_kana": "",
      "business_type": "飲食店営業",
      "address": "北葛城郡広陵町安部　４５０－１",
      "lat": 34.533896651,
      "lng": 135.744925337,
      "geocoding_level": 8,
      "phone": "0745-54-1253",
      "license_no": "第08230304号",
      "license_date": "2023-07-14",
      "expire_date": "2030-07-31"
    },
    {
      "name": "イズミヤ広陵店",
      "name_kana": "",
      "business_type": "魚介類販売業",
      "address": "北葛城郡広陵町安部　４５０－１",
      "lat": 34.533896651,
      "lng": 135.744925337,
      "geocoding_level": 8,
      "phone": "0745-54-1253",
      "license_no": "第08230305号",
      "license_date": "2023-07-14",
      "expire_date": "2030-07-31"
    },
    {
      "name": "イズミヤ広陵店",
      "name_kana": "",
      "business_type": "食肉販売業",
      "address": "北葛城郡広陵町安部　４５０－１",
      "lat": 34.533896651,
      "lng": 135.744925337,
      "geocoding_level": 8,
      "phone": "0745-54-1253",
      "license_no": "第08230306号",
      "license_date": "2023-07-14",
      "expire_date": "2030-07-31"
    },
    {
      "name": "イズミヤ株式会社　広陵店",
      "name_kana": "",
      "business_type": "飲食店営業",
      "address": "北葛城郡広陵町安部　４５０－１",
      "lat": 34.533896651,
      "lng": 135.744925337,
      "geocoding_level": 8,
      "phone": "0745-54-1238",
      "license_no": "第0821255号",
      "license_date": "2021-07-12",
      "expire_date": "2027-07-31"
    },
    {
      "name": "広陵遊笑会",
      "name_kana": "",
      "business_type": "露店飲食店営業",
      "address": "北葛城郡広陵町　他県内一円（奈良市を除く）",
      "lat": 34.54274,
      "lng": 135.750842,
      "geocoding_level": 2,
      "phone": "",
      "license_no": "第08240087号",
      "license_date": "2024-05-08",
      "expire_date": "2030-02-28"
    },
    {
      "name": "食神苑　はなれ",
      "name_kana": "",
      "business_type": "漬物製造業",
      "address": "北葛城郡広陵町三吉　３０９－１",
      "lat": 34.551282,
      "lng": 135.741987,
      "geocoding_level": 3,
      "phone": "0745-55-2999",
      "license_no": "第08240196号",
      "license_date": "2024-06-07",
      "expire_date": "2030-07-31"
    },
    {
      "name": "ＳＭＯＫＥ　ＥＡＳＹ　ＣＡＰＯＮＥ",
      "name_kana": "",
      "business_type": "飲食店営業",
      "address": "北葛城郡広陵町大塚　５２－１",
      "lat": 34.533006092,
      "lng": 135.743492143,
      "geocoding_level": 8,
      "phone": "",
      "license_no": "第08240233号",
      "license_date": "2024-06-14",
      "expire_date": "2030-07-31"
    },
    {
      "name": "（株）大宝工業",
      "name_kana": "",
      "business_type": "飲食店営業",
      "address": "北葛城郡広陵町萱野　１０２",
      "lat": 34.571071,
      "lng": 135.751656,
      "geocoding_level": 3,
      "phone": "0745-60-4826",
      "license_no": "第0213095号",
      "license_date": "2020-07-17",
      "expire_date": "2026-07-31"
    },
    {
      "name": "こけこっこ",
      "name_kana": "",
      "business_type": "飲食店営業",
      "address": "北葛城郡広陵町馬見中　５－１－２６　１０１",
      "lat": 34.54785852,
      "lng": 135.722218887,
      "geocoding_level": 8,
      "phone": "0745-55-4095",
      "license_no": "第08240293号",
      "license_date": "2024-07-03",
      "expire_date": "2030-07-31"
    },
    {
      "name": "新羅屋",
      "name_kana": "",
      "business_type": "飲食店営業",
      "address": "北葛城郡広陵町馬見北　９－１－４２",
      "lat": 34.549863803,
      "lng": 135.722631437,
      "geocoding_level": 8,
      "phone": "0745-55-6888",
      "license_no": "第08240294号",
      "license_date": "2024-07-03",
      "expire_date": "2030-07-31"
    },
    {
      "name": "ＣＯＦＦＥＥ　ＢＥＡＴ",
      "name_kana": "",
      "business_type": "飲食店営業",
      "address": "北葛城郡広陵町馬見北　１－７－９－２",
      "lat": 34.553246,
      "lng": 135.733443,
      "geocoding_level": 3,
      "phone": "",
      "license_no": "第08240319号",
      "license_date": "2024-07-10",
      "expire_date": "2030-07-31"
    },
    {
      "name": "おうちＣａｆｅ　わんこ堂",
      "name_kana": "",
      "business_type": "密封包装食品製造業",
      "address": "北葛城郡広陵町馬見北　５－３－１２",
      "lat": 34.553236281,
      "lng": 135.72717567,
      "geocoding_level": 8,
      "phone": "0745-55-7065",
      "license_no": "第08240261号",
      "license_date": "2024-06-26",
      "expire_date": "2030-07-31"
    },
    {
      "name": "やきとり大吉",
      "name_kana": "",
      "business_type": "飲食店営業",
      "address": "北葛城郡広陵町馬見北　９－９－２３",
      "lat": 34.552491804,
      "lng": 135.722533061,
      "geocoding_level": 8,
      "phone": "0745-54-5498",
      "license_no": "第08240286号",
      "license_date": "2024-07-04",
      "expire_date": "2030-07-31"
    },
    {
      "name": "旬彩　ゆうはな",
      "name_kana": "",
      "business_type": "飲食店営業",
      "address": "北葛城郡広陵町馬見北　９－９－２３",
      "lat": 34.552491804,
      "lng": 135.722533061,
      "geocoding_level": 8,
      "phone": "0745-54-5887",
      "license_no": "第08240321号",
      "license_date": "2024-07-05",
      "expire_date": "2030-07-31"
    },
    {
      "name": "ＳＤ食品株式会社",
      "name_kana": "",
      "business_type": "複合型冷凍食品製造業",
      "address": "北葛城郡広陵町大塚　３７５－１",
      "lat": 34.527703267,
      "lng": 135.7362857,
      "geocoding_level": 8,
      "phone": "0745-55-2299",
      "license_no": "第08240282号",
      "license_date": "2024-07-03",
      "expire_date": "2031-07-31"
    },
    {
      "name": "こがね",
      "name_kana": "",
      "business_type": "飲食店営業",
      "address": "北葛城郡広陵町南郷　５７８－６",
      "lat": 34.542262982,
      "lng": 135.750258375,
      "geocoding_level": 8,
      "phone": "0745-55-4334",
      "license_no": "第08240322号",
      "license_date": "2024-07-05",
      "expire_date": "2030-07-31"
    },
    {
      "name": "藍",
      "name_kana": "",
      "business_type": "飲食店営業",
      "address": "北葛城郡広陵町大塚　９１８－２",
      "lat": 34.529987353,
      "lng": 135.742896343,
      "geocoding_level": 8,
      "phone": "0745-55-6144",
      "license_no": "第08240295号",
      "license_date": "2024-07-03",
      "expire_date": "2030-07-31"
    },
    {
      "name": "ｋｉｔｃｈｅｎ　和侑",
      "name_kana": "",
      "business_type": "飲食店営業",
      "address": "北葛城郡広陵町南郷　１５９－１０",
      "lat": 34.533442434,
      "lng": 135.750374772,
      "geocoding_level": 8,
      "phone": "0745-55-7701",
      "license_no": "第08240323号",
      "license_date": "2024-07-05",
      "expire_date": "2030-07-31"
    },
    {
      "name": "広陵町・香芝市共同中学校給食センター",
      "name_kana": "",
      "business_type": "飲食店営業",
      "address": "北葛城郡広陵町三吉　１９４８－１",
      "lat": 34.551282,
      "lng": 135.741987,
      "geocoding_level": 3,
      "phone": "0745-43-8466",
      "license_no": "第08240296号",
      "license_date": "2024-07-04",
      "expire_date": "2031-07-31"
    },
    {
      "name": "ｃａｆｅ　ｎａｔｕｒａｌ",
      "name_kana": "",
      "business_type": "飲食店営業",
      "address": "北葛城郡広陵町疋相　４４１－７",
      "lat": 34.543047209,
      "lng": 135.732436603,
      "geocoding_level": 8,
      "phone": "0745-55-8307",
      "license_no": "第08240330号",
      "license_date": "2024-07-09",
      "expire_date": "2030-07-31"
    },
    {
      "name": "アジアンスウィーツカフェＢ．Ｆ．Ｐ広陵",
      "name_kana": "",
      "business_type": "飲食店営業",
      "address": "北葛城郡広陵町大塚　８９７－１",
      "lat": 34.53045789,
      "lng": 135.742608045,
      "geocoding_level": 8,
      "phone": "0745-55-3401",
      "license_no": "第08240324号",
      "license_date": "2024-07-05",
      "expire_date": "2030-07-31"
    },
    {
      "name": "株式会社　吉方庵",
      "name_kana": "",
      "business_type": "飲食店営業",
      "address": "北葛城郡広陵町馬見中　２－６－１",
      "lat": 34.546671951,
      "lng": 135.730689187,
      "geocoding_level": 8,
      "phone": "0745-54-2888",
      "license_no": "第08240287号",
      "license_date": "2024-07-04",
      "expire_date": "2030-07-31"
    },
    {
      "name": "粉もん屋　八",
      "name_kana": "",
      "business_type": "飲食店営業",
      "address": "北葛城郡広陵町馬見南　１－６－２",
      "lat": 34.542207429,
      "lng": 135.729389202,
      "geocoding_level": 8,
      "phone": "0745-55-6886",
      "license_no": "第08240288号",
      "license_date": "2024-07-04",
      "expire_date": "2030-07-31"
    },
    {
      "name": "ＣＨＯＲＹＯ　Ｃｒａｆｔ　Ｂｅｅｒ",
      "name_kana": "",
      "business_type": "露店飲食店営業",
      "address": "北葛城郡広陵町他県内一円（奈良市を除く）",
      "lat": 34.54274,
      "lng": 135.750842,
      "geocoding_level": 2,
      "phone": "",
      "license_no": "第08240284号",
      "license_date": "2024-06-28",
      "expire_date": "2030-02-28"
    },
    {
      "name": "津川",
      "name_kana": "",
      "business_type": "飲食店営業",
      "address": "北葛城郡広陵町萱野　６５４",
      "lat": 34.565000316,
      "lng": 135.750445942,
      "geocoding_level": 8,
      "phone": "0745-56-2154",
      "license_no": "第08240332号",
      "license_date": "2024-07-10",
      "expire_date": "2030-07-31"
    },
    {
      "name": "津川",
      "name_kana": "",
      "business_type": "魚介類販売業",
      "address": "北葛城郡広陵町萱野　６５４",
      "lat": 34.565000316,
      "lng": 135.750445942,
      "geocoding_level": 8,
      "phone": "0745-56-2154",
      "license_no": "第08240333号",
      "license_date": "2024-07-10",
      "expire_date": "2030-07-31"
    },
    {
      "name": "ＲＵＢＢＥＲ　ＳＯＵＬ",
      "name_kana": "",
      "business_type": "飲食店営業",
      "address": "北葛城郡広陵町安部　３９８－１",
      "lat": 34.529772158,
      "lng": 135.745239701,
      "geocoding_level": 8,
      "phone": "0745-43-6237",
      "license_no": "第08240377号",
      "license_date": "2024-07-17",
      "expire_date": "2030-07-31"
    },
    {
      "name": "Ｃａｆｅ＇　ｄｅ　からん",
      "name_kana": "",
      "business_type": "飲食店営業",
      "address": "北葛城郡広陵町馬見北　１－７－６",
      "lat": 34.554569835,
      "lng": 135.733072739,
      "geocoding_level": 8,
      "phone": "0745-60-6677",
      "license_no": "第08240289号",
      "license_date": "2024-07-04",
      "expire_date": "2030-07-31"
    },
    {
      "name": "天繁",
      "name_kana": "",
      "business_type": "飲食店営業",
      "address": "北葛城郡広陵町みささぎ台　７－２",
      "lat": 34.533768733,
      "lng": 135.73437586,
      "geocoding_level": 8,
      "phone": "0745-55-5580",
      "license_no": "第08240362号",
      "license_date": "2024-07-16",
      "expire_date": "2030-07-31"
    },
    {
      "name": "ケンタッキーフライドチキン真美ヶ丘店",
      "name_kana": "",
      "business_type": "飲食店営業",
      "address": "北葛城郡広陵町馬見中　４－１－１",
      "lat": 34.546211,
      "lng": 135.723614,
      "geocoding_level": 3,
      "phone": "0745-77-5570",
      "license_no": "第08220404号",
      "license_date": "2022-07-13",
      "expire_date": "2029-07-31"
    },
    {
      "name": "幻海",
      "name_kana": "",
      "business_type": "飲食店営業",
      "address": "北葛城郡広陵町馬見北　１－７－２１",
      "lat": 34.555909375,
      "lng": 135.733165804,
      "geocoding_level": 8,
      "phone": "",
      "license_no": "第0820379号",
      "license_date": "2020-09-25",
      "expire_date": "2027-07-31"
    },
    {
      "name": "ｍｅｍｂｅｒｓ．川",
      "name_kana": "",
      "business_type": "飲食店営業",
      "address": "北葛城郡広陵町平尾　６８３－５",
      "lat": 34.540368799,
      "lng": 135.73950756800002,
      "geocoding_level": 8,
      "phone": "",
      "license_no": "第08240433号",
      "license_date": "2024-08-14",
      "expire_date": "2031-07-31"
    },
    {
      "name": "広陵プリンスゴルフ　広陵　２Ｆ（ＣＣＢＪＩ単受）",
      "name_kana": "",
      "business_type": "調理の機能を有する自動販売機",
      "address": "北葛城郡広陵町百済　２２８７－１",
      "lat": 34.541704412,
      "lng": 135.756783283,
      "geocoding_level": 8,
      "phone": "",
      "license_no": "第08240440号",
      "license_date": "2024-08-20",
      "expire_date": "2029-08-31"
    },
    {
      "name": "株式会社プロデュースカンパニー　北葛城郡広陵町　１Ｆ通路（ＳＢＳ受託）",
      "name_kana": "",
      "business_type": "調理の機能を有する自動販売機",
      "address": "北葛城郡広陵町安部　４５３－７",
      "lat": 34.533373147,
      "lng": 135.744242975,
      "geocoding_level": 8,
      "phone": "",
      "license_no": "第08240451号",
      "license_date": "2024-08-20",
      "expire_date": "2029-08-31"
    },
    {
      "name": "曽我川ゴルフセンター広陵　１F打席場（ＣＣＢＪＩ単受）",
      "name_kana": "",
      "business_type": "調理の機能を有する自動販売機",
      "address": "北葛城郡広陵町広瀬　１１１０－１８",
      "lat": 34.556689,
      "lng": 135.759969,
      "geocoding_level": 3,
      "phone": "",
      "license_no": "第0821376号",
      "license_date": "2021-08-24",
      "expire_date": "2026-08-31"
    },
    {
      "name": "竹取公園売店　広陵　自販機コーナー　（ＣＣＢＪＩ受託）",
      "name_kana": "",
      "business_type": "調理の機能を有する自動販売機",
      "address": "北葛城郡広陵町三吉　３９１－１",
      "lat": 34.551282,
      "lng": 135.741987,
      "geocoding_level": 3,
      "phone": "",
      "license_no": "第08230344号",
      "license_date": "2023-07-31",
      "expire_date": "2028-08-31"
    },
    {
      "name": "ｔｏｉｃｈｉ　ｈｅａｌｔｈｙ　ｌａｂ",
      "name_kana": "",
      "business_type": "飲食店営業",
      "address": "北葛城郡広陵町南郷　９４９",
      "lat": 34.535341209,
      "lng": 135.752066126,
      "geocoding_level": 8,
      "phone": "0745-51-1672",
      "license_no": "第08240481号",
      "license_date": "2024-09-19",
      "expire_date": "2031-07-31"
    },
    {
      "name": "９９９－スリーナイン－",
      "name_kana": "",
      "business_type": "自動車飲食店営業",
      "address": "北葛城郡広陵町他　県内一円（奈良市を除く）",
      "lat": 34.54274,
      "lng": 135.750842,
      "geocoding_level": 2,
      "phone": "",
      "license_no": "第08240507号",
      "license_date": "2024-09-18",
      "expire_date": "2029-09-30"
    },
    {
      "name": "特別養護老人ホーム　おきなの杜",
      "name_kana": "",
      "business_type": "飲食店営業",
      "address": "北葛城郡広陵町南郷　８４－１",
      "lat": 34.533047175,
      "lng": 135.754443116,
      "geocoding_level": 8,
      "phone": "0745-44-3675",
      "license_no": "第0819008号",
      "license_date": "2019-04-01",
      "expire_date": "2026-07-31"
    },
    {
      "name": "トルクデザイン",
      "name_kana": "",
      "business_type": "自動車飲食店営業",
      "address": "北葛城郡広陵町他県内一円（奈良市を除く）",
      "lat": 34.54274,
      "lng": 135.750842,
      "geocoding_level": 2,
      "phone": "",
      "license_no": "第08230429号",
      "license_date": "2023-09-07",
      "expire_date": "2028-09-30"
    },
    {
      "name": "からくれなゐ",
      "name_kana": "",
      "business_type": "露店飲食店営業",
      "address": "北葛城郡広陵町他　県内一円（奈良市を除く）",
      "lat": 34.54274,
      "lng": 135.750842,
      "geocoding_level": 2,
      "phone": "",
      "license_no": "第08240588号",
      "license_date": "2024-10-03",
      "expire_date": "2030-02-28"
    },
    {
      "name": "和牛ヘレ肉専門店　翔",
      "name_kana": "",
      "business_type": "露店飲食店営業",
      "address": "北葛城郡広陵町　他県内一円（奈良市を除く）",
      "lat": 34.54274,
      "lng": 135.750842,
      "geocoding_level": 2,
      "phone": "",
      "license_no": "第08240695号",
      "license_date": "2024-10-30",
      "expire_date": "2030-02-28"
    },
    {
      "name": "不二家イズミヤ広陵店",
      "name_kana": "",
      "business_type": "飲食店営業",
      "address": "北葛城郡広陵町安部　４５０－１",
      "lat": 34.533896651,
      "lng": 135.744925337,
      "geocoding_level": 8,
      "phone": "0745-55-4177",
      "license_no": "第08240234号",
      "license_date": "2024-06-13",
      "expire_date": "2030-07-31"
    },
    {
      "name": "とんと亭",
      "name_kana": "",
      "business_type": "飲食店営業",
      "address": "北葛城郡広陵町的場　３７１",
      "lat": 34.56758700000001,
      "lng": 135.760107,
      "geocoding_level": 3,
      "phone": "",
      "license_no": "第08240846号",
      "license_date": "2024-12-03",
      "expire_date": "2031-07-31"
    },
    {
      "name": "ファミリーマート広陵疋相店",
      "name_kana": "",
      "business_type": "飲食店営業",
      "address": "北葛城郡広陵町疋相　６０－１",
      "lat": 34.542130903,
      "lng": 135.742197753,
      "geocoding_level": 8,
      "phone": "0745-54-6034",
      "license_no": "第08240329号",
      "license_date": "2024-07-09",
      "expire_date": "2030-07-31"
    },
    {
      "name": "うなぎ家　敏　真美ヶ丘店",
      "name_kana": "",
      "business_type": "飲食店営業",
      "address": "北葛城郡広陵町馬見北　９－９－２５",
      "lat": 34.55228496000001,
      "lng": 135.72252776,
      "geocoding_level": 8,
      "phone": "0745-51-3455",
      "license_no": "第08240926号",
      "license_date": "2025-02-03",
      "expire_date": "2031-07-31"
    },
    {
      "name": "ハレマ",
      "name_kana": "",
      "business_type": "飲食店営業",
      "address": "北葛城郡広陵町南郷　９８６－６",
      "lat": 34.537058172,
      "lng": 135.752783122,
      "geocoding_level": 8,
      "phone": "",
      "license_no": "第08241024号",
      "license_date": "2025-03-07",
      "expire_date": "2031-07-31"
    },
    {
      "name": "うなぎ処　鰻天　広陵町",
      "name_kana": "",
      "business_type": "飲食店営業",
      "address": "北葛城郡広陵町安部　５９－１",
      "lat": 34.536233696,
      "lng": 135.744148184,
      "geocoding_level": 8,
      "phone": "",
      "license_no": "第08250004号",
      "license_date": "2025-04-03",
      "expire_date": "2031-07-31"
    },
    {
      "name": "酔処　なんやかんや",
      "name_kana": "",
      "business_type": "露店飲食店営業",
      "address": "北葛城郡広陵町他県内一円（奈良市を除く）",
      "lat": 34.54274,
      "lng": 135.750842,
      "geocoding_level": 2,
      "phone": "",
      "license_no": "第08241101号",
      "license_date": "2025-03-19",
      "expire_date": "2031-02-28"
    },
    {
      "name": "ｏｎ．",
      "name_kana": "",
      "business_type": "飲食店営業",
      "address": "北葛城郡広陵町馬見北　１－７－９",
      "lat": 34.554840139,
      "lng": 135.733090423,
      "geocoding_level": 8,
      "phone": "",
      "license_no": "第08250008号",
      "license_date": "2025-04-04",
      "expire_date": "2031-07-31"
    },
    {
      "name": "エコール・マミ",
      "name_kana": "",
      "business_type": "調理の機能を有する自動販売機",
      "address": "北葛城郡広陵町馬見中　４－１",
      "lat": 34.546211,
      "lng": 135.723614,
      "geocoding_level": 3,
      "phone": "0745-55-7770",
      "license_no": "第08231032号",
      "license_date": "2024-03-13",
      "expire_date": "2029-08-31"
    },
    {
      "name": "ビッグボーイ　奈良広陵店",
      "name_kana": "",
      "business_type": "飲食店営業",
      "address": "北葛城郡広陵町大塚　６１－１",
      "lat": 34.53202417,
      "lng": 135.743540712,
      "geocoding_level": 8,
      "phone": "0745-54-6181",
      "license_no": "第0206079号",
      "license_date": "2019-07-11",
      "expire_date": "2026-07-31"
    },
    {
      "name": "はなきっちん",
      "name_kana": "",
      "business_type": "露店飲食店営業",
      "address": "北葛城郡広陵町他県内一円（奈良市を除く）",
      "lat": 34.54274,
      "lng": 135.750842,
      "geocoding_level": 2,
      "phone": "",
      "license_no": "第08250071号",
      "license_date": "2025-05-09",
      "expire_date": "2031-02-28"
    },
    {
      "name": "ＢＵＬＬＩＥＮ",
      "name_kana": "",
      "business_type": "飲食店営業",
      "address": "北葛城郡広陵町南郷　９４９",
      "lat": 34.535341209,
      "lng": 135.752066126,
      "geocoding_level": 8,
      "phone": "",
      "license_no": "第08250134号",
      "license_date": "2025-06-03",
      "expire_date": "2031-07-31"
    },
    {
      "name": "味のかけ橋広陵店",
      "name_kana": "",
      "business_type": "飲食店営業",
      "address": "北葛城郡広陵町三吉元斉音寺方　３０４－１５",
      "lat": 34.54274,
      "lng": 135.750842,
      "geocoding_level": 2,
      "phone": "0745-51-5120",
      "license_no": "第08250206号",
      "license_date": "2025-06-25",
      "expire_date": "2031-07-31"
    },
    {
      "name": "クロッフル専門店Ｌｕｎａ",
      "name_kana": "",
      "business_type": "飲食店営業",
      "address": "北葛城郡広陵町みささぎ台　６－２２",
      "lat": 34.533574805,
      "lng": 135.735088935,
      "geocoding_level": 8,
      "phone": "0745-55-6565",
      "license_no": "第08230010号",
      "license_date": "2023-04-04",
      "expire_date": "2029-07-31"
    },
    {
      "name": "みささぎ食彩　巧",
      "name_kana": "",
      "business_type": "飲食店営業",
      "address": "北葛城郡広陵町みささぎ台　３７－３",
      "lat": 34.532894713000005,
      "lng": 135.73244527,
      "geocoding_level": 8,
      "phone": "0745-55-8876",
      "license_no": "第08250167号",
      "license_date": "2025-06-10",
      "expire_date": "2031-07-31"
    },
    {
      "name": "手打ち蕎麦　はやし",
      "name_kana": "",
      "business_type": "飲食店営業",
      "address": "北葛城郡広陵町馬見北　８－６－６　ハウスブロッサム１０２号室",
      "lat": 34.55405998,
      "lng": 135.722846947,
      "geocoding_level": 8,
      "phone": "0745-54-6884",
      "license_no": "第08250195号",
      "license_date": "2025-06-23",
      "expire_date": "2031-07-31"
    },
    {
      "name": "串あげ屋　一會",
      "name_kana": "",
      "business_type": "飲食店営業",
      "address": "北葛城郡広陵町みささぎ台　３７－３",
      "lat": 34.532894713000005,
      "lng": 135.73244527,
      "geocoding_level": 8,
      "phone": "0745-55-5124",
      "license_no": "第08250270号",
      "license_date": "2025-07-08",
      "expire_date": "2031-07-31"
    },
    {
      "name": "ふらっぷ",
      "name_kana": "",
      "business_type": "飲食店営業",
      "address": "北葛城郡広陵町中　１２７－１",
      "lat": 34.559888873,
      "lng": 135.748778808,
      "geocoding_level": 8,
      "phone": "0745-57-2411",
      "license_no": "第08250207号",
      "license_date": "2025-06-24",
      "expire_date": "2031-07-31"
    },
    {
      "name": "ひだまり保育園",
      "name_kana": "",
      "business_type": "飲食店営業",
      "address": "北葛城郡広陵町三吉　１８７４－２",
      "lat": 34.551282,
      "lng": 135.741987,
      "geocoding_level": 3,
      "phone": "0745-55-7575",
      "license_no": "第08250229号",
      "license_date": "2025-07-02",
      "expire_date": "2032-07-31"
    },
    {
      "name": "そばうどん　今日亭広陵店",
      "name_kana": "",
      "business_type": "飲食店営業",
      "address": "北葛城郡広陵町大塚　７０－１",
      "lat": 34.531260533,
      "lng": 135.743466575,
      "geocoding_level": 8,
      "phone": "0745-61-6536",
      "license_no": "第08250272号",
      "license_date": "2025-07-08",
      "expire_date": "2031-07-31"
    },
    {
      "name": "ゆうこちゃんのいちご大福",
      "name_kana": "",
      "business_type": "飲食店営業",
      "address": "北葛城郡広陵町三吉　１７１９",
      "lat": 34.551282,
      "lng": 135.741987,
      "geocoding_level": 3,
      "phone": "0745-55-2280",
      "license_no": "第08250208号",
      "license_date": "2025-06-25",
      "expire_date": "2031-07-31"
    },
    {
      "name": "樹苑",
      "name_kana": "",
      "business_type": "飲食店営業",
      "address": "北葛城郡広陵町南郷　５６７－５",
      "lat": 34.541847066,
      "lng": 135.751119956,
      "geocoding_level": 8,
      "phone": "0745-54-1129",
      "license_no": "第08250233号",
      "license_date": "2025-07-03",
      "expire_date": "2031-07-31"
    },
    {
      "name": "ＰＩＳＯＬＡ真美ヶ丘店",
      "name_kana": "",
      "business_type": "飲食店営業",
      "address": "北葛城郡広陵町馬見北　９－１２－９",
      "lat": 34.552954038,
      "lng": 135.722072915,
      "geocoding_level": 8,
      "phone": "0745-43-6001",
      "license_no": "第08250241号",
      "license_date": "2025-07-04",
      "expire_date": "2031-07-31"
    },
    {
      "name": "ふーこもっく",
      "name_kana": "",
      "business_type": "飲食店営業",
      "address": "北葛城郡広陵町馬見南　１－６－１",
      "lat": 34.542287617,
      "lng": 135.729425332,
      "geocoding_level": 8,
      "phone": "0745-55-2411",
      "license_no": "第08250230号",
      "license_date": "2025-07-02",
      "expire_date": "2031-07-31"
    },
    {
      "name": "ｔｒａｔｔｏｒｉａ　ＮｏＭｕ",
      "name_kana": "",
      "business_type": "飲食店営業",
      "address": "北葛城郡広陵町三吉　４０－１",
      "lat": 34.551282,
      "lng": 135.741987,
      "geocoding_level": 3,
      "phone": "0745-61-8585",
      "license_no": "第08250196号",
      "license_date": "2025-06-23",
      "expire_date": "2031-07-31"
    },
    {
      "name": "多酒多彩　たんと",
      "name_kana": "",
      "business_type": "飲食店営業",
      "address": "北葛城郡広陵町馬見北　７－９－１５",
      "lat": 34.55346207800001,
      "lng": 135.722931021,
      "geocoding_level": 8,
      "phone": "0745-54-0017",
      "license_no": "第08250291号",
      "license_date": "2025-07-14",
      "expire_date": "2031-07-31"
    },
    {
      "name": "ほっともっと広陵馬見中店",
      "name_kana": "",
      "business_type": "飲食店営業",
      "address": "北葛城郡広陵町馬見中　２－６－３６",
      "lat": 34.547210542,
      "lng": 135.730997154,
      "geocoding_level": 8,
      "phone": "0745-54-6077",
      "license_no": "第08250232号",
      "license_date": "2025-07-02",
      "expire_date": "2032-07-31"
    },
    {
      "name": "奈良県第二浄化センタープール売店",
      "name_kana": "",
      "business_type": "飲食店営業",
      "address": "北葛城郡広陵町萱野　１００－１",
      "lat": 34.574730048000006,
      "lng": 135.754180342,
      "geocoding_level": 8,
      "phone": "",
      "license_no": "第08250290号",
      "license_date": "2025-07-14",
      "expire_date": "2031-07-31"
    },
    {
      "name": "スーパーエバグリーン広陵店",
      "name_kana": "",
      "business_type": "飲食店営業",
      "address": "北葛城郡広陵町平尾　７１０－１",
      "lat": 34.541550991,
      "lng": 135.740358944,
      "geocoding_level": 8,
      "phone": "0745-54-1050",
      "license_no": "第08240374号",
      "license_date": "2024-07-17",
      "expire_date": "2030-07-31"
    },
    {
      "name": "スーパーエバグリーン広陵店",
      "name_kana": "",
      "business_type": "魚介類販売業",
      "address": "北葛城郡広陵町平尾　７１０－１",
      "lat": 34.541550991,
      "lng": 135.740358944,
      "geocoding_level": 8,
      "phone": "0745-54-1050",
      "license_no": "第08240375号",
      "license_date": "2024-07-17",
      "expire_date": "2030-07-31"
    },
    {
      "name": "スーパーエバグリーン広陵店",
      "name_kana": "",
      "business_type": "食肉販売業",
      "address": "北葛城郡広陵町平尾　７１０－１",
      "lat": 34.541550991,
      "lng": 135.740358944,
      "geocoding_level": 8,
      "phone": "0745-54-1050",
      "license_no": "第08240376号",
      "license_date": "2024-07-17",
      "expire_date": "2030-07-31"
    },
    {
      "name": "スーパーエバグリーン広陵店",
      "name_kana": "",
      "business_type": "露店飲食店営業",
      "address": "北葛城郡広陵町他県内一円（奈良市を除く）",
      "lat": 34.54274,
      "lng": 135.750842,
      "geocoding_level": 2,
      "phone": "",
      "license_no": "第08250244号",
      "license_date": "2025-07-03",
      "expire_date": "2031-02-28"
    },
    {
      "name": "広陵北かぐやこども園",
      "name_kana": "",
      "business_type": "飲食店営業",
      "address": "北葛城郡広陵町弁財天　２９７－２",
      "lat": 34.563310729,
      "lng": 135.749634235,
      "geocoding_level": 8,
      "phone": "0745-58-2030",
      "license_no": "第08250282号",
      "license_date": "2025-07-11",
      "expire_date": "2032-07-31"
    },
    {
      "name": "岡本株式会社",
      "name_kana": "",
      "business_type": "飲食店営業",
      "address": "北葛城郡広陵町大塚　１５０－１",
      "lat": 34.531514,
      "lng": 135.738754,
      "geocoding_level": 3,
      "phone": "",
      "license_no": "第08250169号",
      "license_date": "2025-06-10",
      "expire_date": "2031-07-31"
    },
    {
      "name": "肉よし　真美ヶ丘店",
      "name_kana": "",
      "business_type": "飲食店営業",
      "address": "北葛城郡広陵町馬見中　４－１",
      "lat": 34.546211,
      "lng": 135.723614,
      "geocoding_level": 3,
      "phone": "0745-55-2911",
      "license_no": "第08250294号",
      "license_date": "2025-07-15",
      "expire_date": "2031-07-31"
    },
    {
      "name": "肉よし　真美ヶ丘店",
      "name_kana": "",
      "business_type": "食肉販売業",
      "address": "北葛城郡広陵町馬見中　４－１",
      "lat": 34.546211,
      "lng": 135.723614,
      "geocoding_level": 3,
      "phone": "0745-55-2911",
      "license_no": "第08250295号",
      "license_date": "2025-07-15",
      "expire_date": "2031-07-31"
    },
    {
      "name": "ふぁーむ吉田",
      "name_kana": "",
      "business_type": "密封包装食品製造業",
      "address": "北葛城郡広陵町百済　９１０",
      "lat": 34.54043,
      "lng": 135.762185,
      "geocoding_level": 3,
      "phone": "",
      "license_no": "第08250342号",
      "license_date": "2025-07-24",
      "expire_date": "2031-07-31"
    },
    {
      "name": "グラン・パネトリー",
      "name_kana": "",
      "business_type": "飲食店営業",
      "address": "北葛城郡広陵町寺戸　２７９－１",
      "lat": 34.56293017800001,
      "lng": 135.747853194,
      "geocoding_level": 8,
      "phone": "0745-43-8322",
      "license_no": "第08220545号",
      "license_date": "2022-09-15",
      "expire_date": "2029-07-31"
    },
    {
      "name": "西川　麻衣子",
      "name_kana": "",
      "business_type": "自動車飲食店営業",
      "address": "北葛城郡広陵町他県内一円（奈良市を除く）",
      "lat": 34.54274,
      "lng": 135.750842,
      "geocoding_level": 2,
      "phone": "",
      "license_no": "第08250356号",
      "license_date": "2025-08-08",
      "expire_date": "2031-09-30"
    },
    {
      "name": "大仏ｃａｆｅ　ＫＯＲＹＯ　ＮＡＲＡ",
      "name_kana": "",
      "business_type": "飲食店営業",
      "address": "北葛城郡広陵町馬見中　１－１－３",
      "lat": 34.543712754,
      "lng": 135.730921917,
      "geocoding_level": 8,
      "phone": "0745-43-6123",
      "license_no": "第0821003号",
      "license_date": "2021-04-01",
      "expire_date": "2027-07-31"
    },
    {
      "name": "Ｍ・ｙｕ・ｙｕ　ｃａｆｅ",
      "name_kana": "",
      "business_type": "自動車飲食店営業",
      "address": "北葛城郡広陵町他県内一円（奈良市を除く）",
      "lat": 34.54274,
      "lng": 135.750842,
      "geocoding_level": 2,
      "phone": "",
      "license_no": "第08250363号",
      "license_date": "2025-08-20",
      "expire_date": "2030-09-30"
    },
    {
      "name": "とんかつの山田屋　３号奈良広陵店",
      "name_kana": "",
      "business_type": "飲食店営業",
      "address": "北葛城郡広陵町みささぎ台　８－２６",
      "lat": 34.533824655,
      "lng": 135.733414749,
      "geocoding_level": 8,
      "phone": "0745-51-2911",
      "license_no": "第08250494号",
      "license_date": "2025-10-02",
      "expire_date": "2032-07-31"
    },
    {
      "name": "青いレンガ珈琲店",
      "name_kana": "",
      "business_type": "飲食店営業",
      "address": "北葛城郡広陵町みささぎ台　２１－６",
      "lat": 34.529853405,
      "lng": 135.731374448,
      "geocoding_level": 8,
      "phone": "",
      "license_no": "第08250406号",
      "license_date": "2025-09-09",
      "expire_date": "2032-07-31"
    },
    {
      "name": "近商ストア真美ヶ丘店",
      "name_kana": "",
      "business_type": "飲食店営業",
      "address": "北葛城郡広陵町馬見中　４－１－１",
      "lat": 34.546211,
      "lng": 135.723614,
      "geocoding_level": 3,
      "phone": "0745-54-5000",
      "license_no": "第08220283号",
      "license_date": "2022-06-23",
      "expire_date": "2029-07-31"
    },
    {
      "name": "近商ストア真美ケ丘店",
      "name_kana": "",
      "business_type": "魚介類販売業",
      "address": "北葛城郡広陵町馬見中　４－１",
      "lat": 34.546211,
      "lng": 135.723614,
      "geocoding_level": 3,
      "phone": "0745-54-5000",
      "license_no": "第08250181号",
      "license_date": "2025-06-19",
      "expire_date": "2032-07-31"
    },
    {
      "name": "近商ストア真美ケ丘店",
      "name_kana": "",
      "business_type": "食肉販売業",
      "address": "北葛城郡広陵町馬見中　４－１",
      "lat": 34.546211,
      "lng": 135.723614,
      "geocoding_level": 3,
      "phone": "0745-54-5000",
      "license_no": "第08250182号",
      "license_date": "2025-06-19",
      "expire_date": "2032-07-31"
    },
    {
      "name": "近商ストア真美ケ丘店（水産）",
      "name_kana": "",
      "business_type": "飲食店営業",
      "address": "北葛城郡広陵町馬見中　４－１",
      "lat": 34.546211,
      "lng": 135.723614,
      "geocoding_level": 3,
      "phone": "0745-54-5000",
      "license_no": "第08250183号",
      "license_date": "2025-06-19",
      "expire_date": "2032-07-31"
    },
    {
      "name": "株式会社肉匠たけ田",
      "name_kana": "",
      "business_type": "自動車飲食店営業",
      "address": "北葛城郡広陵町他県内一円（奈良市を除く）",
      "lat": 34.54274,
      "lng": 135.750842,
      "geocoding_level": 2,
      "phone": "",
      "license_no": "第08250545号",
      "license_date": "2025-10-02",
      "expire_date": "2031-09-30"
    },
    {
      "name": "スマイル食堂",
      "name_kana": "",
      "business_type": "露店飲食店営業",
      "address": "北葛城郡広陵町他県内一円（奈良市を除く）",
      "lat": 34.54274,
      "lng": 135.750842,
      "geocoding_level": 2,
      "phone": "",
      "license_no": "第08250546号",
      "license_date": "2025-10-03",
      "expire_date": "2031-02-28"
    },
    {
      "name": "トルクデザイン",
      "name_kana": "",
      "business_type": "自動車飲食店営業",
      "address": "北葛城郡広陵町他県内一円（奈良市を除く）",
      "lat": 34.54274,
      "lng": 135.750842,
      "geocoding_level": 2,
      "phone": "",
      "license_no": "第08250551号",
      "license_date": "2025-10-09",
      "expire_date": "2031-09-30"
    },
    {
      "name": "よってって　広陵店内",
      "name_kana": "",
      "business_type": "魚介類販売業",
      "address": "北葛城郡広陵町笠　２５８－１",
      "lat": 34.548887861,
      "lng": 135.746422623,
      "geocoding_level": 8,
      "phone": "",
      "license_no": "第08221008号",
      "license_date": "2023-01-05",
      "expire_date": "2029-07-31"
    },
    {
      "name": "よってって　広陵店内",
      "name_kana": "",
      "business_type": "飲食店営業",
      "address": "北葛城郡広陵町笠　２５８－１",
      "lat": 34.548887861,
      "lng": 135.746422623,
      "geocoding_level": 8,
      "phone": "0745-55-9577",
      "license_no": "第08221009号",
      "license_date": "2023-01-05",
      "expire_date": "2029-07-31"
    },
    {
      "name": "美食処　みや田",
      "name_kana": "",
      "business_type": "飲食店営業",
      "address": "北葛城郡広陵町馬見北　７－１－９－１６",
      "lat": 34.551918,
      "lng": 135.724557,
      "geocoding_level": 3,
      "phone": "",
      "license_no": "第08250581号",
      "license_date": "2025-10-16",
      "expire_date": "2032-07-31"
    },
    {
      "name": "ＢＡＲ　Ｒｕｂｂｉｅ　ｄ'Ｏｒ",
      "name_kana": "",
      "business_type": "飲食店営業",
      "address": "北葛城郡広陵町南郷　５７８－６",
      "lat": 34.542262982,
      "lng": 135.750258375,
      "geocoding_level": 8,
      "phone": "",
      "license_no": "第08250823号",
      "license_date": "2025-12-05",
      "expire_date": "2032-07-31"
    },
    {
      "name": "得得　イズミヤ広陵町店",
      "name_kana": "",
      "business_type": "飲食店営業",
      "address": "北葛城郡広陵町安部　２１４－３",
      "lat": 34.534019522,
      "lng": 135.744036346,
      "geocoding_level": 8,
      "phone": "0745-54-3011",
      "license_no": "第08220286号",
      "license_date": "2022-06-28",
      "expire_date": "2028-07-31"
    },
    {
      "name": "牛屋　絆",
      "name_kana": "",
      "business_type": "自動車飲食店営業",
      "address": "北葛城郡広陵町他県内一円（奈良市を除く）",
      "lat": 34.54274,
      "lng": 135.750842,
      "geocoding_level": 2,
      "phone": "",
      "license_no": "第08250668号",
      "license_date": "2025-10-27",
      "expire_date": "2031-09-30"
    },
    {
      "name": "粉もん屋　八",
      "name_kana": "",
      "business_type": "そうざい製造業",
      "address": "北葛城郡広陵町馬見南　１－６－２",
      "lat": 34.542207429,
      "lng": 135.729389202,
      "geocoding_level": 8,
      "phone": "0745-55-6886",
      "license_no": "第08250810号",
      "license_date": "2025-11-27",
      "expire_date": "2032-07-31"
    },
    {
      "name": "クロッフル専門店Ｌｕｎａ",
      "name_kana": "",
      "business_type": "露店飲食店営業",
      "address": "北葛城郡広陵町他県内一円（奈良市を除く）",
      "lat": 34.54274,
      "lng": 135.750842,
      "geocoding_level": 2,
      "phone": "",
      "license_no": "第08250820号",
      "license_date": "2025-12-03",
      "expire_date": "2031-02-28"
    },
    {
      "name": "ニコニコキッチン　大和高田店",
      "name_kana": "",
      "business_type": "飲食店営業",
      "address": "北葛城郡広陵町みささぎ台　６－２２",
      "lat": 34.533574805,
      "lng": 135.735088935,
      "geocoding_level": 8,
      "phone": "0745-49-0301",
      "license_no": "第08230828号",
      "license_date": "2024-01-18",
      "expire_date": "2030-07-31"
    },
    {
      "name": "ミニストップ広陵町みささぎ台店",
      "name_kana": "",
      "business_type": "飲食店営業",
      "address": "北葛城郡広陵町みささぎ台　５－５０",
      "lat": 34.532324,
      "lng": 135.731206,
      "geocoding_level": 3,
      "phone": "0745-55-1191",
      "license_no": "第0818381号",
      "license_date": "2018-11-16",
      "expire_date": "2026-07-31"
    },
    {
      "name": "ローソン広陵馬見北二丁目店",
      "name_kana": "",
      "business_type": "飲食店営業",
      "address": "北葛城郡広陵町馬見北　２－１－１",
      "lat": 34.549812516,
      "lng": 135.732155846,
      "geocoding_level": 8,
      "phone": "0745-54-5444",
      "license_no": "第08220346号",
      "license_date": "2022-07-06",
      "expire_date": "2028-07-31"
    },
    {
      "name": "ローソン広陵笠東店",
      "name_kana": "",
      "business_type": "飲食店営業",
      "address": "北葛城郡広陵町笠　３３６－４",
      "lat": 34.548880519,
      "lng": 135.747168993,
      "geocoding_level": 8,
      "phone": "0745-49-0255",
      "license_no": "第08230343号",
      "license_date": "2023-07-31",
      "expire_date": "2029-07-31"
    },
    {
      "name": "どうとんぼり神座　大和高田店",
      "name_kana": "",
      "business_type": "飲食店営業",
      "address": "北葛城郡広陵町大塚　９０８－１",
      "lat": 34.530956353,
      "lng": 135.744021094,
      "geocoding_level": 8,
      "phone": "0745-54-0688",
      "license_no": "第0200069号",
      "license_date": "2019-07-11",
      "expire_date": "2026-07-31"
    },
    {
      "name": "吉野家　奈良広陵町店",
      "name_kana": "",
      "business_type": "飲食店営業",
      "address": "北葛城郡広陵町大塚　９０５－１",
      "lat": 34.530702943,
      "lng": 135.743538994,
      "geocoding_level": 8,
      "phone": "0745-43-6255",
      "license_no": "第08230211号",
      "license_date": "2023-06-22",
      "expire_date": "2029-07-31"
    },
    {
      "name": "三・六・九",
      "name_kana": "",
      "business_type": "飲食店営業",
      "address": "北葛城郡広陵町大野　３６９－４",
      "lat": 34.569452336,
      "lng": 135.745351866,
      "geocoding_level": 8,
      "phone": "",
      "license_no": "第08251001号",
      "license_date": "2026-02-24",
      "expire_date": "2032-07-31"
    },
    {
      "name": "海鮮中華料理　呑",
      "name_kana": "",
      "business_type": "露店飲食店営業",
      "address": "北葛城郡広陵町他県内一円（奈良市を除く）",
      "lat": 34.54274,
      "lng": 135.750842,
      "geocoding_level": 2,
      "phone": "",
      "license_no": "第08250984号",
      "license_date": "2026-02-25",
      "expire_date": "2031-02-28"
    },
    {
      "name": "株式会社石井製菓",
      "name_kana": "",
      "business_type": "菓子製造業",
      "address": "北葛城郡広陵町中　１５２－１",
      "lat": 34.55937284,
      "lng": 135.751194945,
      "geocoding_level": 8,
      "phone": "0745-57-0131",
      "license_no": "第0208006号",
      "license_date": "2020-07-15",
      "expire_date": "2026-07-31"
    },
    {
      "name": "菓子安",
      "name_kana": "",
      "business_type": "菓子製造業",
      "address": "北葛城郡広陵町南　３８－６",
      "lat": 34.563543041,
      "lng": 135.750401675,
      "geocoding_level": 8,
      "phone": "0745-56-2163",
      "license_no": "第0202053号",
      "license_date": "2020-07-09",
      "expire_date": "2026-07-31"
    },
    {
      "name": "ヒナタ",
      "name_kana": "",
      "business_type": "菓子製造業",
      "address": "北葛城郡広陵町三吉　５８７－５",
      "lat": 34.551282,
      "lng": 135.741987,
      "geocoding_level": 3,
      "phone": "0745-54-0208",
      "license_no": "第0213257号",
      "license_date": "2020-07-15",
      "expire_date": "2026-07-31"
    },
    {
      "name": "広陵株式会社",
      "name_kana": "",
      "business_type": "菓子製造業",
      "address": "北葛城郡広陵町三吉　１７９６",
      "lat": 34.551282,
      "lng": 135.741987,
      "geocoding_level": 3,
      "phone": "0745-57-0138",
      "license_no": "第0213195号",
      "license_date": "2020-07-02",
      "expire_date": "2026-07-31"
    },
    {
      "name": "テイク",
      "name_kana": "",
      "business_type": "菓子製造業",
      "address": "北葛城郡広陵町南郷　６５１－１",
      "lat": 34.542358084,
      "lng": 135.749947812,
      "geocoding_level": 8,
      "phone": "",
      "license_no": "第0820405号",
      "license_date": "2020-10-09",
      "expire_date": "2027-07-31"
    },
    {
      "name": "Ｍｕｏｎ",
      "name_kana": "",
      "business_type": "菓子製造業",
      "address": "北葛城郡広陵町みささぎ台　３８－１",
      "lat": 34.533342437,
      "lng": 135.732811186,
      "geocoding_level": 8,
      "phone": "0745-60-8207",
      "license_no": "第0821253号",
      "license_date": "2021-07-12",
      "expire_date": "2028-07-31"
    },
    {
      "name": "オランダ屋高田店",
      "name_kana": "",
      "business_type": "菓子製造業",
      "address": "北葛城郡広陵町大塚　６２－１",
      "lat": 34.532012205,
      "lng": 135.744159686,
      "geocoding_level": 8,
      "phone": "0745-55-4610",
      "license_no": "第0821263号",
      "license_date": "2021-07-12",
      "expire_date": "2027-07-31"
    },
    {
      "name": "株式会社　若草食品",
      "name_kana": "",
      "business_type": "菓子製造業",
      "address": "北葛城郡広陵町南　１７８",
      "lat": 34.561825034,
      "lng": 135.756409178,
      "geocoding_level": 8,
      "phone": "0745-57-1110",
      "license_no": "第0821290号",
      "license_date": "2021-07-12",
      "expire_date": "2028-07-31"
    },
    {
      "name": "こまめ焼菓子店",
      "name_kana": "",
      "business_type": "菓子製造業",
      "address": "北葛城郡広陵町馬見中　３－１－２０",
      "lat": 34.548089,
      "lng": 135.7244,
      "geocoding_level": 3,
      "phone": "0745-55-8998",
      "license_no": "第0821266号",
      "license_date": "2021-07-12",
      "expire_date": "2027-07-31"
    },
    {
      "name": "おはようこんにちはこんばんはたると",
      "name_kana": "",
      "business_type": "菓子製造業",
      "address": "北葛城郡広陵町馬見北　９－９－３０",
      "lat": 34.551839939,
      "lng": 135.722490317,
      "geocoding_level": 8,
      "phone": "",
      "license_no": "第0821825号",
      "license_date": "2021-11-26",
      "expire_date": "2028-07-31"
    },
    {
      "name": "フラワーサークル",
      "name_kana": "",
      "business_type": "菓子製造業",
      "address": "北葛城郡広陵町弁財天　３４８－３",
      "lat": 34.564096753,
      "lng": 135.752629753,
      "geocoding_level": 8,
      "phone": "0745-57-2493",
      "license_no": "第0821996号",
      "license_date": "2022-02-18",
      "expire_date": "2028-07-31"
    },
    {
      "name": "おひさま",
      "name_kana": "",
      "business_type": "菓子製造業",
      "address": "北葛城郡広陵町百済　１５２８－２",
      "lat": 34.54043,
      "lng": 135.762185,
      "geocoding_level": 3,
      "phone": "0745-55-0247",
      "license_no": "第08220134号",
      "license_date": "2022-04-28",
      "expire_date": "2028-07-31"
    },
    {
      "name": "ブリューエン　コーヒー",
      "name_kana": "",
      "business_type": "菓子製造業",
      "address": "北葛城郡広陵町馬見北　２－３－７",
      "lat": 34.550197885,
      "lng": 135.731125445,
      "geocoding_level": 8,
      "phone": "0745-60-7548",
      "license_no": "第08220245号",
      "license_date": "2022-06-14",
      "expire_date": "2028-07-31"
    },