{
  "meta": {
    "updated": 1783906731,
    "sources": [
      {
        "source": "福島県食品営業許可施設一覧",
        "license": "CC BY 2.1 JP"
      }
    ]
  },
  "data": [
    {
      "name": "おざわ肉店",
      "name_kana": "",
      "business_type": "飲食店営業",
      "address": "河沼郡湯川村大字田川字作園乙４３",
      "lat": 37.559578,
      "lng": 139.882115,
      "geocoding_level": 3,
      "phone": "0241-27-2943",
      "license_no": "2-2",
      "license_date": null,
      "expire_date": null
    },
    {
      "name": "おざわ肉店",
      "name_kana": "",
      "business_type": "食肉販売業",
      "address": "河沼郡湯川村大字田川字作園乙４３",
      "lat": 37.559578,
      "lng": 139.882115,
      "geocoding_level": 3,
      "phone": "0241-27-2943",
      "license_no": "2-3",
      "license_date": null,
      "expire_date": null
    },
    {
      "name": "マルコウ醸造株式会社",
      "name_kana": "",
      "business_type": "みそ又はしょうゆ製造業",
      "address": "河沼郡湯川村大字浜崎字東殿町１－５",
      "lat": 37.587330031,
      "lng": 139.894870736,
      "geocoding_level": 8,
      "phone": "0241-28-1212",
      "license_no": "2-4",
      "license_date": null,
      "expire_date": null
    },
    {
      "name": "会津よつば農業協同組合　湯川営農経済センター",
      "name_kana": "",
      "business_type": "みそ又はしょうゆ製造業",
      "address": "河沼郡湯川村大字清水田字川入１２",
      "lat": 37.564558031000004,
      "lng": 139.886923154,
      "geocoding_level": 8,
      "phone": "0241-27-8221",
      "license_no": "2-2",
      "license_date": null,
      "expire_date": null
    },
    {
      "name": "ホテルエムエムワン",
      "name_kana": "",
      "business_type": "飲食店営業",
      "address": "河沼郡湯川村大字熊ノ目字遠背戸１４４８－１",
      "lat": 37.546808439,
      "lng": 139.873550164,
      "geocoding_level": 8,
      "phone": "0241-28-1708",
      "license_no": "2-4",
      "license_date": null,
      "expire_date": null
    },
    {
      "name": "セブンイレブン会津湯川浜崎店",
      "name_kana": "",
      "business_type": "飲食店営業",
      "address": "河沼郡湯川村大字浜崎字水上１４１３－２",
      "lat": 37.565657,
      "lng": 139.886738,
      "geocoding_level": 2,
      "phone": "0241-27-8817",
      "license_no": "2-5",
      "license_date": null,
      "expire_date": null
    },
    {
      "name": "メフォス　５１６１３号店",
      "name_kana": "",
      "business_type": "飲食店営業",
      "address": "河沼郡湯川村大字清水田字長瀞２６番地",
      "lat": 37.565657,
      "lng": 139.886738,
      "geocoding_level": 2,
      "phone": "0241-27-5215",
      "license_no": "2-3",
      "license_date": null,
      "expire_date": null
    },
    {
      "name": "おおつか",
      "name_kana": "",
      "business_type": "飲食店営業",
      "address": "河沼郡湯川村大字佐野目字舘ノ内甲２６－１",
      "lat": 37.565657,
      "lng": 139.886738,
      "geocoding_level": 2,
      "phone": "0241-27-8866",
      "license_no": "2-6",
      "license_date": null,
      "expire_date": null
    },
    {
      "name": "菊地魚店",
      "name_kana": "",
      "business_type": "魚介類販売業",
      "address": "河沼郡湯川村大字桜町字来光寺甲１０５６",
      "lat": 37.565657,
      "lng": 139.886738,
      "geocoding_level": 2,
      "phone": "0241-27-3920",
      "license_no": "2-2",
      "license_date": null,
      "expire_date": null
    },
    {
      "name": "１２か月のジェラート",
      "name_kana": "",
      "business_type": "飲食店営業",
      "address": "河沼郡湯川村大字佐野目字五丁ノ目７８番地１",
      "lat": 37.557383571,
      "lng": 139.862460853,
      "geocoding_level": 8,
      "phone": "",
      "license_no": "2-4",
      "license_date": null,
      "expire_date": null
    },
    {
      "name": "１２か月のジェラート",
      "name_kana": "",
      "business_type": "アイスクリーム類製造業",
      "address": "河沼郡湯川村大字佐野目字五丁ノ目７８番地１",
      "lat": 37.557383571,
      "lng": 139.862460853,
      "geocoding_level": 8,
      "phone": "",
      "license_no": "2-5",
      "license_date": null,
      "expire_date": null
    },
    {
      "name": "会津食のブランド館",
      "name_kana": "",
      "business_type": "飲食店営業",
      "address": "河沼郡湯川村大字佐野目字五丁ノ目７８番地１",
      "lat": 37.557383571,
      "lng": 139.862460853,
      "geocoding_level": 8,
      "phone": "0241-27-8853",
      "license_no": "2-4",
      "license_date": null,
      "expire_date": null
    },
    {
      "name": "道の駅あいづ湯川・会津坂下　レストラン",
      "name_kana": "",
      "business_type": "飲食店営業",
      "address": "河沼郡湯川村大字佐野目字五丁ノ目７８番地１",
      "lat": 37.557383571,
      "lng": 139.862460853,
      "geocoding_level": 8,
      "phone": "0241-27-8853",
      "license_no": "2-6",
      "license_date": null,
      "expire_date": null
    },
    {
      "name": "道の駅あいづ湯川・会津坂下　レストラン",
      "name_kana": "",
      "business_type": "菓子製造業",
      "address": "河沼郡湯川村大字佐野目字五丁ノ目７８番地１",
      "lat": 37.557383571,
      "lng": 139.862460853,
      "geocoding_level": 8,
      "phone": "0241-27-8853",
      "license_no": "2-8",
      "license_date": null,
      "expire_date": null
    },
    {
      "name": "道の駅あいづ湯川・会津坂下　レストラン",
      "name_kana": "",
      "business_type": "そうざい製造業",
      "address": "河沼郡湯川村大字佐野目字五丁ノ目７８番地１",
      "lat": 37.557383571,
      "lng": 139.862460853,
      "geocoding_level": 8,
      "phone": "0241-27-8853",
      "license_no": "2-7",
      "license_date": null,
      "expire_date": null
    },
    {
      "name": "合同会社　ドゥミール",
      "name_kana": "",
      "business_type": "菓子製造業",
      "address": "河沼郡湯川村大字熊ノ目字三ツ江２４２８－７",
      "lat": 37.554311397,
      "lng": 139.872346722,
      "geocoding_level": 8,
      "phone": "0241-23-6148",
      "license_no": "2-6",
      "license_date": null,
      "expire_date": null
    },
    {
      "name": "ゆがわ家",
      "name_kana": "",
      "business_type": "飲食店営業",
      "address": "河沼郡湯川村大字清水田字川入５２番地",
      "lat": 37.564243988,
      "lng": 139.885733748,
      "geocoding_level": 8,
      "phone": "0241-23-5072",
      "license_no": "2-7",
      "license_date": null,
      "expire_date": null
    },
    {
      "name": "アグリ・ママ　羽二重工房",
      "name_kana": "",
      "business_type": "飲食店営業",
      "address": "河沼郡湯川村大字桜町字薄清水乙８１２番地",
      "lat": 37.565657,
      "lng": 139.886738,
      "geocoding_level": 2,
      "phone": "",
      "license_no": "2-6",
      "license_date": null,
      "expire_date": null
    },
    {
      "name": "アグリ・ママ　羽二重工房",
      "name_kana": "",
      "business_type": "菓子製造業",
      "address": "河沼郡湯川村大字桜町字薄清水乙８１２番地",
      "lat": 37.565657,
      "lng": 139.886738,
      "geocoding_level": 2,
      "phone": "",
      "license_no": "2-7",
      "license_date": null,
      "expire_date": null
    },
    {
      "name": "１２か月のジェラート　ｎａｔｕｒａｌｅ",
      "name_kana": "",
      "business_type": "飲食店営業",
      "address": "河沼郡湯川村大字熊ノ目字三ツ江２４２８－７",
      "lat": 37.554311397,
      "lng": 139.872346722,
      "geocoding_level": 8,
      "phone": "0241-23-6148",
      "license_no": "1-236",
      "license_date": null,
      "expire_date": null
    },
    {
      "name": "１２か月のジェラート　ｎａｔｕｒａｌｅ",
      "name_kana": "",
      "business_type": "アイスクリーム類製造業",
      "address": "河沼郡湯川村大字熊ノ目字三ツ江２４２８－７",
      "lat": 37.554311397,
      "lng": 139.872346722,
      "geocoding_level": 8,
      "phone": "0241-23-6148",
      "license_no": "1-237",
      "license_date": null,
      "expire_date": null
    },
    {
      "name": "ローソン湯川清水田店",
      "name_kana": "",
      "business_type": "飲食店営業",
      "address": "河沼郡湯川村大字清水田字米丸２－２",
      "lat": 37.553836837,
      "lng": 139.891605458,
      "geocoding_level": 8,
      "phone": "0241-27-8980",
      "license_no": "1-295",
      "license_date": null,
      "expire_date": null
    },
    {
      "name": "メフォス　５２３４３号店",
      "name_kana": "",
      "business_type": "飲食店営業",
      "address": "河沼郡湯川村大字笈川字殿田１０番地",
      "lat": 37.56709712200001,
      "lng": 139.887867867,
      "geocoding_level": 8,
      "phone": "0241-23-9677",
      "license_no": "1-389",
      "license_date": null,
      "expire_date": null
    },
    {
      "name": "あじさいの手",
      "name_kana": "",
      "business_type": "菓子製造業",
      "address": "河沼郡湯川村大字勝常字堂後８３０",
      "lat": 37.56383409600001,
      "lng": 139.871257073,
      "geocoding_level": 8,
      "phone": "",
      "license_no": "1-21",
      "license_date": null,
      "expire_date": null
    },
    {
      "name": "あじさいの手",
      "name_kana": "",
      "business_type": "みそ又はしょうゆ製造業",
      "address": "河沼郡湯川村大字勝常字堂後８３０",
      "lat": 37.56383409600001,
      "lng": 139.871257073,
      "geocoding_level": 8,
      "phone": "",
      "license_no": "1-22",
      "license_date": null,
      "expire_date": null
    },
    {
      "name": "あじさいの手",
      "name_kana": "",
      "business_type": "漬物製造業",
      "address": "河沼郡湯川村大字勝常字堂後８３０",
      "lat": 37.56383409600001,
      "lng": 139.871257073,
      "geocoding_level": 8,
      "phone": "",
      "license_no": "1-23",
      "license_date": null,
      "expire_date": null
    },
    {
      "name": "特別養護老人ホームいちょうの木",
      "name_kana": "",
      "business_type": "飲食店営業",
      "address": "河沼郡湯川村大字佐野目字佐野北４３番地",
      "lat": 37.553746761,
      "lng": 139.865829632,
      "geocoding_level": 8,
      "phone": "0241-27-8338",
      "license_no": "1-256",
      "license_date": null,
      "expire_date": null
    },
    {
      "name": "リトルタローカフェ",
      "name_kana": "",
      "business_type": "飲食店営業",
      "address": "河沼郡湯川村大字勝常字高水口９４２",
      "lat": 37.560584808,
      "lng": 139.872044651,
      "geocoding_level": 8,
      "phone": "0241-23-8886",
      "license_no": "1-269",
      "license_date": null,
      "expire_date": null
    }
  ]
}
