{
  "meta": {
    "updated": 1783906731,
    "sources": [
      {
        "source": "郡山市食品営業許可施設一覧",
        "license": "要確認"
      },
      {
        "source": "厚生労働省 食品衛生申請等システム（オープンデータ）",
        "license": "公共データ利用規約（第1.0版, PDL1.0）"
      }
    ]
  },
  "data": [
    {
      "name": "株式会社ビーフふくしま",
      "name_kana": "",
      "business_type": "食肉処理業",
      "address": "郡山市富久山町久保田字古坦120-1",
      "lat": 37.406154771,
      "lng": 140.404700668,
      "geocoding_level": 8,
      "phone": "024-944-1581",
      "license_no": "",
      "license_date": "2018-08-22",
      "expire_date": null
    },
    {
      "name": "株式会社ビーフふくしま",
      "name_kana": "",
      "business_type": "そうざい製造業",
      "address": "郡山市富久山町久保田字古坦120-1",
      "lat": 37.406154771,
      "lng": 140.404700668,
      "geocoding_level": 8,
      "phone": "024-944-1581",
      "license_no": "",
      "license_date": "2018-08-22",
      "expire_date": null
    },
    {
      "name": "セブンイレブン郡山下亀田店",
      "name_kana": "",
      "business_type": "飲食店営業",
      "address": "郡山市字下亀田24-1",
      "lat": 37.407676732,
      "lng": 140.347466399,
      "geocoding_level": 8,
      "phone": "024-935-3170",
      "license_no": "",
      "license_date": "2019-06-19",
      "expire_date": null
    },
    {
      "name": "あかりや",
      "name_kana": "",
      "business_type": "飲食店営業",
      "address": "郡山市富田町字向舘109-1　長尾アパート102",
      "lat": 37.413787824,
      "lng": 140.34318306,
      "geocoding_level": 8,
      "phone": "－",
      "license_no": "",
      "license_date": "2019-06-20",
      "expire_date": null
    },
    {
      "name": "㈱郡山水産 富久山工場",
      "name_kana": "",
      "business_type": "そうざい製造業",
      "address": "郡山市富久山町久保田字太郎殿前2-14",
      "lat": 37.408480019,
      "lng": 140.398006234,
      "geocoding_level": 8,
      "phone": "024-956-7750",
      "license_no": "",
      "license_date": "2019-06-21",
      "expire_date": null
    },
    {
      "name": "㈱郡山水産 富久山工場",
      "name_kana": "",
      "business_type": "飲食店営業",
      "address": "郡山市富久山町久保田字太郎殿前2-14",
      "lat": 37.408480019,
      "lng": 140.398006234,
      "geocoding_level": 8,
      "phone": "024-956-7750",
      "license_no": "",
      "license_date": "2019-06-21",
      "expire_date": null
    },
    {
      "name": "㈱郡山水産 富久山工場",
      "name_kana": "",
      "business_type": "魚介類販売業",
      "address": "郡山市富久山町久保田字太郎殿前2-14",
      "lat": 37.408480019,
      "lng": 140.398006234,
      "geocoding_level": 8,
      "phone": "024-956-7750",
      "license_no": "",
      "license_date": "2019-06-21",
      "expire_date": null
    },
    {
      "name": "セブンイレブン　郡山池向店",
      "name_kana": "",
      "business_type": "飲食店営業",
      "address": "郡山市富田町字池向32-4",
      "lat": 37.400455,
      "lng": 140.35965,
      "geocoding_level": 2,
      "phone": "024-952-4711",
      "license_no": "",
      "license_date": "2019-06-24",
      "expire_date": null
    },
    {
      "name": "株式会社三万石新館",
      "name_kana": "",
      "business_type": "アイスクリーム類製造業",
      "address": "郡山市富久山町福原字神子田7-5",
      "lat": 37.41278526,
      "lng": 140.401958168,
      "geocoding_level": 8,
      "phone": "024-956-1111",
      "license_no": "",
      "license_date": "2019-06-25",
      "expire_date": null
    },
    {
      "name": "喜楽里",
      "name_kana": "",
      "business_type": "飲食店営業",
      "address": "郡山市朝日二丁目19-23　クイーンズオブアサヒ105",
      "lat": 37.404136647,
      "lng": 140.360062608,
      "geocoding_level": 8,
      "phone": "－",
      "license_no": "",
      "license_date": "2019-07-16",
      "expire_date": null
    },
    {
      "name": "Bar&Cafe Herbalist",
      "name_kana": "",
      "business_type": "飲食店営業",
      "address": "郡山市朝日一丁目19-7",
      "lat": 37.402751547,
      "lng": 140.360483722,
      "geocoding_level": 8,
      "phone": "024-983-3056",
      "license_no": "",
      "license_date": "2019-07-19",
      "expire_date": null
    },
    {
      "name": "マリィ",
      "name_kana": "",
      "business_type": "飲食店営業",
      "address": "郡山市清水台一丁目6-16　八幡ビルⅡ　1F",
      "lat": 37.399000539,
      "lng": 140.382540564,
      "geocoding_level": 8,
      "phone": "024-983-8089",
      "license_no": "",
      "license_date": "2019-07-30",
      "expire_date": null
    },
    {
      "name": "茉莉花",
      "name_kana": "",
      "business_type": "飲食店営業",
      "address": "郡山市鳴神三丁目204",
      "lat": 37.393772,
      "lng": 140.335168,
      "geocoding_level": 3,
      "phone": "024-983-9779",
      "license_no": "",
      "license_date": "2019-08-19",
      "expire_date": null
    },
    {
      "name": "Ｂ．Ｂ",
      "name_kana": "",
      "business_type": "菓子製造業",
      "address": "郡山市大槻町字反田5-1　4号",
      "lat": 37.391831901,
      "lng": 140.323821144,
      "geocoding_level": 8,
      "phone": "024-983-8587",
      "license_no": "",
      "license_date": "2019-08-19",
      "expire_date": null
    },
    {
      "name": "ステーキ宮　郡山富田店",
      "name_kana": "",
      "business_type": "飲食店営業",
      "address": "郡山市富田町字下赤沼12-1",
      "lat": 37.423341125,
      "lng": 140.351436713,
      "geocoding_level": 8,
      "phone": "024-953-8386",
      "license_no": "",
      "license_date": "2019-08-29",
      "expire_date": null
    },
    {
      "name": "みらい作業所",
      "name_kana": "",
      "business_type": "菓子製造業",
      "address": "郡山市富久山町久保田字古町249-6　パンプキンハイツ102号",
      "lat": 37.405935514,
      "lng": 140.395500208,
      "geocoding_level": 8,
      "phone": "024-942-6408",
      "license_no": "",
      "license_date": "2019-08-30",
      "expire_date": null
    },
    {
      "name": "タピオカドリンク専門店　ＳＡＨＡＮＪＩ　郡山フェスタ店",
      "name_kana": "",
      "business_type": "喫茶店営業",
      "address": "郡山市日和田町字小原1",
      "lat": 37.444376243,
      "lng": 140.376943989,
      "geocoding_level": 8,
      "phone": "024-983-6225",
      "license_no": "",
      "license_date": "2019-09-09",
      "expire_date": null
    },
    {
      "name": "ｍｏｃａ",
      "name_kana": "",
      "business_type": "飲食店営業",
      "address": "郡山市清水台二丁目12-12",
      "lat": 37.4002327,
      "lng": 140.384059042,
      "geocoding_level": 8,
      "phone": "024-935-1008",
      "license_no": "",
      "license_date": "2019-09-12",
      "expire_date": null
    },
    {
      "name": "人魚のなみだ",
      "name_kana": "",
      "business_type": "飲食店営業",
      "address": "郡山市朝日二丁目12-3　あさひ３番街Ｇ棟",
      "lat": 37.403741592,
      "lng": 140.36020875,
      "geocoding_level": 8,
      "phone": "024-983-1123",
      "license_no": "",
      "license_date": "2019-09-24",
      "expire_date": null
    },
    {
      "name": "太郎庵",
      "name_kana": "",
      "business_type": "飲食店営業",
      "address": "郡山市桑野三丁目19-6",
      "lat": 37.406016,
      "lng": 140.353811,
      "geocoding_level": 3,
      "phone": "024-983-0004",
      "license_no": "",
      "license_date": "2019-09-30",
      "expire_date": null
    },
    {
      "name": "とりはち家　安積店",
      "name_kana": "",
      "business_type": "飲食店営業",
      "address": "郡山市安積三丁目159",
      "lat": 37.356325,
      "lng": 140.365399,
      "geocoding_level": 3,
      "phone": "024-983-7134",
      "license_no": "",
      "license_date": "2019-10-07",
      "expire_date": null
    },
    {
      "name": "有限会社たけや",
      "name_kana": "",
      "business_type": "飲食店営業",
      "address": "郡山市堂前町18-3",
      "lat": 37.395332494,
      "lng": 140.3797877,
      "geocoding_level": 8,
      "phone": "024-932-5862",
      "license_no": "",
      "license_date": "2019-10-09",
      "expire_date": null
    },
    {
      "name": "有限会社たけや",
      "name_kana": "",
      "business_type": "菓子製造業",
      "address": "郡山市堂前町18-3",
      "lat": 37.395332494,
      "lng": 140.3797877,
      "geocoding_level": 8,
      "phone": "024-932-5862",
      "license_no": "",
      "license_date": "2019-10-09",
      "expire_date": null
    },
    {
      "name": "ＡＭＥＫＡＺＥ　Ｗｅｓｔ",
      "name_kana": "",
      "business_type": "飲食店営業",
      "address": "郡山市島一丁目11-5",
      "lat": 37.39867828100001,
      "lng": 140.349221906,
      "geocoding_level": 8,
      "phone": "024-954-6761",
      "license_no": "",
      "license_date": "2019-10-09",
      "expire_date": null
    },
    {
      "name": "ホテルシーラックパル郡山",
      "name_kana": "",
      "business_type": "飲食店営業",
      "address": "郡山市富田町字向舘11-1",
      "lat": 37.400455,
      "lng": 140.35965,
      "geocoding_level": 2,
      "phone": "024-952-8686",
      "license_no": "",
      "license_date": "2019-10-11",
      "expire_date": null
    },
    {
      "name": "リストランテ・サルティンポッカ",
      "name_kana": "",
      "business_type": "飲食店営業",
      "address": "郡山市小原田三丁目154-1",
      "lat": 37.379225,
      "lng": 140.386778,
      "geocoding_level": 3,
      "phone": "024-943-3121",
      "license_no": "",
      "license_date": "2019-10-15",
      "expire_date": null
    },
    {
      "name": "やきとり大吉郡山店",
      "name_kana": "",
      "business_type": "飲食店営業",
      "address": "郡山市堂前町26-11　堂前レジデンス1F",
      "lat": 37.393311694,
      "lng": 140.37985708900004,
      "geocoding_level": 8,
      "phone": "024-934-9305",
      "license_no": "",
      "license_date": "2019-10-15",
      "expire_date": null
    },
    {
      "name": "セブン-イレブン郡山南インター店",
      "name_kana": "",
      "business_type": "飲食店営業",
      "address": "郡山市三穂田町川田二丁目199-4",
      "lat": 37.365465,
      "lng": 140.32327700000002,
      "geocoding_level": 3,
      "phone": "024-946-0737",
      "license_no": "",
      "license_date": "2019-10-15",
      "expire_date": null
    },
    {
      "name": "オフィス ミール サービス",
      "name_kana": "",
      "business_type": "飲食店営業",
      "address": "郡山市香久池一丁目13-18",
      "lat": 37.380476794,
      "lng": 140.372534825,
      "geocoding_level": 8,
      "phone": "024-939-6339",
      "license_no": "",
      "license_date": "2019-10-16",
      "expire_date": null
    },
    {
      "name": "ワンのシュノーケル",
      "name_kana": "",
      "business_type": "飲食店営業",
      "address": "郡山市神明町10-8",
      "lat": 37.402021653,
      "lng": 140.374607375,
      "geocoding_level": 8,
      "phone": "024-932-9329",
      "license_no": "",
      "license_date": "2019-10-25",
      "expire_date": null
    },
    {
      "name": "餃子酒場ひろ",
      "name_kana": "",
      "business_type": "飲食店営業",
      "address": "郡山市並木五丁目5-42　1F西",
      "lat": 37.413364,
      "lng": 140.359023,
      "geocoding_level": 3,
      "phone": "024-927-1550",
      "license_no": "",
      "license_date": "2019-10-28",
      "expire_date": null
    },
    {
      "name": "雀の木",
      "name_kana": "",
      "business_type": "飲食店営業",
      "address": "郡山市堂前町27-5",
      "lat": 37.393763081,
      "lng": 140.380387703,
      "geocoding_level": 8,
      "phone": "024-954-5821",
      "license_no": "",
      "license_date": "2019-10-29",
      "expire_date": null
    },
    {
      "name": "麺飯酒家山茶華",
      "name_kana": "",
      "business_type": "そうざい製造業",
      "address": "郡山市中田町赤沼字下永田94-154",
      "lat": 37.376891972,
      "lng": 140.416690386,
      "geocoding_level": 8,
      "phone": "024-941-2641",
      "license_no": "",
      "license_date": "2019-10-30",
      "expire_date": null
    },
    {
      "name": "ＧａｌｌｅｒｙＣａｆｅ　Ｃａｎ",
      "name_kana": "",
      "business_type": "飲食店営業",
      "address": "郡山市西ノ内二丁目10-16",
      "lat": 37.407912661,
      "lng": 140.36470055,
      "geocoding_level": 8,
      "phone": "024-925-1432",
      "license_no": "",
      "license_date": "2019-11-05",
      "expire_date": null
    },
    {
      "name": "ベーカリーバンビ",
      "name_kana": "",
      "business_type": "飲食店営業",
      "address": "郡山市三穂田町川田二丁目204-4",
      "lat": 37.365465,
      "lng": 140.32327700000002,
      "geocoding_level": 3,
      "phone": "024-946-2001",
      "license_no": "",
      "license_date": "2019-11-05",
      "expire_date": null
    },
    {
      "name": "ベーカリーバンビ",
      "name_kana": "",
      "business_type": "菓子製造業",
      "address": "郡山市三穂田町川田二丁目204-4",
      "lat": 37.365465,
      "lng": 140.32327700000002,
      "geocoding_level": 3,
      "phone": "024-946-2001",
      "license_no": "",
      "license_date": "2019-11-05",
      "expire_date": null
    },
    {
      "name": "ＭＯＡ　ｃａｆｅ",
      "name_kana": "",
      "business_type": "飲食店営業",
      "address": "郡山市朝日三丁目4-1　株式会社東京インテリア家具3F",
      "lat": 37.406026253,
      "lng": 140.36124095,
      "geocoding_level": 8,
      "phone": "024-907-0111",
      "license_no": "",
      "license_date": "2019-11-05",
      "expire_date": null
    },
    {
      "name": "メフォス北日本 51747号店",
      "name_kana": "",
      "business_type": "飲食店営業",
      "address": "郡山市田村町金屋字川久保88",
      "lat": 37.400455,
      "lng": 140.35965,
      "geocoding_level": 2,
      "phone": "024-943-0005",
      "license_no": "",
      "license_date": "2019-11-06",
      "expire_date": null
    },
    {
      "name": "焼肉はなび",
      "name_kana": "",
      "business_type": "飲食店営業",
      "address": "郡山市富田町字権現林5-2",
      "lat": 37.427881256,
      "lng": 140.343301371,
      "geocoding_level": 8,
      "phone": "024-901-9311",
      "license_no": "",
      "license_date": "2019-11-08",
      "expire_date": null
    },
    {
      "name": "居酒屋 ひょうたん",
      "name_kana": "",
      "business_type": "飲食店営業",
      "address": "郡山市山根町2-7",
      "lat": 37.385690842,
      "lng": 140.376190514,
      "geocoding_level": 8,
      "phone": "024-933-3538",
      "license_no": "",
      "license_date": "2019-11-12",
      "expire_date": null
    },
    {
      "name": "東都学園食堂",
      "name_kana": "",
      "business_type": "飲食店営業",
      "address": "郡山市図景二丁目9-3 こおりやま東都学園内7F",
      "lat": 37.37885690800001,
      "lng": 140.375759097,
      "geocoding_level": 8,
      "phone": "024-936-7777",
      "license_no": "",
      "license_date": "2019-11-12",
      "expire_date": null
    },
    {
      "name": "Ｎａｇｉｓａ",
      "name_kana": "",
      "business_type": "飲食店営業",
      "address": "郡山市桑野二丁目20-10　桑野1番街101号",
      "lat": 37.403354636,
      "lng": 140.354685567,
      "geocoding_level": 8,
      "phone": "－",
      "license_no": "",
      "license_date": "2019-11-14",
      "expire_date": null
    },
    {
      "name": "ショートステイ　ヴィラ　きみかげ荘",
      "name_kana": "",
      "business_type": "飲食店営業",
      "address": "郡山市安積町成田字車川原37",
      "lat": 37.400455,
      "lng": 140.35965,
      "geocoding_level": 2,
      "phone": "024-937-0380",
      "license_no": "",
      "license_date": "2019-11-14",
      "expire_date": null
    },
    {
      "name": "郡山総合車両センター社員食堂受託所",
      "name_kana": "",
      "business_type": "飲食店営業",
      "address": "郡山市菱田町1-90",
      "lat": 37.386761153,
      "lng": 140.382426261,
      "geocoding_level": 8,
      "phone": "024-944-3121",
      "license_no": "",
      "license_date": "2019-11-14",
      "expire_date": null
    },
    {
      "name": "和食　越",
      "name_kana": "",
      "business_type": "飲食店営業",
      "address": "郡山市虎丸町20-30　虎丸店舗1号室",
      "lat": 37.399420731,
      "lng": 140.37889643300002,
      "geocoding_level": 8,
      "phone": "024-925-2112",
      "license_no": "",
      "license_date": "2019-11-18",
      "expire_date": null
    },
    {
      "name": "ファミリーマート郡山柴宮",
      "name_kana": "",
      "business_type": "飲食店営業",
      "address": "郡山市安積町荒井字柴宮山52-1",
      "lat": 37.376105029,
      "lng": 140.340796465,
      "geocoding_level": 8,
      "phone": "024-937-0016",
      "license_no": "",
      "license_date": "2019-11-18",
      "expire_date": null
    },
    {
      "name": "ファミリーマート郡山柴宮",
      "name_kana": "",
      "business_type": "菓子製造業",
      "address": "郡山市安積町荒井字柴宮山52-1",
      "lat": 37.376105029,
      "lng": 140.340796465,
      "geocoding_level": 8,
      "phone": "024-937-0016",
      "license_no": "",
      "license_date": "2019-11-18",
      "expire_date": null
    },
    {
      "name": "セブン‐イレブン郡山静町店",
      "name_kana": "",
      "business_type": "飲食店営業",
      "address": "郡山市鳴神二丁目101",
      "lat": 37.393421,
      "lng": 140.338577,
      "geocoding_level": 3,
      "phone": "024-966-3304",
      "license_no": "",
      "license_date": "2019-11-19",
      "expire_date": null
    },
    {
      "name": "のみくい処　桜の宴",
      "name_kana": "",
      "business_type": "飲食店営業",
      "address": "郡山市堤二丁目204-1",
      "lat": 37.397356,
      "lng": 140.335866,
      "geocoding_level": 3,
      "phone": "－",
      "license_no": "",
      "license_date": "2019-11-22",
      "expire_date": null
    },
    {
      "name": "ＭＯＧＵ ｃａｆｅ",
      "name_kana": "",
      "business_type": "飲食店営業",
      "address": "郡山市字菜根屋敷416-1　柳ビル103",
      "lat": 37.383886457,
      "lng": 140.356458777,
      "geocoding_level": 8,
      "phone": "024-983-7717",
      "license_no": "",
      "license_date": "2019-12-04",
      "expire_date": null
    },
    {
      "name": "ファミリーマート郡山卸団地店",
      "name_kana": "",
      "business_type": "飲食店営業",
      "address": "郡山市喜久田町卸一丁目7-1",
      "lat": 37.442028616,
      "lng": 140.337464991,
      "geocoding_level": 8,
      "phone": "－",
      "license_no": "",
      "license_date": "2019-12-05",
      "expire_date": null
    },
    {
      "name": "ファミリーマート郡山卸団地店",
      "name_kana": "",
      "business_type": "菓子製造業",
      "address": "郡山市喜久田町卸一丁目7-1",
      "lat": 37.442028616,
      "lng": 140.337464991,
      "geocoding_level": 8,
      "phone": "－",
      "license_no": "",
      "license_date": "2019-12-05",
      "expire_date": null
    },
    {
      "name": "京屋台　中華そば　古都ら　郡山小原田店",
      "name_kana": "",
      "business_type": "飲食店営業",
      "address": "郡山市小原田二丁目22-12",
      "lat": 37.383114886,
      "lng": 140.390513603,
      "geocoding_level": 8,
      "phone": "024-983-1611",
      "license_no": "",
      "license_date": "2019-12-05",
      "expire_date": null
    },
    {
      "name": "和心庭　かんの",
      "name_kana": "",
      "business_type": "飲食店営業",
      "address": "郡山市希望ヶ丘14-3　市営希望ヶ丘住宅1-5棟",
      "lat": 37.409666856,
      "lng": 140.33980425,
      "geocoding_level": 8,
      "phone": "024-973-8071",
      "license_no": "",
      "license_date": "2019-12-12",
      "expire_date": null
    },
    {
      "name": "有限会社降矢農園",
      "name_kana": "",
      "business_type": "飲食店営業",
      "address": "郡山市田村町川曲字浮内50",
      "lat": 37.400455,
      "lng": 140.35965,
      "geocoding_level": 2,
      "phone": "024-975-2221",
      "license_no": "",
      "license_date": "2019-12-12",
      "expire_date": null
    },
    {
      "name": "有限会社オチアイ",
      "name_kana": "",
      "business_type": "魚介類販売業",
      "address": "郡山市田村町上行合字下川原133-1",
      "lat": 37.370238022,
      "lng": 140.402791121,
      "geocoding_level": 8,
      "phone": "024-943-8381",
      "license_no": "",
      "license_date": "2019-12-17",
      "expire_date": null
    },
    {
      "name": "Ｌａ　ｃｕｃｃｕｍａ",
      "name_kana": "",
      "business_type": "飲食店営業",
      "address": "郡山市豊田町3-20　Ｓ－ＴＷＩＮ101",
      "lat": 37.398077206,
      "lng": 140.363058119,
      "geocoding_level": 8,
      "phone": "024-983-8006",
      "license_no": "",
      "license_date": "2019-12-20",
      "expire_date": null
    },
    {
      "name": "藪木",
      "name_kana": "",
      "business_type": "飲食店営業",
      "address": "郡山市名郷田二丁目10",
      "lat": 37.417723096,
      "lng": 140.362182696,
      "geocoding_level": 8,
      "phone": "024-922-5435",
      "license_no": "",
      "license_date": "2019-12-24",
      "expire_date": null
    },
    {
      "name": "ぴーちゃん",
      "name_kana": "",
      "business_type": "飲食店営業",
      "address": "郡山市安積町日出山二丁目80",
      "lat": 37.373801,
      "lng": 140.383843,
      "geocoding_level": 3,
      "phone": "024-942-5260",
      "license_no": "",
      "license_date": "2019-12-24",
      "expire_date": null
    },
    {
      "name": "スターゼンミートプロセッサー株式会社郡山工場",
      "name_kana": "",
      "business_type": "食肉処理業",
      "address": "郡山市富久山町久保田字古坦50",
      "lat": 37.400455,
      "lng": 140.35965,
      "geocoding_level": 2,
      "phone": "024-941-2111",
      "license_no": "",
      "license_date": "2020-01-06",
      "expire_date": null
    },
    {
      "name": "株式会社福島県食肉流通センター",
      "name_kana": "",
      "business_type": "食肉処理業",
      "address": "郡山市富久山町久保田字古坦35-1",
      "lat": 37.407142254,
      "lng": 140.406037971,
      "geocoding_level": 8,
      "phone": "024-943-3300",
      "license_no": "",
      "license_date": "2020-01-06",
      "expire_date": null
    },
    {
      "name": "アーマ・テラス カフェ",
      "name_kana": "",
      "business_type": "飲食店営業",
      "address": "郡山市中町13-1 うすい百貨店4F",
      "lat": 37.396169531,
      "lng": 140.383751547,
      "geocoding_level": 8,
      "phone": "024-973-6356",
      "license_no": "",
      "license_date": "2020-01-09",
      "expire_date": null
    },
    {
      "name": "THE BAR WATANABE",
      "name_kana": "",
      "business_type": "飲食店営業",
      "address": "郡山市駅前二丁目7-16 第3増子ビル1F",
      "lat": 37.398967489,
      "lng": 140.386469569,
      "geocoding_level": 8,
      "phone": "024-933-9788",
      "license_no": "",
      "license_date": "2020-01-10",
      "expire_date": null
    },
    {
      "name": "ヨークベニマル横塚店",
      "name_kana": "",
      "business_type": "魚介類販売業",
      "address": "郡山市横塚二丁目12-32",
      "lat": 37.398996675,
      "lng": 140.399741369,
      "geocoding_level": 8,
      "phone": "024-941-8415",
      "license_no": "",
      "license_date": "2020-01-14",
      "expire_date": null
    },
    {
      "name": "ヨークベニマル横塚店",
      "name_kana": "",
      "business_type": "食肉販売業",
      "address": "郡山市横塚二丁目12-32",
      "lat": 37.398996675,
      "lng": 140.399741369,
      "geocoding_level": 8,
      "phone": "024-941-8415",
      "license_no": "",
      "license_date": "2020-01-14",
      "expire_date": null
    },
    {
      "name": "ニュー・クイック郡山店",
      "name_kana": "",
      "business_type": "飲食店営業",
      "address": "郡山市字燧田195 郡山駅ビル ピボット店内",
      "lat": 37.400455,
      "lng": 140.35965,
      "geocoding_level": 2,
      "phone": "024-931-4129",
      "license_no": "",
      "license_date": "2020-01-14",
      "expire_date": null
    },
    {
      "name": "クイック・デリ 郡山店",
      "name_kana": "",
      "business_type": "飲食店営業",
      "address": "郡山市字燧田195 郡山駅食品館ピボット内",
      "lat": 37.400455,
      "lng": 140.35965,
      "geocoding_level": 2,
      "phone": "024-934-8820",
      "license_no": "",
      "license_date": "2020-01-14",
      "expire_date": null
    },
    {
      "name": "セブン-イレブン郡山駅前南通り店",
      "name_kana": "",
      "business_type": "飲食店営業",
      "address": "郡山市駅前一丁目8-18 1F",
      "lat": 37.39661464400001,
      "lng": 140.386332944,
      "geocoding_level": 8,
      "phone": "024-921-7890",
      "license_no": "",
      "license_date": "2020-01-15",
      "expire_date": null
    },
    {
      "name": "Ｂ．Ｂ",
      "name_kana": "",
      "business_type": "飲食店営業",
      "address": "郡山市大槻町字反田5-1　4号",
      "lat": 37.391831901,
      "lng": 140.323821144,
      "geocoding_level": 8,
      "phone": "024-983-8587",
      "license_no": "",
      "license_date": "2020-01-16",
      "expire_date": null
    },
    {
      "name": "ハングオーバー",
      "name_kana": "",
      "business_type": "飲食店営業",
      "address": "郡山市大町一丁目12-10 オオマチキクチビル1Ｆ",
      "lat": 37.401049978,
      "lng": 140.386348625,
      "geocoding_level": 8,
      "phone": "－",
      "license_no": "",
      "license_date": "2020-01-16",
      "expire_date": null
    },
    {
      "name": "むなかた屋",
      "name_kana": "",
      "business_type": "飲食店営業",
      "address": "郡山市駅前一丁目9-5 NATURE倶楽部1階",
      "lat": 37.396493306,
      "lng": 140.386366861,
      "geocoding_level": 8,
      "phone": "024-924-1167",
      "license_no": "",
      "license_date": "2020-01-16",
      "expire_date": null
    },
    {
      "name": "中国飯店一番",
      "name_kana": "",
      "business_type": "飲食店営業",
      "address": "郡山市横塚一丁目2-3",
      "lat": 37.396430789,
      "lng": 140.395826183,
      "geocoding_level": 8,
      "phone": "024-944-3957",
      "license_no": "",
      "license_date": "2020-01-16",
      "expire_date": null
    },
    {
      "name": "snack Veil",
      "name_kana": "",
      "business_type": "飲食店営業",
      "address": "郡山市大町一丁目4-2 アクアビル405",
      "lat": 37.399120414,
      "lng": 140.385238169,
      "geocoding_level": 8,
      "phone": "024-953-5488",
      "license_no": "",
      "license_date": "2020-01-17",
      "expire_date": null
    },
    {
      "name": "俺らの厨房 けんの家",
      "name_kana": "",
      "business_type": "飲食店営業",
      "address": "郡山市駅前一丁目9-5 NATURE倶楽部ビルB1F",
      "lat": 37.396493306,
      "lng": 140.386366861,
      "geocoding_level": 8,
      "phone": "024-935-3777",
      "license_no": "",
      "license_date": "2020-01-17",
      "expire_date": null
    },
    {
      "name": "株式会社ヨークベニマル 方八町店",
      "name_kana": "",
      "business_type": "魚介類販売業",
      "address": "郡山市方八町一丁目12-3",
      "lat": 37.391139222,
      "lng": 140.393543875,
      "geocoding_level": 8,
      "phone": "024-941-3751",
      "license_no": "",
      "license_date": "2020-01-17",
      "expire_date": null
    },
    {
      "name": "株式会社ヨークベニマル 方八町店",
      "name_kana": "",
      "business_type": "食肉販売業",
      "address": "郡山市方八町一丁目12-3",
      "lat": 37.391139222,
      "lng": 140.393543875,
      "geocoding_level": 8,
      "phone": "024-941-3751",
      "license_no": "",
      "license_date": "2020-01-17",
      "expire_date": null
    },
    {
      "name": "ヨークベニマル方八町店",
      "name_kana": "",
      "business_type": "飲食店営業",
      "address": "郡山市方八町一丁目12-3 ヨークベニマル店内",
      "lat": 37.391139222,
      "lng": 140.393543875,
      "geocoding_level": 8,
      "phone": "024-941-3751",
      "license_no": "",
      "license_date": "2020-01-17",
      "expire_date": null
    },
    {
      "name": "ヨークベニマル方八町店",
      "name_kana": "",
      "business_type": "菓子製造業",
      "address": "郡山市方八町一丁目12-3 ヨークベニマル店内",
      "lat": 37.391139222,
      "lng": 140.393543875,
      "geocoding_level": 8,
      "phone": "024-941-3751",
      "license_no": "",
      "license_date": "2020-01-17",
      "expire_date": null
    },
    {
      "name": "ヨークベニマル方八町店",
      "name_kana": "",
      "business_type": "喫茶店営業",
      "address": "郡山市方八町一丁目12-3 ヨークベニマル店内",
      "lat": 37.391139222,
      "lng": 140.393543875,
      "geocoding_level": 8,
      "phone": "024-941-3751",
      "license_no": "",
      "license_date": "2020-01-17",
      "expire_date": null
    },
    {
      "name": "デニーズレストラン郡山東口店",
      "name_kana": "",
      "business_type": "飲食店営業",
      "address": "郡山市横塚二丁目5-2",
      "lat": 37.400245017,
      "lng": 140.39611288900002,
      "geocoding_level": 8,
      "phone": "－",
      "license_no": "",
      "license_date": "2020-01-17",
      "expire_date": null
    },
    {
      "name": "カシータ",
      "name_kana": "",
      "business_type": "飲食店営業",
      "address": "郡山市駅前一丁目4-13 エリート11ビル305号",
      "lat": 37.397467411,
      "lng": 140.385732997,
      "geocoding_level": 8,
      "phone": "024-923-9233",
      "license_no": "",
      "license_date": "2020-01-20",
      "expire_date": null
    },
    {
      "name": "韓国料理　テヤン（太陽）",
      "name_kana": "",
      "business_type": "飲食店営業",
      "address": "郡山市大町一丁目2-15",
      "lat": 37.398984203000005,
      "lng": 140.385049414,
      "geocoding_level": 8,
      "phone": "024-934-5690",
      "license_no": "",
      "license_date": "2020-01-20",
      "expire_date": null
    },
    {
      "name": "スナック Missing U",
      "name_kana": "",
      "business_type": "飲食店営業",
      "address": "郡山市駅前一丁目8-4 増花ビル1階",
      "lat": 37.396581961,
      "lng": 140.385777983,
      "geocoding_level": 8,
      "phone": "－",
      "license_no": "",
      "license_date": "2020-01-21",
      "expire_date": null
    },
    {
      "name": "あゆみ",
      "name_kana": "",
      "business_type": "飲食店営業",
      "address": "郡山市駅前一丁目3-7 エリート7ビル3Ｆ 302",
      "lat": 37.397129131,
      "lng": 140.385735764,
      "geocoding_level": 8,
      "phone": "024-935-3070",
      "license_no": "",
      "license_date": "2020-01-21",
      "expire_date": null
    },
    {
      "name": "Mellow",
      "name_kana": "",
      "business_type": "飲食店営業",
      "address": "郡山市駅前一丁目4-2 O-PUS 10ビル4階B",
      "lat": 37.397450475,
      "lng": 140.385041592,
      "geocoding_level": 8,
      "phone": "－",
      "license_no": "",
      "license_date": "2020-01-21",
      "expire_date": null
    },
    {
      "name": "丸亀製麺 イオンタウン郡山店",
      "name_kana": "",
      "business_type": "飲食店営業",
      "address": "郡山市松木町2-88 イオンタウン郡山1階",
      "lat": 37.388954503,
      "lng": 140.387592061,
      "geocoding_level": 8,
      "phone": "024-942-3330",
      "license_no": "",
      "license_date": "2020-01-21",
      "expire_date": null
    },
    {
      "name": "スターバックスコーヒー 郡山モルティ店",
      "name_kana": "",
      "business_type": "飲食店営業",
      "address": "郡山市駅前二丁目11-1 ビッグアイ2階",
      "lat": 37.399582642,
      "lng": 140.387831625,
      "geocoding_level": 8,
      "phone": "024-921-4556",
      "license_no": "",
      "license_date": "2020-01-21",
      "expire_date": null
    },
    {
      "name": "さかなや道場 郡山駅前店",
      "name_kana": "",
      "business_type": "飲食店営業",
      "address": "郡山市駅前二丁目6-20 大学ビル1F",
      "lat": 37.398740800000006,
      "lng": 140.386559197,
      "geocoding_level": 8,
      "phone": "024-927-1211",
      "license_no": "",
      "license_date": "2020-01-22",
      "expire_date": null
    },
    {
      "name": "ロイヤルホスト イオンタウン郡山店",
      "name_kana": "",
      "business_type": "飲食店営業",
      "address": "郡山市松木町2-88",
      "lat": 37.388954503,
      "lng": 140.387592061,
      "geocoding_level": 8,
      "phone": "024-942-9660",
      "license_no": "",
      "license_date": "2020-01-23",
      "expire_date": null
    },
    {
      "name": "ボンジュール",
      "name_kana": "",
      "business_type": "飲食店営業",
      "address": "郡山市大町一丁目3-3 郡山ワシントンホテル１Ｆ",
      "lat": 37.398655789,
      "lng": 140.38500615,
      "geocoding_level": 8,
      "phone": "024-923-1311",
      "license_no": "",
      "license_date": "2020-01-23",
      "expire_date": null
    },
    {
      "name": "ビアードパパ・ココフラン エスパル郡山店",
      "name_kana": "",
      "business_type": "菓子製造業",
      "address": "郡山市字燧田195 エスパル郡山2.5階",
      "lat": 37.400455,
      "lng": 140.35965,
      "geocoding_level": 2,
      "phone": "024-925-5123",
      "license_no": "",
      "license_date": "2020-01-23",
      "expire_date": null
    },
    {
      "name": "一輪の花",
      "name_kana": "",
      "business_type": "飲食店営業",
      "address": "郡山市駅前一丁目4-13 エリート11ビル4F",
      "lat": 37.397467411,
      "lng": 140.385732997,
      "geocoding_level": 8,
      "phone": "024-933-0047",
      "license_no": "",
      "license_date": "2020-01-24",
      "expire_date": null
    },
    {
      "name": "Fruit Bar AOKI うすい店",
      "name_kana": "",
      "business_type": "飲食店営業",
      "address": "郡山市中町13-1 うすい百貨店地下1階",
      "lat": 37.396169531,
      "lng": 140.383751547,
      "geocoding_level": 8,
      "phone": "－",
      "license_no": "",
      "license_date": "2020-01-24",
      "expire_date": null
    },
    {
      "name": "茶舗なかまち 中町店",
      "name_kana": "",
      "business_type": "飲食店営業",
      "address": "郡山市中町7-19 デジプランビル1F",
      "lat": 37.396899344,
      "lng": 140.383900864,
      "geocoding_level": 8,
      "phone": "024-931-0260",
      "license_no": "",
      "license_date": "2020-01-24",
      "expire_date": null
    },
    {
      "name": "ゴールデンキャッツアイ",
      "name_kana": "",
      "business_type": "飲食店営業",
      "address": "郡山市駅前一丁目1-11 エリート15ビル1階",
      "lat": 37.396604892,
      "lng": 140.385732939,
      "geocoding_level": 8,
      "phone": "024-922-1181",
      "license_no": "",
      "license_date": "2020-01-28",
      "expire_date": null
    },
    {
      "name": "鉄板焼 川前",
      "name_kana": "",
      "business_type": "飲食店営業",
      "address": "郡山市大町一丁目6-13 武田ビル1階",
      "lat": 37.399524656,
      "lng": 140.385324108,
      "geocoding_level": 8,
      "phone": "024-983-8680",
      "license_no": "",
      "license_date": "2020-01-28",
      "expire_date": null
    },
    {
      "name": "割烹 生喜",
      "name_kana": "",
      "business_type": "飲食店営業",
      "address": "郡山市駅前二丁目6-4 富士館ビル2F",
      "lat": 37.399210922,
      "lng": 140.386630842,
      "geocoding_level": 8,
      "phone": "024-923-1911",
      "license_no": "",
      "license_date": "2020-01-28",
      "expire_date": null
    },
    {
      "name": "なか卯　郡山大町店",
      "name_kana": "",
      "business_type": "飲食店営業",
      "address": "郡山市大町一丁目3-18 SEビル1F",
      "lat": 37.398329397,
      "lng": 140.384919825,
      "geocoding_level": 8,
      "phone": "024-927-5607",
      "license_no": "",
      "license_date": "2020-01-28",
      "expire_date": null
    },
    {
      "name": "呑喰い処　和",
      "name_kana": "",
      "business_type": "飲食店営業",
      "address": "郡山市安積町日出山字一本松232-2",
      "lat": 37.364617812,
      "lng": 140.391452696,
      "geocoding_level": 8,
      "phone": "024-943-5357",
      "license_no": "",
      "license_date": "2020-01-30",
      "expire_date": null
    },
    {
      "name": "らーメンあさくさ",
      "name_kana": "",
      "business_type": "飲食店営業",
      "address": "郡山市駅前二丁目3-3",
      "lat": 37.398420086,
      "lng": 140.386903789,
      "geocoding_level": 8,
      "phone": "024-922-2908",
      "license_no": "",
      "license_date": "2020-01-30",
      "expire_date": null
    },
    {
      "name": "ダイニングバー 裕次郎",
      "name_kana": "",
      "business_type": "飲食店営業",
      "address": "郡山市中町8-4",
      "lat": 37.398006869,
      "lng": 140.383316033,
      "geocoding_level": 8,
      "phone": "024-933-6808",
      "license_no": "",
      "license_date": "2020-01-31",
      "expire_date": null
    },
    {
      "name": "クラブ嶺",
      "name_kana": "",
      "business_type": "飲食店営業",
      "address": "郡山市駅前一丁目3-8 グリーンビル2F",
      "lat": 37.396978764,
      "lng": 140.385733586,
      "geocoding_level": 8,
      "phone": "024-973-8538",
      "license_no": "",
      "license_date": "2020-01-31",
      "expire_date": null
    },
    {
      "name": "グリーングルメ",
      "name_kana": "",
      "business_type": "飲食店営業",
      "address": "郡山市中町13-1 うすい百貨店地下1階",
      "lat": 37.396169531,
      "lng": 140.383751547,
      "geocoding_level": 8,
      "phone": "024-932-0001",
      "license_no": "",
      "license_date": "2020-01-31",
      "expire_date": null
    },
    {
      "name": "食品共同厨房3",
      "name_kana": "",
      "business_type": "飲食店営業",
      "address": "郡山市中町13-1 うすい百貨店地下1階",
      "lat": 37.396169531,
      "lng": 140.383751547,
      "geocoding_level": 8,
      "phone": "024-932-0001",
      "license_no": "",
      "license_date": "2020-01-31",
      "expire_date": null
    },
    {
      "name": "うすい百貨店食品売場",
      "name_kana": "",
      "business_type": "飲食店営業",
      "address": "郡山市中町13-1 地下1Ｆ",
      "lat": 37.396169531,
      "lng": 140.383751547,
      "geocoding_level": 8,
      "phone": "024-932-0001",
      "license_no": "",
      "license_date": "2020-01-31",
      "expire_date": null
    },
    {
      "name": "定食まゆちゃん",
      "name_kana": "",
      "business_type": "飲食店営業",
      "address": "郡山市中町11-4 つたやビル１階",
      "lat": 37.397855928,
      "lng": 140.384554828,
      "geocoding_level": 8,
      "phone": "024-922-0710",
      "license_no": "",
      "license_date": "2020-02-03",
      "expire_date": null
    },
    {
      "name": "炭火焼肉　ＵＫＩＮ",
      "name_kana": "",
      "business_type": "飲食店営業",
      "address": "郡山市豊田町4-12　2F西側",
      "lat": 37.398662892,
      "lng": 140.363246181,
      "geocoding_level": 8,
      "phone": "024-954-9029",
      "license_no": "",
      "license_date": "2020-02-03",
      "expire_date": null
    },
    {
      "name": "いつみ",
      "name_kana": "",
      "business_type": "飲食店営業",
      "address": "郡山市中町11-1 ｸﾗﾌﾞﾋﾞﾙ1F",
      "lat": 37.397495383,
      "lng": 140.38432157200003,
      "geocoding_level": 8,
      "phone": "024-934-1871",
      "license_no": "",
      "license_date": "2020-02-04",
      "expire_date": null
    },
    {
      "name": "チサンホテル郡山",
      "name_kana": "",
      "business_type": "飲食店営業",
      "address": "郡山市駅前一丁目8-18 2F",
      "lat": 37.39661464400001,
      "lng": 140.386332944,
      "geocoding_level": 8,
      "phone": "024-923-6711",
      "license_no": "",
      "license_date": "2020-02-04",
      "expire_date": null
    },
    {
      "name": "中華ジャスミンの花",
      "name_kana": "",
      "business_type": "飲食店営業",
      "address": "郡山市中町5-26 ナナミビル１F",
      "lat": 37.396170125,
      "lng": 140.3827101,
      "geocoding_level": 8,
      "phone": "024-921-7887",
      "license_no": "",
      "license_date": "2020-02-05",
      "expire_date": null
    },
    {
      "name": "お料理 角さん",
      "name_kana": "",
      "business_type": "飲食店営業",
      "address": "郡山市駅前二丁目8-16",
      "lat": 37.4002815,
      "lng": 140.386875003,
      "geocoding_level": 8,
      "phone": "024-924-0254",
      "license_no": "",
      "license_date": "2020-02-05",
      "expire_date": null
    },
    {
      "name": "ルクリア・ティー",
      "name_kana": "",
      "business_type": "飲食店営業",
      "address": "郡山市昭和二丁目21-3",
      "lat": 37.384635556,
      "lng": 140.392019256,
      "geocoding_level": 8,
      "phone": "024-928-5266",
      "license_no": "",
      "license_date": "2020-02-05",
      "expire_date": null
    },
    {
      "name": "横浜家系　龍",
      "name_kana": "",
      "business_type": "飲食店営業",
      "address": "郡山市桑野三丁目18-20　西郡山ビル101号",
      "lat": 37.406016,
      "lng": 140.353811,
      "geocoding_level": 3,
      "phone": "024-983-8122",
      "license_no": "",
      "license_date": "2020-02-06",
      "expire_date": null
    },
    {
      "name": "料理 こふく",
      "name_kana": "",
      "business_type": "飲食店営業",
      "address": "郡山市駅前一丁目1-12 エクセレントビル101",
      "lat": 37.396488997,
      "lng": 140.385723561,
      "geocoding_level": 8,
      "phone": "024-931-4622",
      "license_no": "",
      "license_date": "2020-02-12",
      "expire_date": null
    },
    {
      "name": "おべんとうのエッセン",
      "name_kana": "",
      "business_type": "飲食店営業",
      "address": "郡山市昭和二丁目22-2",
      "lat": 37.384681556,
      "lng": 140.392255828,
      "geocoding_level": 8,
      "phone": "024-944-7996",
      "license_no": "",
      "license_date": "2020-02-12",
      "expire_date": null
    },
    {
      "name": "ドミノピザ郡山うねめ通り店",
      "name_kana": "",
      "business_type": "飲食店営業",
      "address": "郡山市西ノ内二丁目10-20",
      "lat": 37.408317525,
      "lng": 140.36482306400003,
      "geocoding_level": 8,
      "phone": "024-927-0135",
      "license_no": "",
      "license_date": "2020-02-12",
      "expire_date": null
    },
    {
      "name": "郡山ビューホテル フォンティーヌ",
      "name_kana": "",
      "business_type": "飲食店営業",
      "address": "郡山市中町3-1 郡山ビューホテル１Ｆ",
      "lat": 37.39605215,
      "lng": 140.382900622,
      "geocoding_level": 8,
      "phone": "024-924-1111",
      "license_no": "",
      "license_date": "2020-02-20",
      "expire_date": null
    },
    {
      "name": "郡山ビューホテル",
      "name_kana": "",
      "business_type": "飲食店営業",
      "address": "郡山市中町3-1 郡山ビューホテル４Ｆ",
      "lat": 37.39605215,
      "lng": 140.382900622,
      "geocoding_level": 8,
      "phone": "024-924-1111",
      "license_no": "",
      "license_date": "2020-02-20",
      "expire_date": null
    },
    {
      "name": "郡山ビューホテル ザ・バー",
      "name_kana": "",
      "business_type": "飲食店営業",
      "address": "郡山市中町3-1 郡山ビュ－ホテル１１Ｆ",
      "lat": 37.39605215,
      "lng": 140.382900622,
      "geocoding_level": 8,
      "phone": "024-924-1111",
      "license_no": "",
      "license_date": "2020-02-20",
      "expire_date": null
    },
    {
      "name": "郡山ビューホテル　唐紅花",
      "name_kana": "",
      "business_type": "飲食店営業",
      "address": "郡山市中町3-1　郡山ビュ－ホテル３Ｆ",
      "lat": 37.39605215,
      "lng": 140.382900622,
      "geocoding_level": 8,
      "phone": "024-924-1111",
      "license_no": "",
      "license_date": "2020-02-20",
      "expire_date": null
    },
    {
      "name": "浅源精肉店",
      "name_kana": "",
      "business_type": "飲食店営業",
      "address": "郡山市大町一丁目12-3",
      "lat": 37.400331936,
      "lng": 140.385800397,
      "geocoding_level": 8,
      "phone": "024-922-0629",
      "license_no": "",
      "license_date": "2020-02-21",
      "expire_date": null
    },
    {
      "name": "浅源精肉店",
      "name_kana": "",
      "business_type": "食肉販売業",
      "address": "郡山市大町一丁目12-3",
      "lat": 37.400331936,
      "lng": 140.385800397,
      "geocoding_level": 8,
      "phone": "024-922-0629",
      "license_no": "",
      "license_date": "2020-02-21",
      "expire_date": null
    },
    {
      "name": "まごころ弁当　郡山店",
      "name_kana": "",
      "business_type": "飲食店営業",
      "address": "郡山市安積町荒井字雷神9-1　ウィンブリッジ柴宮101",
      "lat": 37.373872071,
      "lng": 140.337176824,
      "geocoding_level": 8,
      "phone": "024-983-1867",
      "license_no": "",
      "license_date": "2020-02-25",
      "expire_date": null
    },
    {
      "name": "永遠に",
      "name_kana": "",
      "business_type": "飲食店営業",
      "address": "郡山市大町一丁目4-2 アクアビル5F 502",
      "lat": 37.399120414,
      "lng": 140.385238169,
      "geocoding_level": 8,
      "phone": "024-934-3118",
      "license_no": "",
      "license_date": "2020-02-26",
      "expire_date": null
    },
    {
      "name": "磯陣",
      "name_kana": "",
      "business_type": "飲食店営業",
      "address": "郡山市駅前二丁目6-2",
      "lat": 37.398957556,
      "lng": 140.386556442,
      "geocoding_level": 8,
      "phone": "024-934-7252",
      "license_no": "",
      "license_date": "2020-02-27",
      "expire_date": null
    },
    {
      "name": "セブン-イレブン郡山横塚店",
      "name_kana": "",
      "business_type": "飲食店営業",
      "address": "郡山市横塚二丁目233-1",
      "lat": 37.398873,
      "lng": 140.402118,
      "geocoding_level": 3,
      "phone": "024-956-2680",
      "license_no": "",
      "license_date": "2020-02-28",
      "expire_date": null
    },
    {
      "name": "らぁ麺　おかむら",
      "name_kana": "",
      "business_type": "飲食店営業",
      "address": "郡山市大槻町字小金林24-1",
      "lat": 37.402363798,
      "lng": 140.335094865,
      "geocoding_level": 8,
      "phone": "024-900-3138",
      "license_no": "",
      "license_date": "2020-02-28",
      "expire_date": null
    },
    {
      "name": "ＮＡＤＩＡ",
      "name_kana": "",
      "business_type": "飲食店営業",
      "address": "郡山市大町一丁目4-2 AQUAビル1F",
      "lat": 37.399120414,
      "lng": 140.385238169,
      "geocoding_level": 8,
      "phone": "024-983-1802",
      "license_no": "",
      "license_date": "2020-02-28",
      "expire_date": null
    },
    {
      "name": "フルーツレストラン　Aika",
      "name_kana": "",
      "business_type": "飲食店営業",
      "address": "郡山市駅前二丁目7-14",
      "lat": 37.399235944,
      "lng": 140.386548347,
      "geocoding_level": 8,
      "phone": "024-923-9201",
      "license_no": "",
      "license_date": "2020-03-02",
      "expire_date": null
    },
    {
      "name": "やきとり家竜鳳　菜根店",
      "name_kana": "",
      "business_type": "飲食店営業",
      "address": "郡山市字菜根屋敷19-4",
      "lat": 37.38514488900001,
      "lng": 140.358145652,
      "geocoding_level": 8,
      "phone": "024-954-8329",
      "license_no": "",
      "license_date": "2020-03-02",
      "expire_date": null
    },
    {
      "name": "ローソン郡山富久山町久保田店",
      "name_kana": "",
      "business_type": "飲食店営業",
      "address": "郡山市富久山町久保田字愛宕82-1",
      "lat": 37.400455,
      "lng": 140.35965,
      "geocoding_level": 2,
      "phone": "024-932-5050",
      "license_no": "",
      "license_date": "2020-03-02",
      "expire_date": null
    },
    {
      "name": "ＧＯＤ　ａｇａｉｎ",
      "name_kana": "",
      "business_type": "飲食店営業",
      "address": "郡山市駅前一丁目2-8　エピキュビル302",
      "lat": 37.396779975,
      "lng": 140.385731142,
      "geocoding_level": 8,
      "phone": "024-983-0135",
      "license_no": "",
      "license_date": "2020-03-02",
      "expire_date": null
    },
    {
      "name": "ツインズ",
      "name_kana": "",
      "business_type": "飲食店営業",
      "address": "郡山市駅前一丁目1-11 エリートビル15 B1 001号",
      "lat": 37.396604892,
      "lng": 140.385732939,
      "geocoding_level": 8,
      "phone": "－",
      "license_no": "",
      "license_date": "2020-03-03",
      "expire_date": null
    },
    {
      "name": "山忠",
      "name_kana": "",
      "business_type": "飲食店営業",
      "address": "郡山市桑野二丁目18-18",
      "lat": 37.404200544,
      "lng": 140.355253586,
      "geocoding_level": 8,
      "phone": "024-939-1515",
      "license_no": "",
      "license_date": "2020-03-04",
      "expire_date": null
    },
    {
      "name": "我愛?",
      "name_kana": "",
      "business_type": "飲食店営業",
      "address": "郡山市駅前一丁目4-13　エリート11　606",
      "lat": 37.397467411,
      "lng": 140.385732997,
      "geocoding_level": 8,
      "phone": "024-922-5080",
      "license_no": "",
      "license_date": "2020-03-09",
      "expire_date": null
    },
    {
      "name": "ハニーポテト",
      "name_kana": "",
      "business_type": "菓子製造業",
      "address": "郡山市開成五丁目12-29　スカイエッセA棟105",
      "lat": 37.388714458,
      "lng": 140.354414953,
      "geocoding_level": 8,
      "phone": "－",
      "license_no": "",
      "license_date": "2020-03-10",
      "expire_date": null
    },
    {
      "name": "焼肉・ホルモン焼　あかぶた",
      "name_kana": "",
      "business_type": "飲食店営業",
      "address": "郡山市富田東三丁目213",
      "lat": 37.426612095,
      "lng": 140.366009764,
      "geocoding_level": 8,
      "phone": "024-983-0129",
      "license_no": "",
      "license_date": "2020-03-12",
      "expire_date": null
    },
    {
      "name": "のんき",
      "name_kana": "",
      "business_type": "飲食店営業",
      "address": "郡山市朝日二丁目20-25　あさひガッセ5号室",
      "lat": 37.403529883,
      "lng": 140.360182981,
      "geocoding_level": 8,
      "phone": "024-954-4215",
      "license_no": "",
      "license_date": "2020-03-13",
      "expire_date": null
    },
    {
      "name": "ＳＯＮＧＳ",
      "name_kana": "",
      "business_type": "飲食店営業",
      "address": "郡山市駅前一丁目1-12　陣屋エクセレントビル2F201号",
      "lat": 37.396488997,
      "lng": 140.385723561,
      "geocoding_level": 8,
      "phone": "－",
      "license_no": "",
      "license_date": "2020-03-18",
      "expire_date": null
    },
    {
      "name": "お食事処さくら荒井店",
      "name_kana": "",
      "business_type": "飲食店営業",
      "address": "郡山市安積荒井一丁目44",
      "lat": 37.369454508,
      "lng": 140.351954495,
      "geocoding_level": 8,
      "phone": "－",
      "license_no": "",
      "license_date": "2020-03-18",
      "expire_date": null
    },
    {
      "name": "お食事処さくら図景店",
      "name_kana": "",
      "business_type": "飲食店営業",
      "address": "郡山市図景一丁目17-27",
      "lat": 37.386039742,
      "lng": 140.380309719,
      "geocoding_level": 8,
      "phone": "－",
      "license_no": "",
      "license_date": "2020-03-18",
      "expire_date": null
    },
    {
      "name": "お食事処さくら日和田店",
      "name_kana": "",
      "business_type": "飲食店営業",
      "address": "郡山市日和田町字西中島22-1",
      "lat": 37.447724879,
      "lng": 140.379724242,
      "geocoding_level": 8,
      "phone": "－",
      "license_no": "",
      "license_date": "2020-03-18",
      "expire_date": null
    },
    {
      "name": "お食事処さくら並木店",
      "name_kana": "",
      "business_type": "飲食店営業",
      "address": "郡山市並木三丁目2-21",
      "lat": 37.408753,
      "lng": 140.358956,
      "geocoding_level": 3,
      "phone": "－",
      "license_no": "",
      "license_date": "2020-03-18",
      "expire_date": null
    },
    {
      "name": "カラオケまねきねこ　郡山駅前店",
      "name_kana": "",
      "business_type": "飲食店営業",
      "address": "郡山市中町11-5　スクエアーコオリヤマ2F",
      "lat": 37.397966481,
      "lng": 140.384629383,
      "geocoding_level": 8,
      "phone": "024-926-0522",
      "license_no": "",
      "license_date": "2020-03-18",
      "expire_date": null
    },
    {
      "name": "ハバカーる。",
      "name_kana": "",
      "business_type": "飲食店営業",
      "address": "郡山市新屋敷一丁目35　ニッカン102　104",
      "lat": 37.417852057,
      "lng": 140.358891855,
      "geocoding_level": 8,
      "phone": "－",
      "license_no": "",
      "license_date": "2020-03-19",
      "expire_date": null
    },
    {
      "name": "龍宮城別館",
      "name_kana": "",
      "business_type": "飲食店営業",
      "address": "郡山市安積四丁目42",
      "lat": 37.352891,
      "lng": 140.364022,
      "geocoding_level": 3,
      "phone": "024-946-3171",
      "license_no": "",
      "license_date": "2020-03-19",
      "expire_date": null
    },
    {
      "name": "学校法人　吉野学園　わかば幼稚園",
      "name_kana": "",
      "business_type": "飲食店営業",
      "address": "郡山市安積町大森町34",
      "lat": 37.344191178,
      "lng": 140.343193622,
      "geocoding_level": 8,
      "phone": "024-945-6035",
      "license_no": "",
      "license_date": "2020-03-19",
      "expire_date": null
    },
    {
      "name": "椿",
      "name_kana": "",
      "business_type": "飲食店営業",
      "address": "郡山市駅前一丁目4-2　オーパス10ビル1F",
      "lat": 37.397450475,
      "lng": 140.385041592,
      "geocoding_level": 8,
      "phone": "024-954-9996",
      "license_no": "",
      "license_date": "2020-03-23",
      "expire_date": null
    },
    {
      "name": "おかあちゃんの台所　ありがとう",
      "name_kana": "",
      "business_type": "飲食店営業",
      "address": "郡山市虎丸町17-18　1F",
      "lat": 37.40024205,
      "lng": 140.377325228,
      "geocoding_level": 8,
      "phone": "024-973-5910",
      "license_no": "",
      "license_date": "2020-03-23",
      "expire_date": null
    },
    {
      "name": "認定こども園　こはらだ幼稚園",
      "name_kana": "",
      "business_type": "飲食店営業",
      "address": "郡山市小原田二丁目20-15",
      "lat": 37.381938561,
      "lng": 140.388976406,
      "geocoding_level": 8,
      "phone": "024-944-2255",
      "license_no": "",
      "license_date": "2020-03-24",
      "expire_date": null
    },
    {
      "name": "メフォス北日本52348号店（だいこん畑の保育園）",
      "name_kana": "",
      "business_type": "飲食店営業",
      "address": "郡山市安積北井二丁目192",
      "lat": 37.373192114,
      "lng": 140.362532228,
      "geocoding_level": 8,
      "phone": "024-973-6376",
      "license_no": "",
      "license_date": "2020-03-25",
      "expire_date": null
    },
    {
      "name": "Ｌｕｉｄａ",
      "name_kana": "",
      "business_type": "飲食店営業",
      "address": "郡山市朝日二丁目18-1　あさひ街6号棟",
      "lat": 37.404135981,
      "lng": 140.359993881,
      "geocoding_level": 8,
      "phone": "024-955-6366",
      "license_no": "",
      "license_date": "2020-03-27",
      "expire_date": null
    },
    {
      "name": "風花",
      "name_kana": "",
      "business_type": "飲食店営業",
      "address": "郡山市駅前一丁目1-11　エリート15　201号室",
      "lat": 37.396604892,
      "lng": 140.385732939,
      "geocoding_level": 8,
      "phone": "024-973-8175",
      "license_no": "",
      "license_date": "2020-03-30",
      "expire_date": null
    },
    {
      "name": "ＤＡＶＶＥＲＯ",
      "name_kana": "",
      "business_type": "飲食店営業",
      "address": "郡山市駅前二丁目6-15",
      "lat": 37.398982325,
      "lng": 140.387008928,
      "geocoding_level": 8,
      "phone": "024-923-6000",
      "license_no": "",
      "license_date": "2020-03-30",
      "expire_date": null
    },
    {
      "name": "居酒家　梅ごころ",
      "name_kana": "",
      "business_type": "飲食店営業",
      "address": "郡山市朝日二丁目20-25　サプライズ朝日1F",
      "lat": 37.403529883,
      "lng": 140.360182981,
      "geocoding_level": 8,
      "phone": "024-953-3808",
      "license_no": "",
      "license_date": "2020-04-02",
      "expire_date": null
    },
    {
      "name": "ジェイ・ピー・エム",
      "name_kana": "",
      "business_type": "飲食店営業",
      "address": "郡山市八山田西三丁目41　B1F",
      "lat": 37.427341062,
      "lng": 140.366251112,
      "geocoding_level": 8,
      "phone": "024-922-5957",
      "license_no": "",
      "license_date": "2020-04-08",
      "expire_date": null
    },
    {
      "name": "Ｂａｒ　Ｓｈｉｋ",
      "name_kana": "",
      "business_type": "飲食店営業",
      "address": "郡山市堂前町17-15　大秀ビル106号",
      "lat": 37.395441492,
      "lng": 140.379997586,
      "geocoding_level": 8,
      "phone": "－",
      "license_no": "",
      "license_date": "2020-04-09",
      "expire_date": null
    },
    {
      "name": "尚志高等学校　学生寮",
      "name_kana": "",
      "business_type": "飲食店営業",
      "address": "郡山市大槻町字坦ノ腰2",
      "lat": 37.400455,
      "lng": 140.35965,
      "geocoding_level": 2,
      "phone": "－",
      "license_no": "",
      "license_date": "2020-04-09",
      "expire_date": null
    },
    {
      "name": "カフェ ジュジュ",
      "name_kana": "",
      "business_type": "飲食店営業",
      "address": "郡山市富田東五丁目413",
      "lat": 37.420758695,
      "lng": 140.370356308,
      "geocoding_level": 8,
      "phone": "024-954-5537",
      "license_no": "",
      "license_date": "2020-04-10",
      "expire_date": null
    },
    {
      "name": "やなぎ家",
      "name_kana": "",
      "business_type": "飲食店営業",
      "address": "郡山市朝日二丁目18-1",
      "lat": 37.404135981,
      "lng": 140.359993881,
      "geocoding_level": 8,
      "phone": "024-935-9400",
      "license_no": "",
      "license_date": "2020-04-10",
      "expire_date": null
    },
    {
      "name": "sweet hot (金屋店)",
      "name_kana": "",
      "business_type": "飲食店営業",
      "address": "郡山市田村町金屋字冬室113-1",
      "lat": 37.365199421,
      "lng": 140.394086273,
      "geocoding_level": 8,
      "phone": "024-943-5566",
      "license_no": "",
      "license_date": "2020-04-10",
      "expire_date": null
    },
    {
      "name": "Sumibi Daining Vｰbrian安積店",
      "name_kana": "",
      "business_type": "食肉販売業",
      "address": "郡山市安積二丁目209-1",
      "lat": 37.360711,
      "lng": 140.366975,
      "geocoding_level": 3,
      "phone": "024-937-0115",
      "license_no": "",
      "license_date": "2020-04-13",
      "expire_date": null
    },
    {
      "name": "吉野家　郡山さくら通り店",
      "name_kana": "",
      "business_type": "飲食店営業",
      "address": "郡山市虎丸町9-15",
      "lat": 37.399348519,
      "lng": 140.372608708,
      "geocoding_level": 8,
      "phone": "024-991-9252",
      "license_no": "",
      "license_date": "2020-04-13",
      "expire_date": null
    },
    {
      "name": "元祖からあげ本舗　マルヒデ",
      "name_kana": "",
      "business_type": "飲食店営業",
      "address": "郡山市島一丁目21-9",
      "lat": 37.398153572,
      "lng": 140.344627131,
      "geocoding_level": 8,
      "phone": "024-954-8868",
      "license_no": "",
      "license_date": "2020-04-13",
      "expire_date": null
    },
    {
      "name": "宝来軒",
      "name_kana": "",
      "business_type": "飲食店営業",
      "address": "郡山市並木三丁目5-9",
      "lat": 37.408753,
      "lng": 140.358956,
      "geocoding_level": 3,
      "phone": "024-923-0260",
      "license_no": "",
      "license_date": "2020-04-14",
      "expire_date": null
    },
    {
      "name": "手しごと厨房 がんがん丸",
      "name_kana": "",
      "business_type": "飲食店営業",
      "address": "郡山市朝日一丁目19-8",
      "lat": 37.402914525,
      "lng": 140.360456683,
      "geocoding_level": 8,
      "phone": "024-991-7789",
      "license_no": "",
      "license_date": "2020-04-14",
      "expire_date": null
    },
    {
      "name": "京香",
      "name_kana": "",
      "business_type": "飲食店営業",
      "address": "郡山市長者一丁目3-20",
      "lat": 37.399344042,
      "lng": 140.368994922,
      "geocoding_level": 8,
      "phone": "024-932-0220",
      "license_no": "",
      "license_date": "2020-04-14",
      "expire_date": null
    },
    {
      "name": "セブンイレブン郡山片平町店",
      "name_kana": "",
      "business_type": "飲食店営業",
      "address": "郡山市片平町字地の岡7-3",
      "lat": 37.420221416,
      "lng": 140.31151567600003,
      "geocoding_level": 8,
      "phone": "024-961-7517",
      "license_no": "",
      "license_date": "2020-04-14",
      "expire_date": null
    },
    {
      "name": "デニーズ郡山西ノ内店",
      "name_kana": "",
      "business_type": "飲食店営業",
      "address": "郡山市西ノ内二丁目18-8",
      "lat": 37.405960414,
      "lng": 140.362089561,
      "geocoding_level": 8,
      "phone": "－",
      "license_no": "",
      "license_date": "2020-04-14",
      "expire_date": null
    },
    {
      "name": "デイリーヤマザキ郡山富田店",
      "name_kana": "",
      "business_type": "飲食店営業",
      "address": "郡山市新屋敷一丁目158",
      "lat": 37.418556221,
      "lng": 140.358939151,
      "geocoding_level": 8,
      "phone": "024-927-1677",
      "license_no": "",
      "license_date": "2020-04-14",
      "expire_date": null
    },
    {
      "name": "デイリーヤマザキ郡山富田店",
      "name_kana": "",
      "business_type": "菓子製造業",
      "address": "郡山市新屋敷一丁目158",
      "lat": 37.418556221,
      "lng": 140.358939151,
      "geocoding_level": 8,
      "phone": "024-927-1677",
      "license_no": "",
      "license_date": "2020-04-14",
      "expire_date": null
    },
    {
      "name": "平禄寿司八山田店",
      "name_kana": "",
      "business_type": "飲食店営業",
      "address": "郡山市八山田西一丁目58　ヨークタウン内",
      "lat": 37.42655355,
      "lng": 140.364176504,
      "geocoding_level": 8,
      "phone": "024-991-8550",
      "license_no": "",
      "license_date": "2020-04-14",
      "expire_date": null
    },
    {
      "name": "ニュークラブ　ダボロ",
      "name_kana": "",
      "business_type": "飲食店営業",
      "address": "郡山市駅前二丁目6-3　メッソビル3Ｆ",
      "lat": 37.399073347,
      "lng": 140.386587158,
      "geocoding_level": 8,
      "phone": "－",
      "license_no": "",
      "license_date": "2020-04-15",
      "expire_date": null
    },
    {
      "name": "鈴広",
      "name_kana": "",
      "business_type": "飲食店営業",
      "address": "郡山市富田町字舘南32-8",
      "lat": 37.414670149,
      "lng": 140.338990267,
      "geocoding_level": 8,
      "phone": "－",
      "license_no": "",
      "license_date": "2020-04-15",
      "expire_date": null
    },
    {
      "name": "丸新",
      "name_kana": "",
      "business_type": "飲食店営業",
      "address": "郡山市神明町15-4",
      "lat": 37.400955158,
      "lng": 140.378083914,
      "geocoding_level": 8,
      "phone": "024-922-1851",
      "license_no": "",
      "license_date": "2020-04-15",
      "expire_date": null
    },
    {
      "name": "有限会社おぐり郡山工場",
      "name_kana": "",
      "business_type": "豆腐製造業",
      "address": "郡山市喜久田町字菖蒲池23-117",
      "lat": 37.43105168,
      "lng": 140.337927203,
      "geocoding_level": 8,
      "phone": "024-959-2032",
      "license_no": "",
      "license_date": "2020-04-15",
      "expire_date": null
    },
    {
      "name": "ミニストップ郡山久留米店",
      "name_kana": "",
      "business_type": "飲食店営業",
      "address": "郡山市久留米六丁目86-1",
      "lat": 37.378462756,
      "lng": 140.34724502,
      "geocoding_level": 8,
      "phone": "024-947-3033",
      "license_no": "",
      "license_date": "2020-04-16",
      "expire_date": null
    },
    {
      "name": "COVO",
      "name_kana": "",
      "business_type": "飲食店営業",
      "address": "郡山市朝日二丁目19-21 あさひ1番街2号棟",
      "lat": 37.404078744,
      "lng": 140.359762494,
      "geocoding_level": 8,
      "phone": "－",
      "license_no": "",
      "license_date": "2020-04-16",
      "expire_date": null
    },
    {
      "name": "喫茶きらら",
      "name_kana": "",
      "business_type": "喫茶店営業",
      "address": "郡山市片平町字北三天7 星ヶ丘病院内",
      "lat": 37.400455,
      "lng": 140.35965,
      "geocoding_level": 2,
      "phone": "－",
      "license_no": "",
      "license_date": "2020-04-16",
      "expire_date": null
    },
    {
      "name": "くまごろう",
      "name_kana": "",
      "business_type": "飲食店営業",
      "address": "郡山市豊田町4-8",
      "lat": 37.398199681,
      "lng": 140.363255928,
      "geocoding_level": 8,
      "phone": "024-923-9276",
      "license_no": "",
      "license_date": "2020-04-16",
      "expire_date": null
    },
    {
      "name": "セブン－イレブン郡山奥羽大学前店",
      "name_kana": "",
      "business_type": "飲食店営業",
      "address": "郡山市富田東五丁目415",
      "lat": 37.420618635,
      "lng": 140.370322729,
      "geocoding_level": 8,
      "phone": "024-939-2222",
      "license_no": "",
      "license_date": "2020-04-16",
      "expire_date": null
    },
    {
      "name": "ホテルルートイン郡山インター",
      "name_kana": "",
      "business_type": "飲食店営業",
      "address": "郡山市町東二丁目230",
      "lat": 37.418267265,
      "lng": 140.344343393,
      "geocoding_level": 8,
      "phone": "024-952-0505",
      "license_no": "",
      "license_date": "2020-04-16",
      "expire_date": null
    },
    {
      "name": "響アネックス",
      "name_kana": "",
      "business_type": "飲食店営業",
      "address": "郡山市朝日二丁目19-23クイーンズオブアサヒビル102",
      "lat": 37.404136647,
      "lng": 140.360062608,
      "geocoding_level": 8,
      "phone": "024-921-9080",
      "license_no": "",
      "license_date": "2020-04-17",
      "expire_date": null
    },
    {
      "name": "そば処 勇屋",
      "name_kana": "",
      "business_type": "飲食店営業",
      "address": "郡山市八山田西一丁目165",
      "lat": 37.427759422,
      "lng": 140.359293298,
      "geocoding_level": 8,
      "phone": "024-922-1450",
      "license_no": "",
      "license_date": "2020-04-17",
      "expire_date": null
    },
    {
      "name": "蕎麦処なみき庵",
      "name_kana": "",
      "business_type": "飲食店営業",
      "address": "郡山市並木一丁目16-3",
      "lat": 37.409843,
      "lng": 140.363497,
      "geocoding_level": 3,
      "phone": "024-927-1266",
      "license_no": "",
      "license_date": "2020-04-17",
      "expire_date": null
    },
    {
      "name": "蕎麦処なみき庵",
      "name_kana": "",
      "business_type": "麺類製造業",
      "address": "郡山市並木一丁目16-3",
      "lat": 37.409843,
      "lng": 140.363497,
      "geocoding_level": 3,
      "phone": "024-927-1266",
      "license_no": "",
      "license_date": "2020-04-17",
      "expire_date": null
    },
    {
      "name": "炭火焼肉レストラン　フェ",
      "name_kana": "",
      "business_type": "食肉販売業",
      "address": "郡山市桑野三丁目14-3",
      "lat": 37.405433853,
      "lng": 140.356091608,
      "geocoding_level": 8,
      "phone": "024-939-8929",
      "license_no": "",
      "license_date": "2020-04-17",
      "expire_date": null
    },
    {
      "name": "福島牛焼肉 牛豊 八山田店",
      "name_kana": "",
      "business_type": "飲食店営業",
      "address": "郡山市八山田西一丁目114",
      "lat": 37.426664835,
      "lng": 140.361520494,
      "geocoding_level": 8,
      "phone": "024-934-1129",
      "license_no": "",
      "license_date": "2020-04-17",
      "expire_date": null
    },
    {
      "name": "ほるもん道場 亀田本店",
      "name_kana": "",
      "business_type": "飲食店営業",
      "address": "郡山市亀田二丁目26-9",
      "lat": 37.407537606,
      "lng": 140.345085625,
      "geocoding_level": 8,
      "phone": "024-938-7345",
      "license_no": "",
      "license_date": "2020-04-17",
      "expire_date": null
    },
    {
      "name": "日本料理弁慶",
      "name_kana": "",
      "business_type": "飲食店営業",
      "address": "郡山市朝日二丁目6-3",
      "lat": 37.405298397,
      "lng": 140.360895539,
      "geocoding_level": 8,
      "phone": "024-933-9110",
      "license_no": "",
      "license_date": "2020-04-20",
      "expire_date": null
    },
    {
      "name": "ビストロ・ボン・シェール",
      "name_kana": "",
      "business_type": "飲食店営業",
      "address": "郡山市並木二丁目17-17",
      "lat": 37.413083,
      "lng": 140.364856,
      "geocoding_level": 3,
      "phone": "024-925-5573",
      "license_no": "",
      "license_date": "2020-04-20",
      "expire_date": null
    },
    {
      "name": "居酒屋 桃太郎",
      "name_kana": "",
      "business_type": "飲食店営業",
      "address": "郡山市豊田町5-17 門沢ビル",
      "lat": 37.399397031,
      "lng": 140.364283456,
      "geocoding_level": 8,
      "phone": "024-932-9670",
      "license_no": "",
      "license_date": "2020-04-20",
      "expire_date": null
    },
    {
      "name": "びっくりドンキー桑野店",
      "name_kana": "",
      "business_type": "飲食店営業",
      "address": "郡山市字下亀田9-3",
      "lat": 37.409129636,
      "lng": 140.349987814,
      "geocoding_level": 8,
      "phone": "024-927-1131",
      "license_no": "",
      "license_date": "2020-04-20",
      "expire_date": null
    },
    {
      "name": "Sumibi Daining Vｰbrian桑野店",
      "name_kana": "",
      "business_type": "食肉販売業",
      "address": "郡山市桑野四丁目2-3",
      "lat": 37.408028,
      "lng": 140.353489,
      "geocoding_level": 3,
      "phone": "024-927-4729",
      "license_no": "",
      "license_date": "2020-04-21",
      "expire_date": null
    },
    {
      "name": "そば処 勇屋",
      "name_kana": "",
      "business_type": "麺類製造業",
      "address": "郡山市八山田西一丁目165",
      "lat": 37.427759422,
      "lng": 140.359293298,
      "geocoding_level": 8,
      "phone": "024-922-1450",
      "license_no": "",
      "license_date": "2020-04-21",
      "expire_date": null
    },
    {
      "name": "有限会社河童",
      "name_kana": "",
      "business_type": "飲食店営業",
      "address": "郡山市清水台一丁目6-15",
      "lat": 37.399062017,
      "lng": 140.382411936,
      "geocoding_level": 8,
      "phone": "024-922-3520",
      "license_no": "",
      "license_date": "2020-04-21",
      "expire_date": null
    },
    {
      "name": "初 －Hajime－ 八山田店",
      "name_kana": "",
      "business_type": "飲食店営業",
      "address": "郡山市富田町字下双又15-15",
      "lat": 37.400455,
      "lng": 140.35965,
      "geocoding_level": 2,
      "phone": "024-954-3304",
      "license_no": "",
      "license_date": "2020-04-21",
      "expire_date": null
    },
    {
      "name": "やぐら太鼓",
      "name_kana": "",
      "business_type": "飲食店営業",
      "address": "郡山市桜木二丁目21-4",
      "lat": 37.408309061,
      "lng": 140.367018442,
      "geocoding_level": 8,
      "phone": "024-932-9058",
      "license_no": "",
      "license_date": "2020-04-21",
      "expire_date": null
    },
    {
      "name": "カレーハウスCoCo壱番屋 郡山うねめ通店",
      "name_kana": "",
      "business_type": "飲食店営業",
      "address": "郡山市並木一丁目1-17",
      "lat": 37.409843,
      "lng": 140.363497,
      "geocoding_level": 3,
      "phone": "024-990-2622",
      "license_no": "",
      "license_date": "2020-04-21",
      "expire_date": null
    },
    {
      "name": "ガスト郡山八山田店",
      "name_kana": "",
      "business_type": "飲食店営業",
      "address": "郡山市富田東三丁目131",
      "lat": 37.426153328,
      "lng": 140.365567507,
      "geocoding_level": 8,
      "phone": "024-991-9660",
      "license_no": "",
      "license_date": "2020-04-21",
      "expire_date": null
    },
    {
      "name": "藪木",
      "name_kana": "",
      "business_type": "麺類製造業",
      "address": "郡山市名郷田二丁目10",
      "lat": 37.417723096,
      "lng": 140.362182696,
      "geocoding_level": 8,
      "phone": "024-922-5435",
      "license_no": "",
      "license_date": "2020-04-22",
      "expire_date": null
    },
    {
      "name": "壱りゅう食堂",
      "name_kana": "",
      "business_type": "飲食店営業",
      "address": "郡山市大槻町字仙海東5-2",
      "lat": 37.389376278,
      "lng": 140.324802045,
      "geocoding_level": 8,
      "phone": "－",
      "license_no": "",
      "license_date": "2020-04-22",
      "expire_date": null
    },
    {
      "name": "エアメール",
      "name_kana": "",
      "business_type": "飲食店営業",
      "address": "郡山市大町一丁目4-16　第1増子ビル3F",
      "lat": 37.3988815,
      "lng": 140.385578333,
      "geocoding_level": 8,
      "phone": "024-924-1652",
      "license_no": "",
      "license_date": "2020-04-22",
      "expire_date": null
    },
    {
      "name": "ぐりむわーるど郡山富田西店",
      "name_kana": "",
      "business_type": "飲食店営業",
      "address": "郡山市富田町字諏訪前41",
      "lat": 37.424409082,
      "lng": 140.336470293,
      "geocoding_level": 8,
      "phone": "024-953-6662",
      "license_no": "",
      "license_date": "2020-04-22",
      "expire_date": null
    },
    {
      "name": "ぐりむわーるど郡山富田西店",
      "name_kana": "",
      "business_type": "菓子製造業",
      "address": "郡山市富田町字諏訪前41",
      "lat": 37.424409082,
      "lng": 140.336470293,
      "geocoding_level": 8,
      "phone": "024-953-6662",
      "license_no": "",
      "license_date": "2020-04-22",
      "expire_date": null
    },
    {
      "name": "HYPER Gaja 郡山富田店",
      "name_kana": "",
      "business_type": "食肉販売業",
      "address": "郡山市富田東三丁目8",
      "lat": 37.424495495,
      "lng": 140.365042363,
      "geocoding_level": 8,
      "phone": "024-973-6767",
      "license_no": "",
      "license_date": "2020-04-22",
      "expire_date": null
    },
    {
      "name": "食菜工房 まる山　郡山並木店",
      "name_kana": "",
      "business_type": "菓子製造業",
      "address": "郡山市並木一丁目12-13",
      "lat": 37.409843,
      "lng": 140.363497,
      "geocoding_level": 3,
      "phone": "024-935-0055",
      "license_no": "",
      "license_date": "2020-04-22",
      "expire_date": null
    },
    {
      "name": "磐梯熱海ファーム倶楽部",
      "name_kana": "",
      "business_type": "缶詰又は瓶詰食品製造業",
      "address": "郡山市熱海町熱海六丁目223",
      "lat": 37.486949,
      "lng": 140.274556,
      "geocoding_level": 3,
      "phone": "024-984-2579",
      "license_no": "",
      "license_date": "2020-04-23",
      "expire_date": null
    },
    {
      "name": "一般財団法人太田綜合病院附属緑風苑",
      "name_kana": "",
      "business_type": "飲食店営業",
      "address": "郡山市熱海町熱海五丁目250",
      "lat": 37.489117,
      "lng": 140.260135,
      "geocoding_level": 3,
      "phone": "024-984-2288",
      "license_no": "",
      "license_date": "2020-04-23",
      "expire_date": null
    },
    {
      "name": "ドライブイン幸華",
      "name_kana": "",
      "business_type": "飲食店営業",
      "address": "郡山市熱海町安子島字反畑65-7",
      "lat": 37.400455,
      "lng": 140.35965,
      "geocoding_level": 2,
      "phone": "024-984-4059",
      "license_no": "",
      "license_date": "2020-04-23",
      "expire_date": null
    },
    {
      "name": "株式会社栄楽館",
      "name_kana": "",
      "business_type": "飲食店営業",
      "address": "郡山市熱海町熱海四丁目47",
      "lat": 37.48328,
      "lng": 140.26682,
      "geocoding_level": 3,
      "phone": "024-984-2135",
      "license_no": "",
      "license_date": "2020-04-23",
      "expire_date": null
    },
    {
      "name": "味処 雀",
      "name_kana": "",
      "business_type": "飲食店営業",
      "address": "郡山市町東一丁目165",
      "lat": 37.421210602,
      "lng": 140.351358541,
      "geocoding_level": 8,
      "phone": "024-961-7007",
      "license_no": "",
      "license_date": "2020-04-24",
      "expire_date": null
    },
    {
      "name": "元氣のでる焼肉冷麺 やまなか家 郡山さくら通り店",
      "name_kana": "",
      "business_type": "飲食店営業",
      "address": "郡山市長者三丁目1-10",
      "lat": 37.399511044,
      "lng": 140.366444936,
      "geocoding_level": 8,
      "phone": "024-927-1110",
      "license_no": "",
      "license_date": "2020-04-24",
      "expire_date": null
    },
    {
      "name": "たまのや こころ斎苑 喜久田",
      "name_kana": "",
      "business_type": "飲食店営業",
      "address": "郡山市東原二丁目127",
      "lat": 37.432087398,
      "lng": 140.352854225,
      "geocoding_level": 8,
      "phone": "024-991-5470",
      "license_no": "",
      "license_date": "2020-04-24",
      "expire_date": null
    },
    {
      "name": "有限会社魚喜",
      "name_kana": "",
      "business_type": "飲食店営業",
      "address": "郡山市神明町1-17",
      "lat": 37.401301594,
      "lng": 140.377331167,
      "geocoding_level": 8,
      "phone": "－",
      "license_no": "",
      "license_date": "2020-04-24",
      "expire_date": null
    },
    {
      "name": "セブン‐イレブン郡山東原店",
      "name_kana": "",
      "business_type": "飲食店営業",
      "address": "郡山市八山田西一丁目275",
      "lat": 37.428518092,
      "lng": 140.356781393,
      "geocoding_level": 8,
      "phone": "024-931-0711",
      "license_no": "",
      "license_date": "2020-04-24",
      "expire_date": null
    },
    {
      "name": "自家製麺　工藤",
      "name_kana": "",
      "business_type": "麺類製造業",
      "address": "郡山市神明町17-13",
      "lat": 37.401429442,
      "lng": 140.380031672,
      "geocoding_level": 8,
      "phone": "－",
      "license_no": "",
      "license_date": "2020-04-27",
      "expire_date": null
    },
    {
      "name": "肉のながせ",
      "name_kana": "",
      "business_type": "飲食店営業",
      "address": "郡山市熱海町熱海一丁目278",
      "lat": 37.48235400000001,
      "lng": 140.273503,
      "geocoding_level": 3,
      "phone": "024-984-2348",
      "license_no": "",
      "license_date": "2020-04-27",
      "expire_date": null
    },
    {
      "name": "やばほるフクヤマ",
      "name_kana": "",
      "business_type": "食肉販売業",
      "address": "郡山市八山田西三丁目408",
      "lat": 37.427470563,
      "lng": 140.366620917,
      "geocoding_level": 8,
      "phone": "024-954-4610",
      "license_no": "",
      "license_date": "2020-04-27",
      "expire_date": null
    },
    {
      "name": "有限会社山下商店",
      "name_kana": "",
      "business_type": "魚介類販売業",
      "address": "郡山市熱海町熱海一丁目271-1",
      "lat": 37.48235400000001,
      "lng": 140.273503,
      "geocoding_level": 3,
      "phone": "024-984-2217",
      "license_no": "",
      "license_date": "2020-04-27",
      "expire_date": null
    },
    {
      "name": "とんかつ うえの",
      "name_kana": "",
      "business_type": "飲食店営業",
      "address": "郡山市熱海町熱海五丁目124",
      "lat": 37.489117,
      "lng": 140.260135,
      "geocoding_level": 3,
      "phone": "024-984-3303",
      "license_no": "",
      "license_date": "2020-04-27",
      "expire_date": null
    },
    {
      "name": "をりふしの宿　昭月",
      "name_kana": "",
      "business_type": "飲食店営業",
      "address": "郡山市熱海町熱海五丁目30",
      "lat": 37.489117,
      "lng": 140.260135,
      "geocoding_level": 3,
      "phone": "024-984-3309",
      "license_no": "",
      "license_date": "2020-04-27",
      "expire_date": null
    },
    {
      "name": "とりの蔵 富田店",
      "name_kana": "",
      "business_type": "飲食店営業",
      "address": "郡山市名郷田二丁目40",
      "lat": 37.418565989,
      "lng": 140.360067156,
      "geocoding_level": 8,
      "phone": "024-973-5056",
      "license_no": "",
      "license_date": "2020-04-28",
      "expire_date": null
    },
    {
      "name": "ｆａｉｔｈ",
      "name_kana": "",
      "business_type": "飲食店営業",
      "address": "郡山市駅前一丁目8-2　クエストⅠビル5F",
      "lat": 37.396318253,
      "lng": 140.385758978,
      "geocoding_level": 8,
      "phone": "024-921-1811",
      "license_no": "",
      "license_date": "2020-04-30",
      "expire_date": null
    },
    {
      "name": "いまいずみ荘",
      "name_kana": "",
      "business_type": "飲食店営業",
      "address": "郡山市富田西三丁目172",
      "lat": 37.400455,
      "lng": 140.35965,
      "geocoding_level": 2,
      "phone": "024-962-9505",
      "license_no": "",
      "license_date": "2020-04-30",
      "expire_date": null
    },
    {
      "name": "ＣＬＵＢ　Ｋ",
      "name_kana": "",
      "business_type": "飲食店営業",
      "address": "郡山市朝日二丁目19-26　あさひ一番街12号棟",
      "lat": 37.40382231400001,
      "lng": 140.360127636,
      "geocoding_level": 8,
      "phone": "－",
      "license_no": "",
      "license_date": "2020-05-01",
      "expire_date": null
    },
    {
      "name": "えんむすび",
      "name_kana": "",
      "business_type": "食肉販売業",
      "address": "郡山市駅前二丁目6-16 横山プラザ1F",
      "lat": 37.398859881,
      "lng": 140.386963208,
      "geocoding_level": 8,
      "phone": "024-924-0301",
      "license_no": "",
      "license_date": "2020-05-01",
      "expire_date": null
    },
    {
      "name": "よっちゃん",
      "name_kana": "",
      "business_type": "そうざい製造業",
      "address": "郡山市八山田西一丁目174",
      "lat": 37.42767786,
      "lng": 140.359768964,
      "geocoding_level": 8,
      "phone": "024-925-6725",
      "license_no": "",
      "license_date": "2020-05-07",
      "expire_date": null
    },
    {
      "name": "あさくさらーメン西ノ内店",
      "name_kana": "",
      "business_type": "飲食店営業",
      "address": "郡山市西ノ内一丁目2-2 Ｋ．Ｓガーデン1階",
      "lat": 37.405425308,
      "lng": 140.372899864,
      "geocoding_level": 8,
      "phone": "024-921-7088",
      "license_no": "",
      "license_date": "2020-05-07",
      "expire_date": null
    },
    {
      "name": "日清医療食品株式会社朝日病院事業所",
      "name_kana": "",
      "business_type": "飲食店営業",
      "address": "郡山市朝日三丁目8-2 病院2F",
      "lat": 37.405653381,
      "lng": 140.357847728,
      "geocoding_level": 8,
      "phone": "024-922-7527",
      "license_no": "",
      "license_date": "2020-05-07",
      "expire_date": null
    },
    {
      "name": "焼肉くぼた屋",
      "name_kana": "",
      "business_type": "食肉販売業",
      "address": "郡山市堂前町30-1",
      "lat": 37.394133258,
      "lng": 140.381382442,
      "geocoding_level": 8,
      "phone": "024-924-0193",
      "license_no": "",
      "license_date": "2020-05-08",
      "expire_date": null
    },
    {
      "name": "讃岐製麺 麦まる",
      "name_kana": "",
      "business_type": "飲食店営業",
      "address": "郡山市長者一丁目1-56 ＴＨＥ ＭＡＬＬ郡山1階",
      "lat": 37.398470158,
      "lng": 140.371911775,
      "geocoding_level": 8,
      "phone": "024-924-7386",
      "license_no": "",
      "license_date": "2020-05-08",
      "expire_date": null
    },
    {
      "name": "東北アンリツ㈱第二工場食堂",
      "name_kana": "",
      "business_type": "飲食店営業",
      "address": "郡山市待池台一丁目20-8 東北アンリツ㈱第二工場",
      "lat": 37.445751467,
      "lng": 140.303676833,
      "geocoding_level": 8,
      "phone": "024-956-2112",
      "license_no": "",
      "license_date": "2020-05-11",
      "expire_date": null
    },
    {
      "name": "ブイチェーン喜久田東原店",
      "name_kana": "",
      "business_type": "飲食店営業",
      "address": "郡山市東原一丁目224",
      "lat": 37.431874034,
      "lng": 140.35209691,
      "geocoding_level": 8,
      "phone": "024-954-5166",
      "license_no": "",
      "license_date": "2020-05-12",
      "expire_date": null
    },
    {
      "name": "ブイチェーン喜久田東原店",
      "name_kana": "",
      "business_type": "飲食店営業",
      "address": "郡山市東原一丁目224",
      "lat": 37.431874034,
      "lng": 140.35209691,
      "geocoding_level": 8,
      "phone": "024-954-5166",
      "license_no": "",
      "license_date": "2020-05-12",
      "expire_date": null
    },
    {
      "name": "ブイチェーン喜久田東原店",
      "name_kana": "",
      "business_type": "魚介類販売業",
      "address": "郡山市東原一丁目224",
      "lat": 37.431874034,
      "lng": 140.35209691,
      "geocoding_level": 8,
      "phone": "024-954-5166",
      "license_no": "",
      "license_date": "2020-05-12",
      "expire_date": null
    },
    {
      "name": "ブイチェーン喜久田東原店",
      "name_kana": "",
      "business_type": "食肉販売業",
      "address": "郡山市東原一丁目224",
      "lat": 37.431874034,
      "lng": 140.35209691,
      "geocoding_level": 8,
      "phone": "024-954-5166",
      "license_no": "",
      "license_date": "2020-05-12",
      "expire_date": null
    },
    {
      "name": "連ちゃん食堂",
      "name_kana": "",
      "business_type": "飲食店営業",
      "address": "郡山市新屋敷二丁目136",
      "lat": 37.419962684,
      "lng": 140.355131812,
      "geocoding_level": 8,
      "phone": "024-934-1850",
      "license_no": "",
      "license_date": "2020-05-13",
      "expire_date": null
    },
    {
      "name": "すき家 ザ・モール郡山店",
      "name_kana": "",
      "business_type": "飲食店営業",
      "address": "郡山市長者一丁目1-56 ザ･モール郡山店1階フードコート内",
      "lat": 37.398470158,
      "lng": 140.371911775,
      "geocoding_level": 8,
      "phone": "024-924-3233",
      "license_no": "",
      "license_date": "2020-05-13",
      "expire_date": null
    },
    {
      "name": "ロダン",
      "name_kana": "",
      "business_type": "飲食店営業",
      "address": "郡山市朝日二丁目19-26 あさひ1番街13号棟",
      "lat": 37.40382231400001,
      "lng": 140.360127636,
      "geocoding_level": 8,
      "phone": "024-933-9677",
      "license_no": "",
      "license_date": "2020-05-14",
      "expire_date": null
    },
    {
      "name": "肉と野菜の農家イタリアン～Ａｒｉｇａｔｏ～",
      "name_kana": "",
      "business_type": "食肉販売業",
      "address": "郡山市安積四丁目35　1F",
      "lat": 37.352891,
      "lng": 140.364022,
      "geocoding_level": 3,
      "phone": "024-983-9678",
      "license_no": "",
      "license_date": "2020-05-14",
      "expire_date": null
    },
    {
      "name": "ホテル マラケシュ",
      "name_kana": "",
      "business_type": "飲食店営業",
      "address": "郡山市富田町字久根下18-1",
      "lat": 37.427298928,
      "lng": 140.342594147,
      "geocoding_level": 8,
      "phone": "024-962-7510",
      "license_no": "",
      "license_date": "2020-05-15",
      "expire_date": null
    },
    {
      "name": "マルエーハンズ",
      "name_kana": "",
      "business_type": "飲食店営業",
      "address": "郡山市並木一丁目4-8",
      "lat": 37.409843,
      "lng": 140.363497,
      "geocoding_level": 3,
      "phone": "024-932-2593",
      "license_no": "",
      "license_date": "2020-05-15",
      "expire_date": null
    },
    {
      "name": "マルエーハンズ",
      "name_kana": "",
      "business_type": "魚介類販売業",
      "address": "郡山市並木一丁目4-8",
      "lat": 37.409843,
      "lng": 140.363497,
      "geocoding_level": 3,
      "phone": "024-932-2593",
      "license_no": "",
      "license_date": "2020-05-15",
      "expire_date": null
    },
    {
      "name": "ラーメン比内亭",
      "name_kana": "",
      "business_type": "飲食店営業",
      "address": "郡山市喜久田町字菖蒲池22-137",
      "lat": 37.43664883,
      "lng": 140.335273002,
      "geocoding_level": 8,
      "phone": "－",
      "license_no": "",
      "license_date": "2020-05-15",
      "expire_date": null
    },
    {
      "name": "ＳＥＣＲＥＴ",
      "name_kana": "",
      "business_type": "飲食店営業",
      "address": "郡山市朝日二丁目19-21 朝日1番街1号棟",
      "lat": 37.404078744,
      "lng": 140.359762494,
      "geocoding_level": 8,
      "phone": "024-983-9391",
      "license_no": "",
      "license_date": "2020-05-18",
      "expire_date": null
    },
    {
      "name": "メフォス 51429号店Ａ",
      "name_kana": "",
      "business_type": "飲食店営業",
      "address": "郡山市字上亀田1-1",
      "lat": 37.408429501,
      "lng": 140.345718246,
      "geocoding_level": 8,
      "phone": "024-934-1246",
      "license_no": "",
      "license_date": "2020-05-18",
      "expire_date": null
    },
    {
      "name": "和牛ホルモン文吾商店",
      "name_kana": "",
      "business_type": "食肉販売業",
      "address": "郡山市開成六丁目47-1",
      "lat": 37.38782,
      "lng": 140.351511,
      "geocoding_level": 3,
      "phone": "024-973-7075",
      "license_no": "",
      "license_date": "2020-05-19",
      "expire_date": null
    },
    {
      "name": "セブン－イレブン郡山富久山福原店",
      "name_kana": "",
      "business_type": "飲食店営業",
      "address": "郡山市富久山町福原字陣場148-1",
      "lat": 37.420373946,
      "lng": 140.406471095,
      "geocoding_level": 8,
      "phone": "024-935-1515",
      "license_no": "",
      "license_date": "2020-05-20",
      "expire_date": null
    },
    {
      "name": "築地銀だこ　ザ・モール郡山店",
      "name_kana": "",
      "business_type": "飲食店営業",
      "address": "郡山市長者一丁目1-56 ザ・モール郡山内",
      "lat": 37.398470158,
      "lng": 140.371911775,
      "geocoding_level": 8,
      "phone": "024-991-8131",
      "license_no": "",
      "license_date": "2020-05-20",
      "expire_date": null
    },
    {
      "name": "築地銀だこ　ザ・モール郡山店",
      "name_kana": "",
      "business_type": "菓子製造業",
      "address": "郡山市長者一丁目1-56 ザ・モール郡山内",
      "lat": 37.398470158,
      "lng": 140.371911775,
      "geocoding_level": 8,
      "phone": "024-991-8131",
      "license_no": "",
      "license_date": "2020-05-20",
      "expire_date": null
    },
    {
      "name": "セブン‐イレブン郡山富田店",
      "name_kana": "",
      "business_type": "飲食店営業",
      "address": "郡山市富田町字下赤沼10-1",
      "lat": 37.422924922,
      "lng": 140.35096441100004,
      "geocoding_level": 8,
      "phone": "024-951-4448",
      "license_no": "",
      "license_date": "2020-05-21",
      "expire_date": null
    },
    {
      "name": "大昇楼",
      "name_kana": "",
      "business_type": "飲食店営業",
      "address": "郡山市備前舘二丁目1",
      "lat": 37.415274248,
      "lng": 140.361698938,
      "geocoding_level": 8,
      "phone": "024-933-9651",
      "license_no": "",
      "license_date": "2020-05-25",
      "expire_date": null
    },
    {
      "name": "あずさ",
      "name_kana": "",
      "business_type": "飲食店営業",
      "address": "郡山市駅前一丁目1-12 エクセレントビル 402",
      "lat": 37.396488997,
      "lng": 140.385723561,
      "geocoding_level": 8,
      "phone": "024-935-7220",
      "license_no": "",
      "license_date": "2020-05-26",
      "expire_date": null
    },
    {
      "name": "ローソン郡山西田町店",
      "name_kana": "",
      "business_type": "飲食店営業",
      "address": "郡山市西田町三町目字桜内270-1",
      "lat": 37.456155565,
      "lng": 140.440446254,
      "geocoding_level": 8,
      "phone": "024-972-2870",
      "license_no": "",
      "license_date": "2020-05-27",
      "expire_date": null
    },
    {
      "name": "ＬＯＣＡＬ",
      "name_kana": "",
      "business_type": "飲食店営業",
      "address": "郡山市堤二丁目20　堤ビル5号",
      "lat": 37.397356,
      "lng": 140.335866,
      "geocoding_level": 3,
      "phone": "024-953-5447",
      "license_no": "",
      "license_date": "2020-05-27",
      "expire_date": null
    },
    {
      "name": "小波",
      "name_kana": "",
      "business_type": "飲食店営業",
      "address": "郡山市朝日二丁目4-14",
      "lat": 37.405382214,
      "lng": 140.362121403,
      "geocoding_level": 8,
      "phone": "024-933-0877",
      "license_no": "",
      "license_date": "2020-05-27",
      "expire_date": null
    },
    {
      "name": "ヒロイン",
      "name_kana": "",
      "business_type": "飲食店営業",
      "address": "郡山市朝日二丁目12-3 Ｉ棟",
      "lat": 37.403741592,
      "lng": 140.36020875,
      "geocoding_level": 8,
      "phone": "024-932-3018",
      "license_no": "",
      "license_date": "2020-05-28",
      "expire_date": null
    },
    {
      "name": "Petit Green",
      "name_kana": "",
      "business_type": "菓子製造業",
      "address": "郡山市駅前二丁目6-4 富士館ビル１F",
      "lat": 37.399210922,
      "lng": 140.386630842,
      "geocoding_level": 8,
      "phone": "024-934-8899",
      "license_no": "",
      "license_date": "2020-06-01",
      "expire_date": null
    },
    {
      "name": "Ｎｏｒｔｈ Ｃａｆｆｅ",
      "name_kana": "",
      "business_type": "飲食店営業",
      "address": "郡山市麓山一丁目3-1",
      "lat": 37.393269292,
      "lng": 140.377040022,
      "geocoding_level": 8,
      "phone": "024-931-5120",
      "license_no": "",
      "license_date": "2020-06-02",
      "expire_date": null
    },
    {
      "name": "モスバーガー郡山富久山店",
      "name_kana": "",
      "business_type": "飲食店営業",
      "address": "郡山市富久山町久保田字太郎殿前2-18",
      "lat": 37.407967673,
      "lng": 140.398100105,
      "geocoding_level": 8,
      "phone": "024-943-2030",
      "license_no": "",
      "license_date": "2020-06-03",
      "expire_date": null
    },
    {
      "name": "ティアリス",
      "name_kana": "",
      "business_type": "飲食店営業",
      "address": "郡山市堤二丁目200 モールオブコスモス2F",
      "lat": 37.397356,
      "lng": 140.335866,
      "geocoding_level": 3,
      "phone": "024-966-2228",
      "license_no": "",
      "license_date": "2020-06-03",
      "expire_date": null
    },
    {
      "name": "たまのや こころ斎苑 久留米",
      "name_kana": "",
      "business_type": "飲食店営業",
      "address": "郡山市久留米二丁目72",
      "lat": 37.378062,
      "lng": 140.359152,
      "geocoding_level": 3,
      "phone": "024-937-1661",
      "license_no": "",
      "license_date": "2020-06-04",
      "expire_date": null
    },
    {
      "name": "（有）ベーカリー・チロル",
      "name_kana": "",
      "business_type": "飲食店営業",
      "address": "郡山市菜根一丁目24-11",
      "lat": 37.388131147,
      "lng": 140.361719944,
      "geocoding_level": 8,
      "phone": "024-922-2912",
      "license_no": "",
      "license_date": "2020-06-04",
      "expire_date": null
    },
    {
      "name": "（有）ベーカリー・チロル",
      "name_kana": "",
      "business_type": "菓子製造業",
      "address": "郡山市菜根一丁目24-11",
      "lat": 37.388131147,
      "lng": 140.361719944,
      "geocoding_level": 8,
      "phone": "024-922-2912",
      "license_no": "",
      "license_date": "2020-06-04",
      "expire_date": null
    },
    {
      "name": "伝説のすた丼屋　郡山安積店",
      "name_kana": "",
      "business_type": "飲食店営業",
      "address": "郡山市安積町荒井字外川原21-1",
      "lat": 37.400455,
      "lng": 140.35965,
      "geocoding_level": 2,
      "phone": "024-983-8503",
      "license_no": "",
      "license_date": "2020-06-05",
      "expire_date": null
    },
    {
      "name": "キッチン 杉の子",
      "name_kana": "",
      "business_type": "飲食店営業",
      "address": "郡山市桑野三丁目11-16 岡部第一ビル101",
      "lat": 37.405847211,
      "lng": 140.357148325,
      "geocoding_level": 8,
      "phone": "024-925-2886",
      "license_no": "",
      "license_date": "2020-06-08",
      "expire_date": null
    },
    {
      "name": "セブン‐イレブン郡山桑野３丁目店",
      "name_kana": "",
      "business_type": "飲食店営業",
      "address": "郡山市桑野三丁目20-22",
      "lat": 37.406657211,
      "lng": 140.3505745,
      "geocoding_level": 8,
      "phone": "024-934-6400",
      "license_no": "",
      "license_date": "2020-06-08",
      "expire_date": null
    },
    {
      "name": "ユーパロ室ノ木保育園 給食",
      "name_kana": "",
      "business_type": "飲食店営業",
      "address": "郡山市大槻町字室ノ木30 ユーパロ室ノ木保育園",
      "lat": 37.400455,
      "lng": 140.35965,
      "geocoding_level": 2,
      "phone": "024-926-0600",
      "license_no": "",
      "license_date": "2020-06-08",
      "expire_date": null
    },
    {
      "name": "オード・ビ",
      "name_kana": "",
      "business_type": "飲食店営業",
      "address": "郡山市駅前一丁目3-8　クエストⅡビル2F 203",
      "lat": 37.396978764,
      "lng": 140.385733586,
      "geocoding_level": 8,
      "phone": "024-935-1347",
      "license_no": "",
      "license_date": "2020-06-09",
      "expire_date": null
    },
    {
      "name": "ドトールコーヒーショップ郡山富久山店",
      "name_kana": "",
      "business_type": "飲食店営業",
      "address": "郡山市富久山町八山田字大森新田36-1",
      "lat": 37.400455,
      "lng": 140.35965,
      "geocoding_level": 2,
      "phone": "024-936-2240",
      "license_no": "",
      "license_date": "2020-06-09",
      "expire_date": null
    },
    {
      "name": "アルトルイズム郡山セントラルキッチン",
      "name_kana": "",
      "business_type": "麺類製造業",
      "address": "郡山市富久山町久保田字宮田27-1",
      "lat": 37.409325054,
      "lng": 140.402023923,
      "geocoding_level": 8,
      "phone": "－",
      "license_no": "",
      "license_date": "2020-06-09",
      "expire_date": null
    },
    {
      "name": "郡山温泉",
      "name_kana": "",
      "business_type": "飲食店営業",
      "address": "郡山市大槻町字西勝ノ木67-1",
      "lat": 37.392370905,
      "lng": 140.309455394,
      "geocoding_level": 8,
      "phone": "024-951-1231",
      "license_no": "",
      "license_date": "2020-06-09",
      "expire_date": null
    },
    {
      "name": "ジョリーパスタ郡山富田店",
      "name_kana": "",
      "business_type": "飲食店営業",
      "address": "郡山市備前舘二丁目107",
      "lat": 37.417491325,
      "lng": 140.361592018,
      "geocoding_level": 8,
      "phone": "024-983-5959",
      "license_no": "",
      "license_date": "2020-06-09",
      "expire_date": null
    },
    {
      "name": "DINING　肉衛門",
      "name_kana": "",
      "business_type": "飲食店営業",
      "address": "郡山市朝日二丁目19-19　ロイヤル朝日C号",
      "lat": 37.404026433,
      "lng": 140.359463808,
      "geocoding_level": 8,
      "phone": "024-983-7091",
      "license_no": "",
      "license_date": "2020-06-11",
      "expire_date": null
    },
    {
      "name": "ヤナギ屋菓子店",
      "name_kana": "",
      "business_type": "飲食店営業",
      "address": "郡山市開成四丁目1-21",
      "lat": 37.3926828,
      "lng": 140.356279244,
      "geocoding_level": 8,
      "phone": "024-932-1291",
      "license_no": "",
      "license_date": "2020-06-12",
      "expire_date": null
    },
    {
      "name": "ヤナギ屋菓子店",
      "name_kana": "",
      "business_type": "菓子製造業",
      "address": "郡山市開成四丁目1-21",
      "lat": 37.3926828,
      "lng": 140.356279244,
      "geocoding_level": 8,
      "phone": "024-932-1291",
      "license_no": "",
      "license_date": "2020-06-12",
      "expire_date": null
    },
    {
      "name": "ジョージア",
      "name_kana": "",
      "business_type": "飲食店営業",
      "address": "郡山市駅前二丁目7-16　第３増子ビル　１F",
      "lat": 37.398967489,
      "lng": 140.386469569,
      "geocoding_level": 8,
      "phone": "024-933-6966",
      "license_no": "",
      "license_date": "2020-06-12",
      "expire_date": null
    },
    {
      "name": "ラ－メンショップ",
      "name_kana": "",
      "business_type": "飲食店営業",
      "address": "郡山市島二丁目42-20",
      "lat": 37.398006497,
      "lng": 140.344507581,
      "geocoding_level": 8,
      "phone": "024-924-1447",
      "license_no": "",
      "license_date": "2020-06-12",
      "expire_date": null
    },
    {
      "name": "蕎麦切り あなざわ",
      "name_kana": "",
      "business_type": "飲食店営業",
      "address": "郡山市静町37-13",
      "lat": 37.385615733,
      "lng": 140.33591149700004,
      "geocoding_level": 8,
      "phone": "024-954-6363",
      "license_no": "",
      "license_date": "2020-06-15",
      "expire_date": null
    },
    {
      "name": "開成茶屋",
      "name_kana": "",
      "business_type": "飲食店営業",
      "address": "郡山市開成三丁目5-2",
      "lat": 37.395569317,
      "lng": 140.354621797,
      "geocoding_level": 8,
      "phone": "024-923-3532",
      "license_no": "",
      "license_date": "2020-06-15",
      "expire_date": null
    },
    {
      "name": "デリカツネヒロ",
      "name_kana": "",
      "business_type": "飲食店営業",
      "address": "郡山市桑野四丁目4-51",
      "lat": 37.408028,
      "lng": 140.353489,
      "geocoding_level": 3,
      "phone": "024-924-0922",
      "license_no": "",
      "license_date": "2020-06-15",
      "expire_date": null
    },
    {
      "name": "デリカツネヒロ",
      "name_kana": "",
      "business_type": "食肉販売業",
      "address": "郡山市桑野四丁目4-51",
      "lat": 37.408028,
      "lng": 140.353489,
      "geocoding_level": 3,
      "phone": "024-924-0922",
      "license_no": "",
      "license_date": "2020-06-15",
      "expire_date": null
    },
    {
      "name": "有限会社鈴木精肉店",
      "name_kana": "",
      "business_type": "飲食店営業",
      "address": "郡山市開成五丁目2-24",
      "lat": 37.392501303,
      "lng": 140.354186503,
      "geocoding_level": 8,
      "phone": "024-922-1606",
      "license_no": "",
      "license_date": "2020-06-15",
      "expire_date": null
    },
    {
      "name": "有限会社鈴木精肉店",
      "name_kana": "",
      "business_type": "食肉販売業",
      "address": "郡山市開成五丁目2-24",
      "lat": 37.392501303,
      "lng": 140.354186503,
      "geocoding_level": 8,
      "phone": "024-922-1606",
      "license_no": "",
      "license_date": "2020-06-15",
      "expire_date": null
    },
    {
      "name": "旅館源平",
      "name_kana": "",
      "business_type": "飲食店営業",
      "address": "郡山市開成三丁目4-3",
      "lat": 37.396131317,
      "lng": 140.354505508,
      "geocoding_level": 8,
      "phone": "024-922-2496",
      "license_no": "",
      "license_date": "2020-06-15",
      "expire_date": null
    },
    {
      "name": "焼とり 一品料理 よし丸",
      "name_kana": "",
      "business_type": "飲食店営業",
      "address": "郡山市桑野二丁目9-1",
      "lat": 37.403199125,
      "lng": 140.357038503,
      "geocoding_level": 8,
      "phone": "024-934-4060",
      "license_no": "",
      "license_date": "2020-06-15",
      "expire_date": null
    },
    {
      "name": "菜々家 郡山南店",
      "name_kana": "",
      "business_type": "飲食店営業",
      "address": "郡山市南一丁目77",
      "lat": 37.371844516,
      "lng": 140.372641988,
      "geocoding_level": 8,
      "phone": "024-947-7771",
      "license_no": "",
      "license_date": "2020-06-15",
      "expire_date": null
    },
    {
      "name": "芙蓉茶寮",
      "name_kana": "",
      "business_type": "飲食店営業",
      "address": "郡山市開成二丁目38-13 冨士大石寺顕正会郡山会館内",
      "lat": 37.39512865,
      "lng": 140.354809514,
      "geocoding_level": 8,
      "phone": "024-927-7731",
      "license_no": "",
      "license_date": "2020-06-16",
      "expire_date": null
    },
    {
      "name": "イタリアンカフェ スタジョーネ",
      "name_kana": "",
      "business_type": "飲食店営業",
      "address": "郡山市台新二丁目22-12",
      "lat": 37.390587922,
      "lng": 140.343230339,
      "geocoding_level": 8,
      "phone": "024-935-7192",
      "license_no": "",
      "license_date": "2020-06-16",
      "expire_date": null
    },
    {
      "name": "株式会社熊田水産",
      "name_kana": "",
      "business_type": "そうざい製造業",
      "address": "郡山市逢瀬町河内字山田47",
      "lat": 37.400455,
      "lng": 140.35965,
      "geocoding_level": 2,
      "phone": "024-957-2002",
      "license_no": "",
      "license_date": "2020-06-16",
      "expire_date": null
    },
    {
      "name": "ファミリーマート郡山台新二丁目店",
      "name_kana": "",
      "business_type": "飲食店営業",
      "address": "郡山市台新二丁目10-17",
      "lat": 37.391645272,
      "lng": 140.346501242,
      "geocoding_level": 8,
      "phone": "024-927-1810",
      "license_no": "",
      "license_date": "2020-06-16",
      "expire_date": null
    },
    {
      "name": "ヨークベニマルコスモス通り店",
      "name_kana": "",
      "business_type": "魚介類販売業",
      "address": "郡山市御前南六丁目3",
      "lat": 37.386179564,
      "lng": 140.331834145,
      "geocoding_level": 8,
      "phone": "024-962-4911",
      "license_no": "",
      "license_date": "2020-06-16",
      "expire_date": null
    },
    {
      "name": "ヨークベニマルコスモス通り店",
      "name_kana": "",
      "business_type": "食肉販売業",
      "address": "郡山市御前南六丁目3",
      "lat": 37.386179564,
      "lng": 140.331834145,
      "geocoding_level": 8,
      "phone": "024-962-4911",
      "license_no": "",
      "license_date": "2020-06-16",
      "expire_date": null
    },
    {
      "name": "富士産業㈱特別養護老人ホームおおつき事業所",
      "name_kana": "",
      "business_type": "飲食店営業",
      "address": "郡山市大槻町字西勝ノ木5-1",
      "lat": 37.393080118,
      "lng": 140.305728813,
      "geocoding_level": 8,
      "phone": "024-952-3610",
      "license_no": "",
      "license_date": "2020-06-16",
      "expire_date": null
    },
    {
      "name": "ローソン郡山日和田店",
      "name_kana": "",
      "business_type": "飲食店営業",
      "address": "郡山市日和田町字千峯坦66-3",
      "lat": 37.437514419,
      "lng": 140.384685145,
      "geocoding_level": 8,
      "phone": "024-953-4117",
      "license_no": "",
      "license_date": "2020-06-17",
      "expire_date": null
    },
    {
      "name": "ローソン郡山日和田店",
      "name_kana": "",
      "business_type": "菓子製造業",
      "address": "郡山市日和田町字千峯坦66-3",
      "lat": 37.437514419,
      "lng": 140.384685145,
      "geocoding_level": 8,
      "phone": "024-953-4117",
      "license_no": "",
      "license_date": "2020-06-17",
      "expire_date": null
    },
    {
      "name": "（有）石水",
      "name_kana": "",
      "business_type": "飲食店営業",
      "address": "郡山市字山崎305-102",
      "lat": 37.382192612,
      "lng": 140.361420267,
      "geocoding_level": 8,
      "phone": "024-922-7657",
      "license_no": "",
      "license_date": "2020-06-17",
      "expire_date": null
    },
    {
      "name": "Vante Reine",
      "name_kana": "",
      "business_type": "飲食店営業",
      "address": "郡山市駅前一丁目4-18　オーパス10ビル　3F",
      "lat": 37.39725857500001,
      "lng": 140.385117,
      "geocoding_level": 8,
      "phone": "－",
      "license_no": "",
      "license_date": "2020-06-18",
      "expire_date": null
    },
    {
      "name": "フルラージュ本店",
      "name_kana": "",
      "business_type": "菓子製造業",
      "address": "郡山市桑野一丁目8-12",
      "lat": 37.401596842,
      "lng": 140.355612522,
      "geocoding_level": 8,
      "phone": "024-925-9336",
      "license_no": "",
      "license_date": "2020-06-18",
      "expire_date": null
    },
    {
      "name": "フルラージュ本店",
      "name_kana": "",
      "business_type": "喫茶店営業",
      "address": "郡山市桑野一丁目8-12",
      "lat": 37.401596842,
      "lng": 140.355612522,
      "geocoding_level": 8,
      "phone": "024-925-9336",
      "license_no": "",
      "license_date": "2020-06-18",
      "expire_date": null
    },