{
  "meta": {
    "updated": 1783906731,
    "sources": [
      {
        "source": "鹿児島県 鹿児島県食品営業許可施設一覧",
        "license": "Creative Commons Attribution 4.0 International"
      },
      {
        "source": "福岡市 福岡市　飲食店営業等営業許可施設一覧",
        "license": "Creative Commons Attribution"
      }
    ]
  },
  "data": [
    {
      "name": "宮脇　卓也",
      "name_kana": "",
      "business_type": "飲食店営業（その他）",
      "address": "福岡市西区徳永北３－３４－３０２ （鹿児島市を除く鹿児島県内一円）",
      "lat": 33.575124,
      "lng": 130.257663,
      "geocoding_level": 3,
      "phone": "",
      "license_no": "第034-000617号",
      "license_date": null,
      "expire_date": "2027-10-31"
    },
    {
      "name": "Ｑｕｉｃｋｔｅａイオン伊都店",
      "name_kana": "",
      "business_type": "飲食店営業",
      "address": "福岡市西区北原一丁目２番１号",
      "lat": 33.577955423,
      "lng": 130.259356535,
      "geocoding_level": 8,
      "phone": "092-836-7977",
      "license_no": "",
      "license_date": null,
      "expire_date": "2026-06-30"
    },
    {
      "name": "スーパーサングリンパンスタジオ",
      "name_kana": "",
      "business_type": "飲食店営業",
      "address": "福岡市西区下山門団地４０番２号",
      "lat": 33.578294,
      "lng": 130.306659,
      "geocoding_level": 3,
      "phone": "092-891-4305",
      "license_no": "",
      "license_date": null,
      "expire_date": "2026-06-30"
    },
    {
      "name": "豊前中津とよからあげ　姪浜店",
      "name_kana": "",
      "business_type": "飲食店営業",
      "address": "福岡市西区姪浜駅南二丁目１９番２２号",
      "lat": 33.579676979,
      "lng": 130.323537087,
      "geocoding_level": 8,
      "phone": "092-892-6677",
      "license_no": "",
      "license_date": null,
      "expire_date": "2026-06-30"
    },
    {
      "name": "豊前中津とよからあげ　姪浜店",
      "name_kana": "",
      "business_type": "そうざい製造業",
      "address": "福岡市西区姪浜駅南二丁目１９番２２号",
      "lat": 33.579676979,
      "lng": 130.323537087,
      "geocoding_level": 8,
      "phone": "092-892-6677",
      "license_no": "",
      "license_date": null,
      "expire_date": "2026-06-30"
    },
    {
      "name": "ＭＥＧＡドン・キホーテ福重店　惣菜作業室",
      "name_kana": "",
      "business_type": "飲食店営業",
      "address": "福岡市西区拾六町一丁目７番１号",
      "lat": 33.567913162,
      "lng": 130.315274772,
      "geocoding_level": 8,
      "phone": "092-884-8011",
      "license_no": "",
      "license_date": null,
      "expire_date": "2026-06-30"
    },
    {
      "name": "ＭＥＧＡドン・キホーテ福重店　米飯作業室",
      "name_kana": "",
      "business_type": "飲食店営業",
      "address": "福岡市西区拾六町一丁目７番１号",
      "lat": 33.567913162,
      "lng": 130.315274772,
      "geocoding_level": 8,
      "phone": "092-884-8011",
      "license_no": "",
      "license_date": null,
      "expire_date": "2026-06-30"
    },
    {
      "name": "さくら食堂",
      "name_kana": "",
      "business_type": "飲食店営業",
      "address": "福岡市西区生の松原三丁目１８番８号",
      "lat": 33.576756868,
      "lng": 130.297662936,
      "geocoding_level": 8,
      "phone": "092-881-1331",
      "license_no": "",
      "license_date": null,
      "expire_date": "2026-06-30"
    },
    {
      "name": "食堂　はちきん",
      "name_kana": "",
      "business_type": "飲食店営業",
      "address": "福岡市西区壱岐団地１３７番２号",
      "lat": 33.559814,
      "lng": 130.315508,
      "geocoding_level": 3,
      "phone": "092-812-0789",
      "license_no": "",
      "license_date": null,
      "expire_date": "2026-06-30"
    },
    {
      "name": "焼肉　清香園",
      "name_kana": "",
      "business_type": "食肉販売業",
      "address": "福岡市西区下山門三丁目１番１６号",
      "lat": 33.579093329,
      "lng": 130.31510165,
      "geocoding_level": 8,
      "phone": "092-881-1380",
      "license_no": "",
      "license_date": null,
      "expire_date": "2026-06-30"
    },
    {
      "name": "ワンカルビ九大学研都市駅前店",
      "name_kana": "",
      "business_type": "食肉販売業",
      "address": "福岡市西区西都一丁目９番３６号",
      "lat": 33.579056453,
      "lng": 130.26138338,
      "geocoding_level": 8,
      "phone": "092-805-4129",
      "license_no": "",
      "license_date": null,
      "expire_date": "2026-06-30"
    },
    {
      "name": "筑前高校食堂",
      "name_kana": "",
      "business_type": "飲食店営業",
      "address": "福岡市西区千里１１１番地１",
      "lat": 33.562309,
      "lng": 130.243392,
      "geocoding_level": 3,
      "phone": "092-807-0611",
      "license_no": "",
      "license_date": null,
      "expire_date": "2026-06-30"
    },
    {
      "name": "大地のうどん　本店",
      "name_kana": "",
      "business_type": "飲食店営業",
      "address": "福岡市西区上山門二丁目１番１８号",
      "lat": 33.574971595,
      "lng": 130.303959274,
      "geocoding_level": 8,
      "phone": "092-891-6040",
      "license_no": "",
      "license_date": null,
      "expire_date": "2026-06-30"
    },
    {
      "name": "ローソン福岡姪浜駅前店",
      "name_kana": "",
      "business_type": "飲食店営業",
      "address": "福岡市西区姪浜駅南一丁目５番７号",
      "lat": 33.582465388,
      "lng": 130.325225562,
      "geocoding_level": 8,
      "phone": "092-885-2188",
      "license_no": "",
      "license_date": null,
      "expire_date": "2026-06-30"
    },
    {
      "name": "ジョルコアコーヒー",
      "name_kana": "",
      "business_type": "飲食店営業",
      "address": "福岡市西区今宿三丁目２２番３号 １Ｆ",
      "lat": 33.580910911,
      "lng": 130.270886788,
      "geocoding_level": 8,
      "phone": "092-807-5234",
      "license_no": "",
      "license_date": null,
      "expire_date": "2026-06-30"
    },
    {
      "name": "石蔵　姪浜店",
      "name_kana": "",
      "business_type": "飲食店営業",
      "address": "福岡市西区内浜一丁目１５番５号",
      "lat": 33.57863591,
      "lng": 130.323201156,
      "geocoding_level": 8,
      "phone": "092-881-5788",
      "license_no": "",
      "license_date": null,
      "expire_date": "2026-06-30"
    },
    {
      "name": "㈲平野豆富製造所",
      "name_kana": "",
      "business_type": "豆腐製造業",
      "address": "福岡市西区周船寺二丁目９番６号",
      "lat": 33.573110155,
      "lng": 130.24610305,
      "geocoding_level": 8,
      "phone": "092-806-1114",
      "license_no": "",
      "license_date": null,
      "expire_date": "2026-06-30"
    },
    {
      "name": "佐吉",
      "name_kana": "",
      "business_type": "飲食店営業",
      "address": "福岡市西区石丸三丁目４番５号１Ｆ",
      "lat": 33.575101446,
      "lng": 130.31586435100002,
      "geocoding_level": 8,
      "phone": "092-881-7171",
      "license_no": "",
      "license_date": null,
      "expire_date": "2026-06-30"
    },
    {
      "name": "Ｂａｒ　ＫＯＨＫＩＣＨＩ",
      "name_kana": "",
      "business_type": "飲食店営業",
      "address": "福岡市西区周船寺一丁目１１番１６号２Ｆ",
      "lat": 33.573361501,
      "lng": 130.243249003,
      "geocoding_level": 8,
      "phone": "092-776-7149",
      "license_no": "",
      "license_date": null,
      "expire_date": "2026-06-30"
    },
    {
      "name": "あこめ",
      "name_kana": "",
      "business_type": "魚介類販売業",
      "address": "福岡市西区愛宕浜四丁目４９番１号",
      "lat": 33.593759,
      "lng": 130.329204,
      "geocoding_level": 3,
      "phone": "092-881-0025",
      "license_no": "",
      "license_date": null,
      "expire_date": "2026-06-30"
    },
    {
      "name": "唐泊漁師直売所",
      "name_kana": "",
      "business_type": "魚介類販売業",
      "address": "福岡市西区小田字池ノ浦地先",
      "lat": 33.629472,
      "lng": 130.21594,
      "geocoding_level": 3,
      "phone": "092-809-2311",
      "license_no": "",
      "license_date": null,
      "expire_date": "2026-06-30"
    },
    {
      "name": "ロイヤルホスト姪浜店",
      "name_kana": "",
      "business_type": "飲食店営業",
      "address": "福岡市西区内浜一丁目７番６号",
      "lat": 33.580252,
      "lng": 130.321438,
      "geocoding_level": 3,
      "phone": "092-881-8899",
      "license_no": "",
      "license_date": null,
      "expire_date": "2026-06-30"
    },
    {
      "name": "ひまわり園",
      "name_kana": "",
      "business_type": "菓子製造業",
      "address": "福岡市西区姪浜駅南四丁目１０番１３号",
      "lat": 33.580769579,
      "lng": 130.330053297,
      "geocoding_level": 8,
      "phone": "092-882-0432",
      "license_no": "",
      "license_date": null,
      "expire_date": "2026-06-30"
    },
    {
      "name": "三菱電機パワーデバイス製作所Ａ２棟",
      "name_kana": "",
      "business_type": "飲食店営業",
      "address": "福岡市西区今宿東一丁目１番１号",
      "lat": 33.575737,
      "lng": 130.274964,
      "geocoding_level": 3,
      "phone": "092-805-3941",
      "license_no": "",
      "license_date": null,
      "expire_date": "2026-06-30"
    },
    {
      "name": "ラーメン大吉",
      "name_kana": "",
      "business_type": "飲食店営業",
      "address": "福岡市西区北原一丁目１８番３号",
      "lat": 33.577326285,
      "lng": 130.25500572,
      "geocoding_level": 8,
      "phone": "092-806-1528",
      "license_no": "",
      "license_date": null,
      "expire_date": "2026-06-30"
    },
    {
      "name": "地産地匠　きしだ",
      "name_kana": "",
      "business_type": "飲食店営業",
      "address": "福岡市西区周船寺一丁目１２番１５号",
      "lat": 33.573442442,
      "lng": 130.24247959,
      "geocoding_level": 8,
      "phone": "092-807-2265",
      "license_no": "",
      "license_date": null,
      "expire_date": "2026-06-30"
    },
    {
      "name": "ＢＡＮＫＳ",
      "name_kana": "",
      "business_type": "飲食店営業",
      "address": "福岡市西区橋本二丁目２７番２号",
      "lat": 33.556601,
      "lng": 130.321465,
      "geocoding_level": 3,
      "phone": "050-5360-4487",
      "license_no": "",
      "license_date": null,
      "expire_date": "2026-06-30"
    },
    {
      "name": "郵便事業株式会社　福岡西支店",
      "name_kana": "",
      "business_type": "喫茶店営業",
      "address": "福岡市西区石丸三丁目２番１１号",
      "lat": 33.573003538,
      "lng": 130.316297061,
      "geocoding_level": 8,
      "phone": "092-891-7295",
      "license_no": "",
      "license_date": null,
      "expire_date": "2026-06-30"
    },
    {
      "name": "カリーカフェ　ユーカリー",
      "name_kana": "",
      "business_type": "飲食店営業",
      "address": "福岡市西区野方一丁目２２番２４号",
      "lat": 33.559392372,
      "lng": 130.311525682,
      "geocoding_level": 8,
      "phone": "092-811-3833",
      "license_no": "",
      "license_date": null,
      "expire_date": "2026-06-30"
    },
    {
      "name": "４５８７事業所",
      "name_kana": "",
      "business_type": "飲食店営業",
      "address": "福岡市西区姪の浜五丁目８番８号",
      "lat": 33.584611101,
      "lng": 130.323760691,
      "geocoding_level": 8,
      "phone": "092-881-1322",
      "license_no": "",
      "license_date": null,
      "expire_date": "2026-06-30"
    },
    {
      "name": "筑豊手羽先唐揚げ専門店　香春ちゃん",
      "name_kana": "",
      "business_type": "飲食店営業",
      "address": "福岡市西区姪の浜四丁目８番１号",
      "lat": 33.585553,
      "lng": 130.325666,
      "geocoding_level": 3,
      "phone": "092-891-8940",
      "license_no": "",
      "license_date": null,
      "expire_date": "2026-06-30"
    },
    {
      "name": "やまごや",
      "name_kana": "",
      "business_type": "飲食店営業",
      "address": "福岡市西区姪の浜四丁目８番１号",
      "lat": 33.585553,
      "lng": 130.325666,
      "geocoding_level": 3,
      "phone": "092-891-8940",
      "license_no": "",
      "license_date": null,
      "expire_date": "2026-06-30"
    },
    {
      "name": "マクドナルド姪浜サニー店",
      "name_kana": "",
      "business_type": "飲食店営業",
      "address": "福岡市西区内浜一丁目７番１６号",
      "lat": 33.580252,
      "lng": 130.321438,
      "geocoding_level": 3,
      "phone": "092-892-1294",
      "license_no": "",
      "license_date": null,
      "expire_date": "2026-06-30"
    },
    {
      "name": "かっちゃん",
      "name_kana": "",
      "business_type": "飲食店営業",
      "address": "福岡市西区姪の浜四丁目１１番２１号",
      "lat": 33.585371362,
      "lng": 130.325566887,
      "geocoding_level": 8,
      "phone": "092-882-5507",
      "license_no": "",
      "license_date": null,
      "expire_date": "2026-06-30"
    },
    {
      "name": "漁師居酒屋つねちゃん",
      "name_kana": "",
      "business_type": "飲食店営業",
      "address": "福岡市西区姪の浜二丁目１４番１７号",
      "lat": 33.588869353,
      "lng": 130.327577599,
      "geocoding_level": 8,
      "phone": "092-885-7557",
      "license_no": "",
      "license_date": null,
      "expire_date": "2026-06-30"
    },
    {
      "name": "ココス福重店",
      "name_kana": "",
      "business_type": "飲食店営業",
      "address": "福岡市西区福重二丁目１番１８－１号",
      "lat": 33.56566,
      "lng": 130.320603,
      "geocoding_level": 3,
      "phone": "092-894-4066",
      "license_no": "",
      "license_date": null,
      "expire_date": "2026-06-30"
    },
    {
      "name": "医療法人和仁会　福岡和仁会病院",
      "name_kana": "",
      "business_type": "飲食店営業",
      "address": "福岡市西区生の松原一丁目３３番１８号",
      "lat": 33.580254032000006,
      "lng": 130.294985226,
      "geocoding_level": 8,
      "phone": "092-891-7621",
      "license_no": "",
      "license_date": null,
      "expire_date": "2026-06-30"
    },
    {
      "name": "ＭＫレストラン姪浜店",
      "name_kana": "",
      "business_type": "飲食店営業",
      "address": "福岡市西区内浜一丁目７番３号",
      "lat": 33.580252,
      "lng": 130.321438,
      "geocoding_level": 3,
      "phone": "092-884-2020",
      "license_no": "",
      "license_date": null,
      "expire_date": "2026-06-30"
    },
    {
      "name": "焼鳥はやて",
      "name_kana": "",
      "business_type": "飲食店営業",
      "address": "福岡市西区今津２１８６番地１２",
      "lat": 33.609809,
      "lng": 130.252145,
      "geocoding_level": 3,
      "phone": "",
      "license_no": "",
      "license_date": null,
      "expire_date": "2026-06-30"
    },
    {
      "name": "第一野の花学園",
      "name_kana": "",
      "business_type": "飲食店営業",
      "address": "福岡市西区今津４８２０番地２",
      "lat": 33.609809,
      "lng": 130.252145,
      "geocoding_level": 3,
      "phone": "",
      "license_no": "",
      "license_date": null,
      "expire_date": "2026-06-30"
    },
    {
      "name": "居酒屋　風",
      "name_kana": "",
      "business_type": "飲食店営業",
      "address": "福岡市西区周船寺一丁目２０番２６号",
      "lat": 33.571229226,
      "lng": 130.243134819,
      "geocoding_level": 8,
      "phone": "092-807-7600",
      "license_no": "",
      "license_date": null,
      "expire_date": "2026-06-30"
    },
    {
      "name": "鸛",
      "name_kana": "",
      "business_type": "飲食店営業",
      "address": "福岡市西区小戸四丁目３番３９－１０１号",
      "lat": 33.5847,
      "lng": 130.316398,
      "geocoding_level": 3,
      "phone": "",
      "license_no": "",
      "license_date": null,
      "expire_date": "2026-06-30"
    },
    {
      "name": "すき家　福岡姪浜店",
      "name_kana": "",
      "business_type": "飲食店営業",
      "address": "福岡市西区姪の浜六丁目２番４号",
      "lat": 33.587684677,
      "lng": 130.32142961,
      "geocoding_level": 8,
      "phone": "092-707-5284",
      "license_no": "",
      "license_date": null,
      "expire_date": "2026-06-30"
    },
    {
      "name": "ホテルマリノアリゾート福岡",
      "name_kana": "",
      "business_type": "飲食店営業",
      "address": "福岡市西区小戸二丁目１２番４３号",
      "lat": 33.595891455,
      "lng": 130.321973735,
      "geocoding_level": 8,
      "phone": "092-895-5511",
      "license_no": "",
      "license_date": null,
      "expire_date": "2026-06-30"
    },
    {
      "name": "味恵",
      "name_kana": "",
      "business_type": "飲食店営業",
      "address": "福岡市西区周船寺三丁目１１番１８号",
      "lat": 33.574785942,
      "lng": 130.250283726,
      "geocoding_level": 8,
      "phone": "092-806-1447",
      "license_no": "",
      "license_date": null,
      "expire_date": "2026-06-30"
    },
    {
      "name": "小料理一二三",
      "name_kana": "",
      "business_type": "飲食店営業",
      "address": "福岡市西区今宿駅前一丁目４番４号",
      "lat": 33.579535272,
      "lng": 130.275000154,
      "geocoding_level": 8,
      "phone": "092-806-7681",
      "license_no": "",
      "license_date": null,
      "expire_date": "2026-06-30"
    },
    {
      "name": "ＭＫレストラン姪浜店",
      "name_kana": "",
      "business_type": "食肉販売業",
      "address": "福岡市西区内浜一丁目７番３号",
      "lat": 33.580252,
      "lng": 130.321438,
      "geocoding_level": 3,
      "phone": "092-884-2020",
      "license_no": "",
      "license_date": null,
      "expire_date": "2026-06-30"
    },
    {
      "name": "イオンマリナタウン店（上海菜館）",
      "name_kana": "",
      "business_type": "飲食店営業",
      "address": "福岡市西区豊浜三丁目１番１０号",
      "lat": 33.58927,
      "lng": 130.333735,
      "geocoding_level": 3,
      "phone": "092-883-4147",
      "license_no": "",
      "license_date": null,
      "expire_date": "2026-06-30"
    },
    {
      "name": "スポーツパブ　ルーゴ",
      "name_kana": "",
      "business_type": "飲食店営業",
      "address": "福岡市西区豊浜一丁目１番２号",
      "lat": 33.587938811,
      "lng": 130.341436473,
      "geocoding_level": 8,
      "phone": "092-885-9777",
      "license_no": "",
      "license_date": null,
      "expire_date": "2026-06-30"
    },
    {
      "name": "ハジメフーズ",
      "name_kana": "",
      "business_type": "めん類製造業",
      "address": "福岡市西区野方六丁目３６番３５号",
      "lat": 33.558377826,
      "lng": 130.305623907,
      "geocoding_level": 8,
      "phone": "",
      "license_no": "",
      "license_date": null,
      "expire_date": "2026-06-30"
    },
    {
      "name": "福岡市交通局姪浜合同事務所内食堂",
      "name_kana": "",
      "business_type": "飲食店営業",
      "address": "福岡市西区姪の浜五丁目９番１号",
      "lat": 33.58412033,
      "lng": 130.323712673,
      "geocoding_level": 8,
      "phone": "092-891-7724",
      "license_no": "",
      "license_date": null,
      "expire_date": "2026-06-30"
    },
    {
      "name": "ＪＡ福岡市調理加工場",
      "name_kana": "",
      "business_type": "そうざい製造業",
      "address": "福岡市西区福重一丁目９番８号",
      "lat": 33.565775387,
      "lng": 130.324597396,
      "geocoding_level": 8,
      "phone": "092-711-2065",
      "license_no": "",
      "license_date": null,
      "expire_date": "2026-06-30"
    },
    {
      "name": "梅の花　西の丘店",
      "name_kana": "",
      "business_type": "飲食店営業",
      "address": "福岡市西区西の丘二丁目１番",
      "lat": 33.566742,
      "lng": 130.299021,
      "geocoding_level": 3,
      "phone": "092-895-5255",
      "license_no": "",
      "license_date": null,
      "expire_date": "2026-06-30"
    },
    {
      "name": "ロンハイズカフェ　伊都店",
      "name_kana": "",
      "business_type": "喫茶店営業",
      "address": "福岡市西区北原一丁目１６番２６号",
      "lat": 33.578828372,
      "lng": 130.254327546,
      "geocoding_level": 8,
      "phone": "092-805-1888",
      "license_no": "",
      "license_date": null,
      "expire_date": "2026-06-30"
    },
    {
      "name": "食べどころ柚ず　伊都店",
      "name_kana": "",
      "business_type": "飲食店営業",
      "address": "福岡市西区北原一丁目１６番２６号",
      "lat": 33.578828372,
      "lng": 130.254327546,
      "geocoding_level": 8,
      "phone": "092-805-1888",
      "license_no": "",
      "license_date": null,
      "expire_date": "2026-06-30"
    },
    {
      "name": "ｐａｔｉｓｓｅｒｉｅ　Ｅｎｐｒｏｃｈａｉｎｅ",
      "name_kana": "",
      "business_type": "菓子製造業",
      "address": "福岡市西区下山門三丁目３番１号",
      "lat": 33.578320393,
      "lng": 130.315274224,
      "geocoding_level": 8,
      "phone": "092-231-0031",
      "license_no": "",
      "license_date": null,
      "expire_date": "2026-06-30"
    },
    {
      "name": "ポムの樹Ｊｒ．木の葉モール橋本店",
      "name_kana": "",
      "business_type": "飲食店営業",
      "address": "福岡市西区橋本二丁目２７番２号",
      "lat": 33.556601,
      "lng": 130.321465,
      "geocoding_level": 3,
      "phone": "092-707-6621",
      "license_no": "",
      "license_date": null,
      "expire_date": "2026-06-30"
    },
    {
      "name": "ミニストップ福岡羽根戸店",
      "name_kana": "",
      "business_type": "飲食店営業",
      "address": "福岡市西区羽根戸３８６番地１",
      "lat": 33.543057,
      "lng": 130.301167,
      "geocoding_level": 3,
      "phone": "092-811-9411",
      "license_no": "",
      "license_date": null,
      "expire_date": "2026-06-30"
    },
    {
      "name": "スナック　ジョーク",
      "name_kana": "",
      "business_type": "飲食店営業",
      "address": "福岡市西区今宿一丁目７番１０号",
      "lat": 33.582138658,
      "lng": 130.270864711,
      "geocoding_level": 8,
      "phone": "092-807-3731",
      "license_no": "",
      "license_date": null,
      "expire_date": "2026-06-30"
    },
    {
      "name": "筑前堀",
      "name_kana": "",
      "business_type": "食肉販売業",
      "address": "福岡市西区今宿上ノ原１２５番地",
      "lat": 33.554374,
      "lng": 130.278802,
      "geocoding_level": 3,
      "phone": "092-806-5655",
      "license_no": "",
      "license_date": null,
      "expire_date": "2026-06-30"
    },
    {
      "name": "筑前堀",
      "name_kana": "",
      "business_type": "菓子製造業",
      "address": "福岡市西区今宿上ノ原１２５番地",
      "lat": 33.554374,
      "lng": 130.278802,
      "geocoding_level": 3,
      "phone": "092-806-5655",
      "license_no": "",
      "license_date": null,
      "expire_date": "2026-06-30"
    },
    {
      "name": "どこここ",
      "name_kana": "",
      "business_type": "飲食店営業",
      "address": "福岡市西区周船寺一丁目１９番１９号",
      "lat": 33.572098771,
      "lng": 130.243129935,
      "geocoding_level": 8,
      "phone": "",
      "license_no": "",
      "license_date": null,
      "expire_date": "2026-06-30"
    },
    {
      "name": "釣船茶屋ざうおバーベキューガーデン",
      "name_kana": "",
      "business_type": "魚介類販売業",
      "address": "福岡市西区小田７９番地６",
      "lat": 33.629472,
      "lng": 130.21594,
      "geocoding_level": 3,
      "phone": "092-809-2668",
      "license_no": "",
      "license_date": null,
      "expire_date": "2026-06-30"
    },
    {
      "name": "りんごの木",
      "name_kana": "",
      "business_type": "飲食店営業",
      "address": "福岡市西区野方一丁目１５番６号",
      "lat": 33.558051409,
      "lng": 130.311499859,
      "geocoding_level": 8,
      "phone": "",
      "license_no": "",
      "license_date": null,
      "expire_date": "2026-06-30"
    },
    {
      "name": "ひがし",
      "name_kana": "",
      "business_type": "そうざい製造業",
      "address": "福岡市西区学園通一丁目２４１３番地",
      "lat": 33.582917,
      "lng": 130.323133,
      "geocoding_level": 2,
      "phone": "092-776-8572",
      "license_no": "",
      "license_date": null,
      "expire_date": "2026-06-30"
    },
    {
      "name": "濵地酒造株式会社",
      "name_kana": "",
      "business_type": "酒類製造業",
      "address": "福岡市西区元岡１４４２番地",
      "lat": 33.591033,
      "lng": 130.221053,
      "geocoding_level": 3,
      "phone": "092-806-1186",
      "license_no": "",
      "license_date": null,
      "expire_date": "2026-06-30"
    },
    {
      "name": "浜地酒造パン工房",
      "name_kana": "",
      "business_type": "菓子製造業",
      "address": "福岡市西区元岡１４４２番地",
      "lat": 33.591033,
      "lng": 130.221053,
      "geocoding_level": 3,
      "phone": "092-806-1186",
      "license_no": "",
      "license_date": null,
      "expire_date": "2026-06-30"
    },
    {
      "name": "中山精肉",
      "name_kana": "",
      "business_type": "食肉販売業",
      "address": "福岡市西区福重三丁目２８番３号",
      "lat": 33.569929238,
      "lng": 130.318487499,
      "geocoding_level": 8,
      "phone": "092-883-7175",
      "license_no": "",
      "license_date": null,
      "expire_date": "2026-06-30"
    },
    {
      "name": "司水産（株）（渚）",
      "name_kana": "",
      "business_type": "魚介類販売業",
      "address": "福岡市西区下山門団地４０番２号",
      "lat": 33.578294,
      "lng": 130.306659,
      "geocoding_level": 3,
      "phone": "092-882-6088",
      "license_no": "",
      "license_date": null,
      "expire_date": "2026-06-30"
    },
    {
      "name": "司水産（株）（渚）",
      "name_kana": "",
      "business_type": "飲食店営業",
      "address": "福岡市西区下山門団地４０番２号",
      "lat": 33.578294,
      "lng": 130.306659,
      "geocoding_level": 3,
      "phone": "092-882-6088",
      "license_no": "",
      "license_date": null,
      "expire_date": "2026-06-30"
    },
    {
      "name": "うおまる",
      "name_kana": "",
      "business_type": "飲食店営業",
      "address": "福岡市西区石丸二丁目５番５号",
      "lat": 33.571775849,
      "lng": 130.318499552,
      "geocoding_level": 8,
      "phone": "092-885-2330",
      "license_no": "",
      "license_date": null,
      "expire_date": "2026-09-30"
    },
    {
      "name": "４７６２９事業所",
      "name_kana": "",
      "business_type": "飲食店営業",
      "address": "福岡市西区今津５４１３番地",
      "lat": 33.609809,
      "lng": 130.252145,
      "geocoding_level": 3,
      "phone": "",
      "license_no": "",
      "license_date": null,
      "expire_date": "2026-09-30"
    },
    {
      "name": "姪浜マルシェ　一路發・甘党屋",
      "name_kana": "",
      "business_type": "飲食店営業",
      "address": "福岡市西区姪の浜四丁目８番１号",
      "lat": 33.585553,
      "lng": 130.325666,
      "geocoding_level": 3,
      "phone": "092-407-5010",
      "license_no": "",
      "license_date": null,
      "expire_date": "2026-09-30"
    },
    {
      "name": "お好み焼　赤坂",
      "name_kana": "",
      "business_type": "飲食店営業",
      "address": "福岡市西区福重三丁目１２番２０号",
      "lat": 33.572707991,
      "lng": 130.322604395,
      "geocoding_level": 8,
      "phone": "092-881-7300",
      "license_no": "",
      "license_date": null,
      "expire_date": "2026-09-30"
    },
    {
      "name": "ミニヨン　姪浜店",
      "name_kana": "",
      "business_type": "菓子製造業",
      "address": "福岡市西区姪の浜四丁目８番１号　姪浜駅構内",
      "lat": 33.585553,
      "lng": 130.325666,
      "geocoding_level": 3,
      "phone": "092-400-0019",
      "license_no": "",
      "license_date": null,
      "expire_date": "2026-09-30"
    },
    {
      "name": "０３ｂｒｅａｄ",
      "name_kana": "",
      "business_type": "菓子製造業",
      "address": "福岡市西区上山門二丁目１４番２５号",
      "lat": 33.573241768,
      "lng": 130.304640375,
      "geocoding_level": 8,
      "phone": "",
      "license_no": "",
      "license_date": null,
      "expire_date": "2026-09-30"
    },
    {
      "name": "生之松原測候所",
      "name_kana": "",
      "business_type": "飲食店営業",
      "address": "福岡市西区生の松原一丁目３４番３５号",
      "lat": 33.580375559,
      "lng": 130.294919594,
      "geocoding_level": 8,
      "phone": "092-707-7597",
      "license_no": "",
      "license_date": null,
      "expire_date": "2026-09-30"
    },
    {
      "name": "ガーデンテラス福岡",
      "name_kana": "",
      "business_type": "飲食店営業",
      "address": "福岡市西区小戸二丁目３番５５号",
      "lat": 33.59436972,
      "lng": 130.318632213,
      "geocoding_level": 8,
      "phone": "",
      "license_no": "",
      "license_date": null,
      "expire_date": "2026-09-30"
    },
    {
      "name": "ラーメン屋　燦",
      "name_kana": "",
      "business_type": "飲食店営業",
      "address": "福岡市西区学園通一丁目２３３１番地３",
      "lat": 33.582917,
      "lng": 130.323133,
      "geocoding_level": 2,
      "phone": "",
      "license_no": "",
      "license_date": null,
      "expire_date": "2026-09-30"
    },
    {
      "name": "お惣菜のあじや",
      "name_kana": "",
      "business_type": "飲食店営業",
      "address": "福岡市西区今宿東一丁目２３番７号",
      "lat": 33.573301906,
      "lng": 130.273572753,
      "geocoding_level": 8,
      "phone": "092-806-9665",
      "license_no": "",
      "license_date": null,
      "expire_date": "2026-09-30"
    },
    {
      "name": "お弁当の大鶴",
      "name_kana": "",
      "business_type": "そうざい製造業",
      "address": "福岡市西区姪の浜四丁目１２番１８号",
      "lat": 33.586025971,
      "lng": 130.325629067,
      "geocoding_level": 8,
      "phone": "092-884-1027",
      "license_no": "",
      "license_date": null,
      "expire_date": "2026-09-30"
    },
    {
      "name": "お弁当の大鶴",
      "name_kana": "",
      "business_type": "菓子製造業",
      "address": "福岡市西区姪の浜四丁目１２番１８号",
      "lat": 33.586025971,
      "lng": 130.325629067,
      "geocoding_level": 8,
      "phone": "092-884-1027",
      "license_no": "",
      "license_date": null,
      "expire_date": "2026-09-30"
    },
    {
      "name": "唐揚げ専門はっぴ商店　下山門店",
      "name_kana": "",
      "business_type": "飲食店営業",
      "address": "福岡市西区上山門一丁目１番１７号",
      "lat": 33.576171206,
      "lng": 130.308734481,
      "geocoding_level": 8,
      "phone": "092-407-8988",
      "license_no": "",
      "license_date": null,
      "expire_date": "2026-09-30"
    },
    {
      "name": "おやつの店　トマト",
      "name_kana": "",
      "business_type": "飲食店営業",
      "address": "福岡市西区今津２１８２番地３",
      "lat": 33.609809,
      "lng": 130.252145,
      "geocoding_level": 3,
      "phone": "",
      "license_no": "",
      "license_date": null,
      "expire_date": "2026-09-30"
    },
    {
      "name": "福岡ハートネット病院",
      "name_kana": "",
      "business_type": "飲食店営業",
      "address": "福岡市西区姪の浜二丁目２番５０号",
      "lat": 33.586634697,
      "lng": 130.331924201,
      "geocoding_level": 8,
      "phone": "092-882-5703",
      "license_no": "",
      "license_date": null,
      "expire_date": "2026-09-30"
    },
    {
      "name": "海凛房",
      "name_kana": "",
      "business_type": "飲食店営業",
      "address": "福岡市西区今津８番地３",
      "lat": 33.609809,
      "lng": 130.252145,
      "geocoding_level": 3,
      "phone": "092-401-0237",
      "license_no": "",
      "license_date": null,
      "expire_date": "2026-09-30"
    },
    {
      "name": "ホルン姪浜店",
      "name_kana": "",
      "business_type": "菓子製造業",
      "address": "福岡市西区内浜一丁目７番１６号",
      "lat": 33.580252,
      "lng": 130.321438,
      "geocoding_level": 3,
      "phone": "092-881-9431",
      "license_no": "",
      "license_date": null,
      "expire_date": "2026-09-30"
    },
    {
      "name": "Ｂａｋｅｒｙ＆Ｓｗｅｅｔｓ　Ｆ",
      "name_kana": "",
      "business_type": "飲食店営業",
      "address": "福岡市西区姪の浜四丁目８番２号",
      "lat": 33.585553,
      "lng": 130.325666,
      "geocoding_level": 3,
      "phone": "092-891-4221",
      "license_no": "",
      "license_date": null,
      "expire_date": "2026-09-30"
    },
    {
      "name": "Ｂａｋｅｒｙ＆Ｓｗｅｅｔｓ　Ｆ",
      "name_kana": "",
      "business_type": "菓子製造業",
      "address": "福岡市西区姪の浜四丁目８番２号",
      "lat": 33.585553,
      "lng": 130.325666,
      "geocoding_level": 3,
      "phone": "092-891-4221",
      "license_no": "",
      "license_date": null,
      "expire_date": "2026-09-30"
    },
    {
      "name": "ハローデイ　姪浜店　精肉",
      "name_kana": "",
      "business_type": "食肉販売業",
      "address": "福岡市西区姪浜駅南二丁目２０番１４号",
      "lat": 33.578286941,
      "lng": 130.323996666,
      "geocoding_level": 8,
      "phone": "092-885-8628",
      "license_no": "",
      "license_date": null,
      "expire_date": "2026-06-24"
    },
    {
      "name": "ハローデイ　姪浜店　デリカ",
      "name_kana": "",
      "business_type": "飲食店営業",
      "address": "福岡市西区姪浜駅南二丁目２０番１４号",
      "lat": 33.578286941,
      "lng": 130.323996666,
      "geocoding_level": 8,
      "phone": "092-885-8628",
      "license_no": "",
      "license_date": null,
      "expire_date": "2026-06-24"
    },
    {
      "name": "ハローデイ　姪浜店　かじや水産",
      "name_kana": "",
      "business_type": "魚介類販売業",
      "address": "福岡市西区姪浜駅南二丁目２０番１４号",
      "lat": 33.578286941,
      "lng": 130.323996666,
      "geocoding_level": 8,
      "phone": "092-885-8628",
      "license_no": "",
      "license_date": null,
      "expire_date": "2026-06-24"
    },
    {
      "name": "ハローデイ　姪浜店　かじや水産",
      "name_kana": "",
      "business_type": "飲食店営業",
      "address": "福岡市西区姪浜駅南二丁目２０番１４号",
      "lat": 33.578286941,
      "lng": 130.323996666,
      "geocoding_level": 8,
      "phone": "092-885-8628",
      "license_no": "",
      "license_date": null,
      "expire_date": "2026-06-24"
    },
    {
      "name": "自遊空間福岡福重店",
      "name_kana": "",
      "business_type": "飲食店営業",
      "address": "福岡市西区福重三丁目３４番６号",
      "lat": 33.568472379,
      "lng": 130.318143722,
      "geocoding_level": 8,
      "phone": "092-892-3024",
      "license_no": "",
      "license_date": null,
      "expire_date": "2026-09-30"
    },
    {
      "name": "セブンイレブン福岡姪浜インター店",
      "name_kana": "",
      "business_type": "飲食店営業",
      "address": "福岡市西区姪浜駅南三丁目１６番１９号",
      "lat": 33.578524993,
      "lng": 130.327395461,
      "geocoding_level": 8,
      "phone": "092-883-0123",
      "license_no": "",
      "license_date": null,
      "expire_date": "2026-09-30"
    },
    {
      "name": "まるちゃんごはん",
      "name_kana": "",
      "business_type": "飲食店営業",
      "address": "福岡市西区内浜一丁目１３番１号",
      "lat": 33.579160187,
      "lng": 130.320625642,
      "geocoding_level": 8,
      "phone": "092-881-9551",
      "license_no": "",
      "license_date": null,
      "expire_date": "2026-09-30"
    },
    {
      "name": "株式会社八仙閣今宿店",
      "name_kana": "",
      "business_type": "飲食店営業",
      "address": "福岡市西区今宿西一丁目２３番５号",
      "lat": 33.573182292,
      "lng": 130.272440511,
      "geocoding_level": 8,
      "phone": "092-805-8418",
      "license_no": "",
      "license_date": null,
      "expire_date": "2026-09-30"
    },
    {
      "name": "濵地酒造株式会社",
      "name_kana": "",
      "business_type": "飲食店営業",
      "address": "福岡市西区元岡１４４２番地",
      "lat": 33.591033,
      "lng": 130.221053,
      "geocoding_level": 3,
      "phone": "092-806-1186",
      "license_no": "",
      "license_date": null,
      "expire_date": "2026-09-30"
    },
    {
      "name": "サニー姪浜",
      "name_kana": "",
      "business_type": "魚介類販売業",
      "address": "福岡市西区内浜一丁目７番１６号",
      "lat": 33.580252,
      "lng": 130.321438,
      "geocoding_level": 3,
      "phone": "092-881-1471",
      "license_no": "",
      "license_date": null,
      "expire_date": "2026-09-30"
    },
    {
      "name": "サカセル　生の松原事業所",
      "name_kana": "",
      "business_type": "菓子製造業",
      "address": "福岡市西区生の松原一丁目１６番１０号",
      "lat": 33.583043407,
      "lng": 130.306505402,
      "geocoding_level": 8,
      "phone": "092-894-1157",
      "license_no": "",
      "license_date": null,
      "expire_date": "2026-09-30"
    },
    {
      "name": "ＨＡＲＢＯＲ　ＨＯＵＳＥ",
      "name_kana": "",
      "business_type": "飲食店営業",
      "address": "福岡市西区小田７９番地６",
      "lat": 33.629472,
      "lng": 130.21594,
      "geocoding_level": 3,
      "phone": "092-809-2668",
      "license_no": "",
      "license_date": null,
      "expire_date": "2026-09-30"
    },
    {
      "name": "魚処もとおか",
      "name_kana": "",
      "business_type": "魚介類販売業",
      "address": "福岡市西区元岡１４２５番地",
      "lat": 33.591033,
      "lng": 130.221053,
      "geocoding_level": 3,
      "phone": "092-806-5667",
      "license_no": "",
      "license_date": null,
      "expire_date": "2026-09-30"
    },
    {
      "name": "西新　初喜　姪浜駅南店",
      "name_kana": "",
      "business_type": "飲食店営業",
      "address": "福岡市西区姪浜駅南二丁目１９番２８号",
      "lat": 33.580031675,
      "lng": 130.323804372,
      "geocoding_level": 8,
      "phone": "092-892-8885",
      "license_no": "",
      "license_date": null,
      "expire_date": "2026-09-30"
    },
    {
      "name": "福岡女子高校食堂",
      "name_kana": "",
      "business_type": "飲食店営業",
      "address": "福岡市西区愛宕浜三丁目２番２号",
      "lat": 33.597133,
      "lng": 130.330062,
      "geocoding_level": 3,
      "phone": "",
      "license_no": "",
      "license_date": null,
      "expire_date": "2026-09-30"
    },
    {
      "name": "Ｑｕｉｃｋｔｅａ",
      "name_kana": "",
      "business_type": "飲食店営業",
      "address": "福岡市西区北原一丁目２番１号",
      "lat": 33.577955423,
      "lng": 130.259356535,
      "geocoding_level": 8,
      "phone": "092-836-7977",
      "license_no": "",
      "license_date": null,
      "expire_date": "2026-09-30"
    },
    {
      "name": "ＭＥＧＡドン・キホーテ福重店（米飯作業室）",
      "name_kana": "",
      "business_type": "菓子製造業",
      "address": "福岡市西区拾六町一丁目７番１号",
      "lat": 33.567913162,
      "lng": 130.315274772,
      "geocoding_level": 8,
      "phone": "092-884-8011",
      "license_no": "",
      "license_date": null,
      "expire_date": "2026-09-30"
    },
    {
      "name": "ＭＫレストラン伊都店",
      "name_kana": "",
      "business_type": "食肉販売業",
      "address": "福岡市西区北原二丁目３番７号",
      "lat": 33.582917,
      "lng": 130.323133,
      "geocoding_level": 2,
      "phone": "092-805-7277",
      "license_no": "",
      "license_date": null,
      "expire_date": "2026-09-30"
    },
    {
      "name": "媽媽美食",
      "name_kana": "",
      "business_type": "飲食店営業",
      "address": "福岡市西区今宿駅前一丁目９番５号",
      "lat": 33.580907149,
      "lng": 130.273491248,
      "geocoding_level": 8,
      "phone": "092-805-5558",
      "license_no": "",
      "license_date": null,
      "expire_date": "2026-09-30"
    },
    {
      "name": "ホテル伊都",
      "name_kana": "",
      "business_type": "飲食店営業",
      "address": "福岡市西区今宿東三丁目３９番６号",
      "lat": 33.573289322,
      "lng": 130.285378016,
      "geocoding_level": 8,
      "phone": "092-807-6722",
      "license_no": "",
      "license_date": null,
      "expire_date": "2026-09-30"
    },
    {
      "name": "ファミリーマート　福岡小戸四丁目店",
      "name_kana": "",
      "business_type": "飲食店営業",
      "address": "福岡市西区小戸四丁目２番３５号",
      "lat": 33.586930625,
      "lng": 130.317297349,
      "geocoding_level": 8,
      "phone": "092-892-3113",
      "license_no": "",
      "license_date": null,
      "expire_date": "2026-09-30"
    },
    {
      "name": "あまおう",
      "name_kana": "",
      "business_type": "飲食店営業",
      "address": "福岡市西区今津１９３７番地１",
      "lat": 33.609809,
      "lng": 130.252145,
      "geocoding_level": 3,
      "phone": "",
      "license_no": "",
      "license_date": null,
      "expire_date": "2026-09-30"
    },
    {
      "name": "福泉餃子",
      "name_kana": "",
      "business_type": "飲食店営業",
      "address": "福岡市西区周船寺三丁目２１番３３号",
      "lat": 33.577315487,
      "lng": 130.252516421,
      "geocoding_level": 8,
      "phone": "092-805-8886",
      "license_no": "",
      "license_date": null,
      "expire_date": "2026-09-30"
    },
    {
      "name": "みどり",
      "name_kana": "",
      "business_type": "菓子製造業",
      "address": "福岡市西区橋本一丁目７番５号",
      "lat": 33.559530755,
      "lng": 130.321739487,
      "geocoding_level": 8,
      "phone": "",
      "license_no": "",
      "license_date": null,
      "expire_date": "2026-09-30"
    },
    {
      "name": "サングリン",
      "name_kana": "",
      "business_type": "飲食店営業",
      "address": "福岡市西区下山門団地４０番２号",
      "lat": 33.578294,
      "lng": 130.306659,
      "geocoding_level": 3,
      "phone": "092-891-4305",
      "license_no": "",
      "license_date": null,
      "expire_date": "2026-09-30"
    },
    {
      "name": "博多からあげ響　野方店",
      "name_kana": "",
      "business_type": "飲食店営業",
      "address": "福岡市西区壱岐団地１０５番１号",
      "lat": 33.559814,
      "lng": 130.315508,
      "geocoding_level": 3,
      "phone": "092-811-5310",
      "license_no": "",
      "license_date": null,
      "expire_date": "2026-09-30"
    },
    {
      "name": "ＫＭ４３４７福岡",
      "name_kana": "",
      "business_type": "飲食店営業",
      "address": "福岡市西区今宿青木１０４０番１６４",
      "lat": 33.570886,
      "lng": 130.28858,
      "geocoding_level": 3,
      "phone": "",
      "license_no": "",
      "license_date": null,
      "expire_date": "2026-09-30"
    },
    {
      "name": "野方幼稚園",
      "name_kana": "",
      "business_type": "飲食店営業",
      "address": "福岡市西区壱岐団地７５番１号",
      "lat": 33.559814,
      "lng": 130.315508,
      "geocoding_level": 3,
      "phone": "092-811-3585",
      "license_no": "",
      "license_date": null,
      "expire_date": "2026-09-30"
    },
    {
      "name": "ゼッテリア　姪浜駅店",
      "name_kana": "",
      "business_type": "飲食店営業",
      "address": "福岡市西区姪の浜四丁目８番２号",
      "lat": 33.585553,
      "lng": 130.325666,
      "geocoding_level": 3,
      "phone": "092-881-6080",
      "license_no": "",
      "license_date": null,
      "expire_date": "2026-09-30"
    },
    {
      "name": "元祖糸島ラーメン銅鑼周船寺店",
      "name_kana": "",
      "business_type": "飲食店営業",
      "address": "福岡市西区周船寺三丁目１８番３５号",
      "lat": 33.576285422,
      "lng": 130.251578286,
      "geocoding_level": 8,
      "phone": "092-983-7817",
      "license_no": "",
      "license_date": null,
      "expire_date": "2026-09-30"
    },
    {
      "name": "町家かふぇ　かまくら",
      "name_kana": "",
      "business_type": "菓子製造業",
      "address": "福岡市西区福重一丁目１３番５号",
      "lat": 33.564525077,
      "lng": 130.323408338,
      "geocoding_level": 8,
      "phone": "",
      "license_no": "",
      "license_date": null,
      "expire_date": "2026-09-30"
    },
    {
      "name": "（株）パワフルライフ　ヘルスケアさわら店",
      "name_kana": "",
      "business_type": "飲食店営業",
      "address": "福岡市西区愛宕四丁目２４番２４号",
      "lat": 33.587868896,
      "lng": 130.332979257,
      "geocoding_level": 8,
      "phone": "092-882-5566",
      "license_no": "",
      "license_date": null,
      "expire_date": "2026-09-30"
    },
    {
      "name": "ＭＯＡｃａｆｅ",
      "name_kana": "",
      "business_type": "飲食店営業",
      "address": "福岡市西区福重二丁目７番２８号",
      "lat": 33.566379135,
      "lng": 130.318177741,
      "geocoding_level": 8,
      "phone": "092-777-1111",
      "license_no": "",
      "license_date": null,
      "expire_date": "2026-09-30"
    },
    {
      "name": "焼肉きんぐ福岡伊都店",
      "name_kana": "",
      "business_type": "飲食店営業",
      "address": "福岡市西区今宿西一丁目２５番５号",
      "lat": 33.572635466,
      "lng": 130.272555124,
      "geocoding_level": 8,
      "phone": "092-834-9929",
      "license_no": "",
      "license_date": null,
      "expire_date": "2026-09-30"
    },
    {
      "name": "串ｃａｆｅたまねぎ",
      "name_kana": "",
      "business_type": "そうざい製造業",
      "address": "福岡市西区愛宕一丁目１５番１８号",
      "lat": 33.58235488,
      "lng": 130.335730775,
      "geocoding_level": 8,
      "phone": "",
      "license_no": "",
      "license_date": null,
      "expire_date": "2026-09-30"
    },
    {
      "name": "串ｃａｆｅたまねぎ",
      "name_kana": "",
      "business_type": "食肉販売業",
      "address": "福岡市西区愛宕一丁目１５番１８号",
      "lat": 33.58235488,
      "lng": 130.335730775,
      "geocoding_level": 8,
      "phone": "",
      "license_no": "",
      "license_date": null,
      "expire_date": "2026-09-30"
    },
    {
      "name": "酔灯屋　姪浜店",
      "name_kana": "",
      "business_type": "飲食店営業",
      "address": "福岡市西区姪の浜四丁目１３番２１号",
      "lat": 33.586855809,
      "lng": 130.325715545,
      "geocoding_level": 8,
      "phone": "",
      "license_no": "",
      "license_date": null,
      "expire_date": "2026-09-30"
    },
    {
      "name": "シアトルズベストコーヒー姪浜店",
      "name_kana": "",
      "business_type": "飲食店営業",
      "address": "福岡市西区姪の浜四丁目８番２号",
      "lat": 33.585553,
      "lng": 130.325666,
      "geocoding_level": 3,
      "phone": "092-836-7075",
      "license_no": "",
      "license_date": null,
      "expire_date": "2026-09-30"
    },
    {
      "name": "アリワ",
      "name_kana": "",
      "business_type": "飲食店営業",
      "address": "福岡市西区小戸三丁目４０番８号",
      "lat": 33.588128098,
      "lng": 130.312795027,
      "geocoding_level": 8,
      "phone": "092-882-8822",
      "license_no": "",
      "license_date": null,
      "expire_date": "2026-09-30"
    },
    {
      "name": "ダーツアンドガールズバー　スローライフ",
      "name_kana": "",
      "business_type": "飲食店営業",
      "address": "福岡市西区周船寺三丁目１２番２号",
      "lat": 33.575007775,
      "lng": 130.250427377,
      "geocoding_level": 8,
      "phone": "092-807-0732",
      "license_no": "",
      "license_date": null,
      "expire_date": "2026-09-30"
    },
    {
      "name": "イトリー・イト",
      "name_kana": "",
      "business_type": "飲食店営業",
      "address": "福岡市西区元岡７４４番地　伊都キャンパス",
      "lat": 33.591033,
      "lng": 130.221053,
      "geocoding_level": 3,
      "phone": "092-807-0270",
      "license_no": "",
      "license_date": null,
      "expire_date": "2026-09-30"
    },
    {
      "name": "居酒屋もっこり",
      "name_kana": "",
      "business_type": "飲食店営業",
      "address": "福岡市西区今宿三丁目２３番３号",
      "lat": 33.57977103,
      "lng": 130.271199153,
      "geocoding_level": 8,
      "phone": "092-807-0286",
      "license_no": "",
      "license_date": null,
      "expire_date": "2026-09-30"
    },
    {
      "name": "西のトラノヤ",
      "name_kana": "",
      "business_type": "飲食店営業",
      "address": "福岡市西区福重五丁目３番６号",
      "lat": 33.574190373,
      "lng": 130.323108594,
      "geocoding_level": 8,
      "phone": "092-231-2530",
      "license_no": "",
      "license_date": null,
      "expire_date": "2026-09-30"
    },
    {
      "name": "めい泉",
      "name_kana": "",
      "business_type": "飲食店営業",
      "address": "福岡市西区千里４１８番地１",
      "lat": 33.562309,
      "lng": 130.243392,
      "geocoding_level": 3,
      "phone": "",
      "license_no": "",
      "license_date": null,
      "expire_date": "2026-09-30"
    },
    {
      "name": "ほっともっと姪浜店",
      "name_kana": "",
      "business_type": "飲食店営業",
      "address": "福岡市西区姪の浜二丁目６番３号",
      "lat": 33.587085662,
      "lng": 130.329700436,
      "geocoding_level": 8,
      "phone": "092-891-3002",
      "license_no": "",
      "license_date": null,
      "expire_date": "2026-09-30"
    },
    {
      "name": "北海道うまいもの館",
      "name_kana": "",
      "business_type": "飲食店営業",
      "address": "福岡市西区小戸二丁目１２番３０号",
      "lat": 33.594804058,
      "lng": 130.322048362,
      "geocoding_level": 8,
      "phone": "092-407-8706",
      "license_no": "",
      "license_date": null,
      "expire_date": "2026-09-30"
    },
    {
      "name": "ＴＲＩＡＬｓｍａｒｔ今宿店",
      "name_kana": "",
      "business_type": "飲食店営業",
      "address": "福岡市西区今宿三丁目４番３６号",
      "lat": 33.581907528,
      "lng": 130.267546822,
      "geocoding_level": 8,
      "phone": "092-805-3199",
      "license_no": "",
      "license_date": null,
      "expire_date": "2026-09-30"
    },
    {
      "name": "ＴＲＩＡＬｓｍａｒｔ今宿店",
      "name_kana": "",
      "business_type": "飲食店営業",
      "address": "福岡市西区今宿三丁目４番３６号",
      "lat": 33.581907528,
      "lng": 130.267546822,
      "geocoding_level": 8,
      "phone": "092-805-3199",
      "license_no": "",
      "license_date": null,
      "expire_date": "2026-12-31"
    },
    {
      "name": "ＴＲＩＡＬｓｍａｒｔ今宿店",
      "name_kana": "",
      "business_type": "魚介類販売業",
      "address": "福岡市西区今宿三丁目４番３６号",
      "lat": 33.581907528,
      "lng": 130.267546822,
      "geocoding_level": 8,
      "phone": "092-805-3199",
      "license_no": "",
      "license_date": null,
      "expire_date": "2026-09-30"
    },
    {
      "name": "ＴＲＩＡＬｓｍａｒｔ今宿店",
      "name_kana": "",
      "business_type": "食肉販売業",
      "address": "福岡市西区今宿三丁目４番３６号",
      "lat": 33.581907528,
      "lng": 130.267546822,
      "geocoding_level": 8,
      "phone": "092-805-3199",
      "license_no": "",
      "license_date": null,
      "expire_date": "2026-09-30"
    },
    {
      "name": "ケンタッキーフライドチキン福岡今宿店",
      "name_kana": "",
      "business_type": "飲食店営業",
      "address": "福岡市西区今宿三丁目４１番３６号",
      "lat": 33.581817599,
      "lng": 130.264031162,
      "geocoding_level": 8,
      "phone": "092-805-1755",
      "license_no": "",
      "license_date": null,
      "expire_date": "2026-12-31"
    },
    {
      "name": "アジアン　レストラン＆バー　Ｙｅｔｉ",
      "name_kana": "",
      "business_type": "飲食店営業",
      "address": "福岡市西区今宿駅前一丁目３番２８－１０２号",
      "lat": 33.580721,
      "lng": 130.277737,
      "geocoding_level": 3,
      "phone": "092-807-5551",
      "license_no": "",
      "license_date": null,
      "expire_date": "2026-12-31"
    },
    {
      "name": "パーラーひまわり",
      "name_kana": "",
      "business_type": "飲食店営業",
      "address": "福岡市西区北原一丁目１３番２０号",
      "lat": 33.580515372,
      "lng": 130.257214836,
      "geocoding_level": 8,
      "phone": "092-807-1113",
      "license_no": "",
      "license_date": null,
      "expire_date": "2026-12-31"
    },
    {
      "name": "有限会社　肉の山本",
      "name_kana": "",
      "business_type": "そうざい製造業",
      "address": "福岡市西区生の松原二丁目７番３号",
      "lat": 33.576588748,
      "lng": 130.303792998,
      "geocoding_level": 8,
      "phone": "092-881-6874",
      "license_no": "",
      "license_date": null,
      "expire_date": "2026-12-31"
    },
    {
      "name": "鮨　囃子",
      "name_kana": "",
      "business_type": "飲食店営業",
      "address": "福岡市西区姪浜駅南一丁目４番１５号",
      "lat": 33.582381396,
      "lng": 130.325465318,
      "geocoding_level": 8,
      "phone": "092-883-1350",
      "license_no": "",
      "license_date": null,
      "expire_date": "2026-12-31"
    },
    {
      "name": "デイリーヤマザキ福岡上山門店",
      "name_kana": "",
      "business_type": "飲食店営業",
      "address": "福岡市西区上山門一丁目２１番８号",
      "lat": 33.572824821,
      "lng": 130.308236067,
      "geocoding_level": 8,
      "phone": "092-884-1651",
      "license_no": "",
      "license_date": null,
      "expire_date": "2026-12-31"
    },
    {
      "name": "デイリーヤマザキ福岡上山門店",
      "name_kana": "",
      "business_type": "菓子製造業",
      "address": "福岡市西区上山門一丁目２１番８号",
      "lat": 33.572824821,
      "lng": 130.308236067,
      "geocoding_level": 8,
      "phone": "092-884-1651",
      "license_no": "",
      "license_date": null,
      "expire_date": "2026-12-31"
    },
    {
      "name": "Ｈｉ－Ｌｏ　ｎｏｃｏ　Ｍａｒｋｅｔ",
      "name_kana": "",
      "business_type": "菓子製造業",
      "address": "福岡市西区能古４５７番地１４号",
      "lat": 33.622845,
      "lng": 130.305936,
      "geocoding_level": 3,
      "phone": "",
      "license_no": "",
      "license_date": null,
      "expire_date": "2026-12-31"
    },
    {
      "name": "うちだ屋姪浜店",
      "name_kana": "",
      "business_type": "飲食店営業",
      "address": "福岡市西区姪浜駅南二丁目１番２４号",
      "lat": 33.58037527,
      "lng": 130.323593031,
      "geocoding_level": 8,
      "phone": "092-891-3033",
      "license_no": "",
      "license_date": null,
      "expire_date": "2026-12-31"
    },
    {
      "name": "パン工房　ふるる",
      "name_kana": "",
      "business_type": "飲食店営業",
      "address": "福岡市西区姪の浜一丁目１２番２５号",
      "lat": 33.585939458,
      "lng": 130.330662667,
      "geocoding_level": 8,
      "phone": "092-882-7737",
      "license_no": "",
      "license_date": null,
      "expire_date": "2026-12-31"
    },
    {
      "name": "パン工房　ふるる",
      "name_kana": "",
      "business_type": "菓子製造業",
      "address": "福岡市西区姪の浜一丁目１２番２５号",
      "lat": 33.585939458,
      "lng": 130.330662667,
      "geocoding_level": 8,
      "phone": "092-882-7737",
      "license_no": "",
      "license_date": null,
      "expire_date": "2026-12-31"
    },
    {
      "name": "こまどりうどん福重店",
      "name_kana": "",
      "business_type": "飲食店営業",
      "address": "福岡市西区石丸四丁目１番２８号",
      "lat": 33.56924513900001,
      "lng": 130.317086825,
      "geocoding_level": 8,
      "phone": "092-881-0221",
      "license_no": "",
      "license_date": null,
      "expire_date": "2026-12-31"
    },
    {
      "name": "スシロー福岡野方店",
      "name_kana": "",
      "business_type": "飲食店営業",
      "address": "福岡市西区野方一丁目６番２５号",
      "lat": 33.558494893,
      "lng": 130.308747689,
      "geocoding_level": 8,
      "phone": "092-812-8560",
      "license_no": "",
      "license_date": null,
      "expire_date": "2026-12-31"
    },
    {
      "name": "とんかつきのや　福岡店",
      "name_kana": "",
      "business_type": "飲食店営業",
      "address": "福岡市西区今宿東三丁目３９番１８号",
      "lat": 33.573368664,
      "lng": 130.284272369,
      "geocoding_level": 8,
      "phone": "092-806-5530",
      "license_no": "",
      "license_date": null,
      "expire_date": "2026-12-31"
    },
    {
      "name": "吉ちゃん",
      "name_kana": "",
      "business_type": "飲食店営業",
      "address": "福岡市西区今宿駅前一丁目３番２８号",
      "lat": 33.579672851,
      "lng": 130.274399049,
      "geocoding_level": 8,
      "phone": "",
      "license_no": "",
      "license_date": null,
      "expire_date": "2026-12-31"
    },
    {
      "name": "炉端　多夢炉",
      "name_kana": "",
      "business_type": "飲食店営業",
      "address": "福岡市西区橋本二丁目１７番２５号",
      "lat": 33.558561799,
      "lng": 130.317256728,
      "geocoding_level": 8,
      "phone": "092-210-2009",
      "license_no": "",
      "license_date": null,
      "expire_date": "2026-12-31"
    },
    {
      "name": "酒房　けい",
      "name_kana": "",
      "business_type": "飲食店営業",
      "address": "福岡市西区今宿駅前一丁目４番４号",
      "lat": 33.579535272,
      "lng": 130.275000154,
      "geocoding_level": 8,
      "phone": "092-806-6300",
      "license_no": "",
      "license_date": null,
      "expire_date": "2026-12-31"
    },
    {
      "name": "ナチュラルカフェ　スモール・ドア",
      "name_kana": "",
      "business_type": "飲食店営業",
      "address": "福岡市西区小戸三丁目５０番１号",
      "lat": 33.586292241,
      "lng": 130.31536156,
      "geocoding_level": 8,
      "phone": "092-892-6256",
      "license_no": "",
      "license_date": null,
      "expire_date": "2026-12-31"
    },
    {
      "name": "鳥八",
      "name_kana": "",
      "business_type": "飲食店営業",
      "address": "福岡市西区今宿一丁目１７番３１号",
      "lat": 33.58213541,
      "lng": 130.270752516,
      "geocoding_level": 8,
      "phone": "",
      "license_no": "",
      "license_date": null,
      "expire_date": "2026-12-31"
    },
    {
      "name": "ノートルダム　マリノア　メイン厨房",
      "name_kana": "",
      "business_type": "飲食店営業",
      "address": "福岡市西区小戸二丁目１０番６１号",
      "lat": 33.597843629,
      "lng": 130.321578309,
      "geocoding_level": 8,
      "phone": "092-883-8585",
      "license_no": "",
      "license_date": null,
      "expire_date": "2026-12-31"
    },
    {
      "name": "ノートルダム　マリノア　ペストリー",
      "name_kana": "",
      "business_type": "菓子製造業",
      "address": "福岡市西区小戸二丁目１０番６１号",
      "lat": 33.597843629,
      "lng": 130.321578309,
      "geocoding_level": 8,
      "phone": "092-883-8585",
      "license_no": "",
      "license_date": null,
      "expire_date": "2026-12-31"
    },
    {
      "name": "唐人ベ－カリ－",
      "name_kana": "",
      "business_type": "飲食店営業",
      "address": "福岡市西区徳永３２５番地１",
      "lat": 33.567909,
      "lng": 130.257602,
      "geocoding_level": 3,
      "phone": "092-807-0222",
      "license_no": "",
      "license_date": null,
      "expire_date": "2026-12-31"
    },
    {
      "name": "ザ・ブルー",
      "name_kana": "",
      "business_type": "飲食店営業",
      "address": "福岡市西区小戸二丁目１０番６１号",
      "lat": 33.597843629,
      "lng": 130.321578309,
      "geocoding_level": 8,
      "phone": "092-883-0585",
      "license_no": "",
      "license_date": null,
      "expire_date": "2026-12-31"
    },
    {
      "name": "パティスリー　プティジュール",
      "name_kana": "",
      "business_type": "菓子製造業",
      "address": "福岡市西区姪浜駅南一丁目６番１３号",
      "lat": 33.58246207,
      "lng": 130.324009979,
      "geocoding_level": 8,
      "phone": "092-407-7855",
      "license_no": "",
      "license_date": null,
      "expire_date": "2026-12-31"
    },
    {
      "name": "株式会社マルキョウ　愛宕店",
      "name_kana": "",
      "business_type": "食肉販売業",
      "address": "福岡市西区愛宕浜二丁目３番６号",
      "lat": 33.594675,
      "lng": 130.339375,
      "geocoding_level": 3,
      "phone": "092-884-3977",
      "license_no": "",
      "license_date": null,
      "expire_date": "2026-12-31"
    },
    {
      "name": "株式会社マルキョウ　愛宕店",
      "name_kana": "",
      "business_type": "魚介類販売業",
      "address": "福岡市西区愛宕浜二丁目３番６号",
      "lat": 33.594675,
      "lng": 130.339375,
      "geocoding_level": 3,
      "phone": "092-884-3977",
      "license_no": "",
      "license_date": null,
      "expire_date": "2026-12-31"
    },
    {
      "name": "無添さぬきめん　あじ豊",
      "name_kana": "",
      "business_type": "飲食店営業",
      "address": "福岡市西区千里２３３番地１",
      "lat": 33.562309,
      "lng": 130.243392,
      "geocoding_level": 3,
      "phone": "092-805-5840",
      "license_no": "",
      "license_date": null,
      "expire_date": "2026-12-31"
    },
    {
      "name": "三菱電機（株）パワーデバイス製作所",
      "name_kana": "",
      "business_type": "飲食店営業",
      "address": "福岡市西区今宿東一丁目１番１号",
      "lat": 33.575737,
      "lng": 130.274964,
      "geocoding_level": 3,
      "phone": "092-805-3941",
      "license_no": "",
      "license_date": null,
      "expire_date": "2026-12-31"
    },
    {
      "name": "ほっともっと伊都店",
      "name_kana": "",
      "business_type": "飲食店営業",
      "address": "福岡市西区北原一丁目９番１号",
      "lat": 33.578250036,
      "lng": 130.256360228,
      "geocoding_level": 8,
      "phone": "092-805-6665",
      "license_no": "",
      "license_date": null,
      "expire_date": "2026-12-31"
    },
    {
      "name": "（有）紫垣商店",
      "name_kana": "",
      "business_type": "魚介類販売業",
      "address": "福岡市西区生の松原一丁目１６番２４号",
      "lat": 33.5826372,
      "lng": 130.306202252,
      "geocoding_level": 8,
      "phone": "092-882-0023",
      "license_no": "",
      "license_date": null,
      "expire_date": "2026-12-31"
    },
    {
      "name": "漁村センター",
      "name_kana": "",
      "business_type": "飲食店営業",
      "address": "福岡市西区西浦１１５８番地",
      "lat": 33.653538,
      "lng": 130.215353,
      "geocoding_level": 3,
      "phone": "092-809-2231",
      "license_no": "",
      "license_date": null,
      "expire_date": "2026-12-31"
    },
    {
      "name": "居酒屋たかぞう",
      "name_kana": "",
      "business_type": "飲食店営業",
      "address": "福岡市西区姪の浜四丁目２３番１０号",
      "lat": 33.584248937,
      "lng": 130.324037128,
      "geocoding_level": 8,
      "phone": "092-891-8050",
      "license_no": "",
      "license_date": null,
      "expire_date": "2026-12-31"
    },
    {
      "name": "パティスリー　イチリュウ",
      "name_kana": "",
      "business_type": "菓子製造業",
      "address": "福岡市西区横浜三丁目３６番８号",
      "lat": 33.581274223,
      "lng": 130.259175429,
      "geocoding_level": 8,
      "phone": "092-805-8505",
      "license_no": "",
      "license_date": null,
      "expire_date": "2026-12-31"
    },
    {
      "name": "生之松原測候所",
      "name_kana": "",
      "business_type": "飲食店営業",
      "address": "福岡市西区生の松原一丁目３４番３５号",
      "lat": 33.580375559,
      "lng": 130.294919594,
      "geocoding_level": 8,
      "phone": "092-707-7597",
      "license_no": "",
      "license_date": null,
      "expire_date": "2026-12-31"
    },
    {
      "name": "インド料理サプナ　ＩＮＤＩＡＮ　ＲＥＳＴＡＵＲＡＮＴ　　ＳＡＰＵＮＡ",
      "name_kana": "",
      "business_type": "飲食店営業",
      "address": "福岡市西区今宿二丁目５番４－１０５号",
      "lat": 33.583214,
      "lng": 130.267518,
      "geocoding_level": 3,
      "phone": "092-806-6024",
      "license_no": "",
      "license_date": null,
      "expire_date": "2026-12-31"
    },
    {
      "name": "やきとり海香",
      "name_kana": "",
      "business_type": "飲食店営業",
      "address": "福岡市西区宮浦２０２３番地１",
      "lat": 33.641839000000004,
      "lng": 130.228081,
      "geocoding_level": 3,
      "phone": "092-809-1730",
      "license_no": "",
      "license_date": null,
      "expire_date": "2026-12-31"
    },
    {
      "name": "ａｎｉｍａ",
      "name_kana": "",
      "business_type": "飲食店営業",
      "address": "福岡市西区姪の浜四丁目２３番１０号１Ｆ",
      "lat": 33.584248937,
      "lng": 130.324037128,
      "geocoding_level": 8,
      "phone": "092-834-3939",
      "license_no": "",
      "license_date": null,
      "expire_date": "2026-12-31"
    },
    {
      "name": "ＪＡファーム福岡調理室",
      "name_kana": "",
      "business_type": "飲食店営業",
      "address": "福岡市西区今宿青木２５１番地１",
      "lat": 33.570886,
      "lng": 130.28858,
      "geocoding_level": 3,
      "phone": "092-807-1233",
      "license_no": "",
      "license_date": null,
      "expire_date": "2026-12-31"
    },
    {
      "name": "まいん",
      "name_kana": "",
      "business_type": "飲食店営業",
      "address": "福岡市西区福重四丁目１４番２２号",
      "lat": 33.571454335,
      "lng": 130.325153354,
      "geocoding_level": 8,
      "phone": "092-891-7423",
      "license_no": "",
      "license_date": null,
      "expire_date": "2026-12-31"
    },
    {
      "name": "能古島キャンプ村",
      "name_kana": "",
      "business_type": "飲食店営業",
      "address": "福岡市西区能古大泊",
      "lat": 33.622845,
      "lng": 130.305936,
      "geocoding_level": 3,
      "phone": "092-881-0948",
      "license_no": "",
      "license_date": null,
      "expire_date": "2026-12-31"
    },
    {
      "name": "たく家",
      "name_kana": "",
      "business_type": "飲食店営業",
      "address": "福岡市西区今宿駅前一丁目３番２８号",
      "lat": 33.579672851,
      "lng": 130.274399049,
      "geocoding_level": 8,
      "phone": "092-806-8300",
      "license_no": "",
      "license_date": null,
      "expire_date": "2026-12-31"
    },
    {
      "name": "スナックロマン",
      "name_kana": "",
      "business_type": "飲食店営業",
      "address": "福岡市西区今宿一丁目５番１４－７号",
      "lat": 33.58224,
      "lng": 130.271799,
      "geocoding_level": 3,
      "phone": "092-806-1592",
      "license_no": "",
      "license_date": null,
      "expire_date": "2026-12-31"
    },
    {
      "name": "たくみ屋",
      "name_kana": "",
      "business_type": "魚介類販売業",
      "address": "福岡市西区戸切三丁目１番４号",
      "lat": 33.552614904,
      "lng": 130.318771562,
      "geocoding_level": 8,
      "phone": "092-811-1073",
      "license_no": "",
      "license_date": null,
      "expire_date": "2026-12-31"
    },
    {
      "name": "ファミリーマート　福岡石丸三丁目店",
      "name_kana": "",
      "business_type": "飲食店営業",
      "address": "福岡市西区石丸三丁目４番３号",
      "lat": 33.575278338,
      "lng": 130.315827978,
      "geocoding_level": 8,
      "phone": "092-894-3625",
      "license_no": "",
      "license_date": null,
      "expire_date": "2026-12-31"
    },
    {
      "name": "ディマーレ",
      "name_kana": "",
      "business_type": "飲食店営業",
      "address": "福岡市西区今宿上ノ原２５４番地４０",
      "lat": 33.554374,
      "lng": 130.278802,
      "geocoding_level": 3,
      "phone": "092-807-5847",
      "license_no": "",
      "license_date": null,
      "expire_date": "2026-12-31"
    },
    {
      "name": "麦の木",
      "name_kana": "",
      "business_type": "飲食店営業",
      "address": "福岡市西区橋本二丁目２７番２号１Ｆ",
      "lat": 33.556601,
      "lng": 130.321465,
      "geocoding_level": 3,
      "phone": "092-407-2875",
      "license_no": "",
      "license_date": null,
      "expire_date": "2026-12-31"
    },
    {
      "name": "じゅうじゅうカルビ福岡橋本店",
      "name_kana": "",
      "business_type": "食肉販売業",
      "address": "福岡市西区橋本一丁目１１番３２号",
      "lat": 33.561078,
      "lng": 130.321706,
      "geocoding_level": 3,
      "phone": "092-812-8929",
      "license_no": "",
      "license_date": null,
      "expire_date": "2026-12-31"
    },
    {
      "name": "銀のさら　石丸店",
      "name_kana": "",
      "business_type": "飲食店営業",
      "address": "福岡市西区石丸三丁目２７番１４号",
      "lat": 33.573715753,
      "lng": 130.313950879,
      "geocoding_level": 8,
      "phone": "092-892-8837",
      "license_no": "",
      "license_date": null,
      "expire_date": "2026-12-31"
    },
    {
      "name": "ニブンノイチ",
      "name_kana": "",
      "business_type": "飲食店営業",
      "address": "福岡市西区今宿三丁目２番５５－１０１号",
      "lat": 33.580389,
      "lng": 130.267422,
      "geocoding_level": 3,
      "phone": "",
      "license_no": "",
      "license_date": null,
      "expire_date": "2026-12-31"
    },
    {
      "name": "和食　奥菜",
      "name_kana": "",
      "business_type": "飲食店営業",
      "address": "福岡市西区石丸一丁目１９番１４号",
      "lat": 33.575132728,
      "lng": 130.320217573,
      "geocoding_level": 8,
      "phone": "092-400-8627",
      "license_no": "",
      "license_date": null,
      "expire_date": "2026-12-31"
    },
    {
      "name": "木藤商店",
      "name_kana": "",
      "business_type": "魚介類販売業",
      "address": "福岡市西区西浦２１６２番地１",
      "lat": 33.653538,
      "lng": 130.215353,
      "geocoding_level": 3,
      "phone": "",
      "license_no": "",
      "license_date": null,
      "expire_date": "2026-12-31"
    },
    {
      "name": "シモン野方店",
      "name_kana": "",
      "business_type": "飲食店営業",
      "address": "福岡市西区野方一丁目２２番１７号",
      "lat": 33.559011623,
      "lng": 130.31165895,
      "geocoding_level": 8,
      "phone": "092-811-2390",
      "license_no": "",
      "license_date": null,
      "expire_date": "2026-12-31"
    },
    {
      "name": "シモン野方店",
      "name_kana": "",
      "business_type": "菓子製造業",
      "address": "福岡市西区野方一丁目２２番１７号",
      "lat": 33.559011623,
      "lng": 130.31165895,
      "geocoding_level": 8,
      "phone": "092-811-2390",
      "license_no": "",
      "license_date": null,
      "expire_date": "2026-12-31"
    },
    {
      "name": "（株）ウエスト今宿店　（焼肉コーナー）",
      "name_kana": "",
      "business_type": "飲食店営業",
      "address": "福岡市西区横浜一丁目４３番１８号",
      "lat": 33.582339917,
      "lng": 130.262729917,
      "geocoding_level": 8,
      "phone": "092-807-6505",
      "license_no": "",
      "license_date": null,
      "expire_date": "2026-12-31"
    },
    {
      "name": "ライフケア－上山門",
      "name_kana": "",
      "business_type": "飲食店営業",
      "address": "福岡市西区上山門二丁目２番２２号",
      "lat": 33.575446836,
      "lng": 130.303605996,
      "geocoding_level": 8,
      "phone": "092-892-8300",
      "license_no": "",
      "license_date": null,
      "expire_date": "2026-12-31"
    },
    {
      "name": "漁師小屋",
      "name_kana": "",
      "business_type": "飲食店営業",
      "address": "福岡市西区周船寺三丁目２６番１２号",
      "lat": 33.577377427,
      "lng": 130.252896876,
      "geocoding_level": 8,
      "phone": "092-806-6698",
      "license_no": "",
      "license_date": null,
      "expire_date": "2026-12-31"
    },
    {
      "name": "バーミヤン　木の葉モール橋本",
      "name_kana": "",
      "business_type": "飲食店営業",
      "address": "福岡市西区橋本二丁目２７番２号",
      "lat": 33.556601,
      "lng": 130.321465,
      "geocoding_level": 3,
      "phone": "092-894-7500",
      "license_no": "",
      "license_date": null,
      "expire_date": "2026-12-31"
    },
    {
      "name": "おしゃべり泥棒",
      "name_kana": "",
      "business_type": "飲食店営業",
      "address": "福岡市西区周船寺一丁目６番１１号",
      "lat": 33.571748206,
      "lng": 130.243820661,
      "geocoding_level": 8,
      "phone": "",
      "license_no": "",
      "license_date": null,
      "expire_date": "2027-03-31"
    },
    {
      "name": "ハラールフードプラザ　ナビさん",
      "name_kana": "",
      "business_type": "飲食店営業",
      "address": "福岡市西区元浜一丁目２７番３号",
      "lat": 33.59224,
      "lng": 130.227451,
      "geocoding_level": 3,
      "phone": "092-407-1262",
      "license_no": "",
      "license_date": null,
      "expire_date": "2027-03-31"
    },
    {
      "name": "ハラールフードプラザ　ナビさん",
      "name_kana": "",
      "business_type": "食肉販売業",
      "address": "福岡市西区元浜一丁目２７番３号",
      "lat": 33.59224,
      "lng": 130.227451,
      "geocoding_level": 3,
      "phone": "092-407-1262",
      "license_no": "",
      "license_date": null,
      "expire_date": "2027-03-31"
    },
    {
      "name": "セブン－イレブン福岡石丸３丁目店",
      "name_kana": "",
      "business_type": "飲食店営業",
      "address": "福岡市西区石丸三丁目３８番１２号",
      "lat": 33.576223442,
      "lng": 130.311291168,
      "geocoding_level": 8,
      "phone": "092-883-5395",
      "license_no": "",
      "license_date": null,
      "expire_date": "2027-03-31"
    },
    {
      "name": "生之松原測候所",
      "name_kana": "",
      "business_type": "菓子製造業",
      "address": "福岡市西区生の松原一丁目３４番３５号",
      "lat": 33.580375559,
      "lng": 130.294919594,
      "geocoding_level": 8,
      "phone": "092-707-7597",
      "license_no": "",
      "license_date": null,
      "expire_date": "2027-03-31"
    },
    {
      "name": "ＡＬＩＳＯＮ",
      "name_kana": "",
      "business_type": "飲食店営業",
      "address": "福岡市西区北原一丁目７番８号",
      "lat": 33.578715972,
      "lng": 130.258132641,
      "geocoding_level": 8,
      "phone": "092-707-7333",
      "license_no": "",
      "license_date": null,
      "expire_date": "2027-03-31"
    },
    {
      "name": "Ｉｔｏ　ＭＯＭＯ　Ｃｕｒｒｙ　Ｈｏｕｓｅ",
      "name_kana": "",
      "business_type": "飲食店営業",
      "address": "福岡市西区福重三丁目８番１７号",
      "lat": 33.571627428,
      "lng": 130.322654411,
      "geocoding_level": 8,
      "phone": "092-407-4875",
      "license_no": "",
      "license_date": null,
      "expire_date": "2027-03-31"
    },
    {
      "name": "おあしす石丸店",
      "name_kana": "",
      "business_type": "飲食店営業",
      "address": "福岡市西区石丸三丁目２０番８号",
      "lat": 33.572275658,
      "lng": 130.313238452,
      "geocoding_level": 8,
      "phone": "",
      "license_no": "",
      "license_date": null,
      "expire_date": "2027-03-31"
    },
    {
      "name": "ころたこ",
      "name_kana": "",
      "business_type": "飲食店営業",
      "address": "福岡市西区野方一丁目１９番１号",
      "lat": 33.558857181,
      "lng": 130.310853935,
      "geocoding_level": 8,
      "phone": "",
      "license_no": "",
      "license_date": null,
      "expire_date": "2027-03-31"
    },
    {
      "name": "ホルトの木",
      "name_kana": "",
      "business_type": "飲食店営業",
      "address": "福岡市西区周船寺二丁目１５番４４号",
      "lat": 33.574367105,
      "lng": 130.245302707,
      "geocoding_level": 8,
      "phone": "092-807-3377",
      "license_no": "",
      "license_date": null,
      "expire_date": "2027-03-31"
    },
    {
      "name": "巴寿司",
      "name_kana": "",
      "business_type": "飲食店営業",
      "address": "福岡市西区石丸三丁目９番３号",
      "lat": 33.571454084,
      "lng": 130.3154691,
      "geocoding_level": 8,
      "phone": "092-881-3366",
      "license_no": "",
      "license_date": null,
      "expire_date": "2027-03-31"
    },
    {
      "name": "ファミリーマート　福岡姪浜駅南店",
      "name_kana": "",
      "business_type": "飲食店営業",
      "address": "福岡市西区姪浜駅南三丁目１番１７号",
      "lat": 33.583135189,
      "lng": 130.327417847,
      "geocoding_level": 8,
      "phone": "092-894-6030",
      "license_no": "",
      "license_date": null,
      "expire_date": "2027-03-31"
    },
    {
      "name": "木曽路福重店",
      "name_kana": "",
      "business_type": "飲食店営業",
      "address": "福岡市西区福重三丁目３５番３号",
      "lat": 33.56966141,
      "lng": 130.318459956,
      "geocoding_level": 8,
      "phone": "092-895-1331",
      "license_no": "",
      "license_date": null,
      "expire_date": "2027-03-31"
    },
    {
      "name": "味工房　なか山",
      "name_kana": "",
      "business_type": "飲食店営業",
      "address": "福岡市西区姪の浜六丁目１２番３０号",
      "lat": 33.588464071,
      "lng": 130.323292517,
      "geocoding_level": 8,
      "phone": "092-891-3001",
      "license_no": "",
      "license_date": null,
      "expire_date": "2027-03-31"
    },
    {
      "name": "鶏屋山﨑　姪浜店",
      "name_kana": "",
      "business_type": "飲食店営業",
      "address": "福岡市西区内浜二丁目４番５２号",
      "lat": 33.583373541,
      "lng": 130.31915718,
      "geocoding_level": 8,
      "phone": "",
      "license_no": "",
      "license_date": null,
      "expire_date": "2027-03-31"
    },
    {
      "name": "喜市",
      "name_kana": "",
      "business_type": "飲食店営業",
      "address": "福岡市西区愛宕三丁目１番６号",
      "lat": 33.582106208,
      "lng": 130.338454968,
      "geocoding_level": 8,
      "phone": "092-883-1000",
      "license_no": "",
      "license_date": null,
      "expire_date": "2027-03-31"
    },
    {
      "name": "味三秀",
      "name_kana": "",
      "business_type": "飲食店営業",
      "address": "福岡市西区愛宕三丁目１番６号",
      "lat": 33.582106208,
      "lng": 130.338454968,
      "geocoding_level": 8,
      "phone": "092-883-0808",
      "license_no": "",
      "license_date": null,
      "expire_date": "2027-03-31"
    },
    {
      "name": "シュテファン",
      "name_kana": "",
      "business_type": "飲食店営業",
      "address": "福岡市西区壱岐団地１３５番１０３号",
      "lat": 33.559814,
      "lng": 130.315508,
      "geocoding_level": 3,
      "phone": "092-812-4186",
      "license_no": "",
      "license_date": null,
      "expire_date": "2027-03-31"
    },
    {
      "name": "堀ちゃん牧場",
      "name_kana": "",
      "business_type": "そうざい製造業",
      "address": "福岡市西区今宿上ノ原９３２番地７２",
      "lat": 33.554374,
      "lng": 130.278802,
      "geocoding_level": 3,
      "phone": "092-806-6310",
      "license_no": "",
      "license_date": null,
      "expire_date": "2027-03-31"
    },
    {
      "name": "レストラン加里部",
      "name_kana": "",
      "business_type": "飲食店営業",
      "address": "福岡市西区周船寺二丁目１３番４７号",
      "lat": 33.573752051,
      "lng": 130.246674259,
      "geocoding_level": 8,
      "phone": "092-807-9092",
      "license_no": "",
      "license_date": null,
      "expire_date": "2027-03-31"
    },
    {
      "name": "母家",
      "name_kana": "",
      "business_type": "飲食店営業",
      "address": "福岡市西区今宿青木１０５９番地２９",
      "lat": 33.570886,
      "lng": 130.28858,
      "geocoding_level": 3,
      "phone": "092-805-1788",
      "license_no": "",
      "license_date": null,
      "expire_date": "2027-03-31"
    },
    {
      "name": "花野季",
      "name_kana": "",
      "business_type": "菓子製造業",
      "address": "福岡市西区今宿青木１０５９番地２９",
      "lat": 33.570886,
      "lng": 130.28858,
      "geocoding_level": 3,
      "phone": "092-805-1788",
      "license_no": "",
      "license_date": null,
      "expire_date": "2027-03-31"
    },
    {
      "name": "奈加山",
      "name_kana": "",
      "business_type": "飲食店営業",
      "address": "福岡市西区今宿東二丁目３３番１２号",
      "lat": 33.573153313,
      "lng": 130.279499987,
      "geocoding_level": 8,
      "phone": "092-807-4522",
      "license_no": "",
      "license_date": null,
      "expire_date": "2027-03-31"
    },
    {
      "name": "株式会社　西鉄ストア周船寺店",
      "name_kana": "",
      "business_type": "飲食店営業",
      "address": "福岡市西区周船寺二丁目１４番１５号",
      "lat": 33.574227954,
      "lng": 130.245079922,
      "geocoding_level": 8,
      "phone": "092-807-4330",
      "license_no": "",
      "license_date": null,
      "expire_date": "2027-03-31"
    },
    {
      "name": "（株）タナカフーズ",
      "name_kana": "",
      "business_type": "そうざい製造業",
      "address": "福岡市西区北原二丁目２３番１８号",
      "lat": 33.582917,
      "lng": 130.323133,
      "geocoding_level": 2,
      "phone": "092-806-2244",
      "license_no": "",
      "license_date": null,
      "expire_date": "2027-03-31"
    },
    {
      "name": "銀志朗　マリナタウン店",
      "name_kana": "",
      "business_type": "飲食店営業",
      "address": "福岡市西区豊浜三丁目１番１０号",
      "lat": 33.58927,
      "lng": 130.333735,
      "geocoding_level": 3,
      "phone": "092-894-1150",
      "license_no": "",
      "license_date": null,
      "expire_date": "2027-03-31"
    },
    {
      "name": "ハローデイ　橋本店",
      "name_kana": "",
      "business_type": "菓子製造業",
      "address": "福岡市西区橋本一丁目１０番７８号",
      "lat": 33.559194604,
      "lng": 130.318353295,
      "geocoding_level": 8,
      "phone": "092-894-8181",
      "license_no": "",
      "license_date": null,
      "expire_date": "2027-03-31"
    },
    {
      "name": "加ま川寿司",
      "name_kana": "",
      "business_type": "飲食店営業",
      "address": "福岡市西区福重五丁目２４番３４号",
      "lat": 33.576853653,
      "lng": 130.325446268,
      "geocoding_level": 8,
      "phone": "092-891-7900",
      "license_no": "",
      "license_date": null,
      "expire_date": "2027-03-31"
    },
    {
      "name": "精肉の おがた",
      "name_kana": "",
      "business_type": "飲食店営業",
      "address": "福岡市西区橋本二丁目２７番２号",
      "lat": 33.556601,
      "lng": 130.321465,
      "geocoding_level": 3,
      "phone": "092-812-1129",
      "license_no": "",
      "license_date": null,
      "expire_date": "2027-03-31"
    },
    {
      "name": "４６１９事業所",
      "name_kana": "",
      "business_type": "飲食店営業",
      "address": "福岡市西区周船寺一丁目２２番３９号",
      "lat": 33.571059883,
      "lng": 130.241361986,
      "geocoding_level": 8,
      "phone": "",
      "license_no": "",
      "license_date": null,
      "expire_date": "2027-03-31"
    },
    {
      "name": "クック・チャム伊都店",
      "name_kana": "",
      "business_type": "飲食店営業",
      "address": "福岡市西区北原一丁目６１",
      "lat": 33.578281,
      "lng": 130.257087,
      "geocoding_level": 3,
      "phone": "092-836-7299",
      "license_no": "",
      "license_date": null,
      "expire_date": "2027-03-31"
    },
    {
      "name": "川添記念病院",
      "name_kana": "",
      "business_type": "飲食店営業",
      "address": "福岡市西区今津４７６０番地",
      "lat": 33.609809,
      "lng": 130.252145,
      "geocoding_level": 3,
      "phone": "092-807-3733",
      "license_no": "",
      "license_date": null,
      "expire_date": "2027-03-31"
    },
    {
      "name": "シーサイド病院",
      "name_kana": "",
      "business_type": "飲食店営業",
      "address": "福岡市西区今津３８１0番地",
      "lat": 33.609809,
      "lng": 130.252145,
      "geocoding_level": 3,
      "phone": "092-806-0888",
      "license_no": "",
      "license_date": null,
      "expire_date": "2027-03-31"
    },
    {
      "name": "スナック恋夜",
      "name_kana": "",
      "business_type": "飲食店営業",
      "address": "福岡市西区橋本二丁目１７番２７号",
      "lat": 33.558489549,
      "lng": 130.317458155,
      "geocoding_level": 8,
      "phone": "092-812-5200",
      "license_no": "",
      "license_date": null,
      "expire_date": "2027-03-31"
    },
    {
      "name": "ブルーミングデイホテル",
      "name_kana": "",
      "business_type": "飲食店営業",
      "address": "福岡市西区今宿東三丁目３８番８号",
      "lat": 33.573634278,
      "lng": 130.283000674,
      "geocoding_level": 8,
      "phone": "092-806-0535",
      "license_no": "",
      "license_date": null,
      "expire_date": "2027-03-31"
    },
    {
      "name": "ミスタードーナツ　イオンマリナタウンショップ",
      "name_kana": "",
      "business_type": "飲食店営業",
      "address": "福岡市西区豊浜三丁目１番１０号",
      "lat": 33.58927,
      "lng": 130.333735,
      "geocoding_level": 3,
      "phone": "092-885-8295",
      "license_no": "",
      "license_date": null,
      "expire_date": "2027-03-31"
    },
    {
      "name": "ミスタードーナツ　イオンマリナタウンショップ",
      "name_kana": "",
      "business_type": "菓子製造業",
      "address": "福岡市西区豊浜三丁目１番１０号",
      "lat": 33.58927,
      "lng": 130.333735,
      "geocoding_level": 3,
      "phone": "092-885-8295",
      "license_no": "",
      "license_date": null,
      "expire_date": "2027-03-31"
    },
    {
      "name": "ファミリーマート福岡元岡店",
      "name_kana": "",
      "business_type": "飲食店営業",
      "address": "福岡市西区元浜一丁目２７番５号",
      "lat": 33.59224,
      "lng": 130.227451,
      "geocoding_level": 3,
      "phone": "092-805-3250",
      "license_no": "",
      "license_date": null,
      "expire_date": "2027-03-31"
    },
    {
      "name": "ＪＡ福岡市みそ加工場",
      "name_kana": "",
      "business_type": "みそ製造業",
      "address": "福岡市西区福重一丁目９番８号",
      "lat": 33.565775387,
      "lng": 130.324597396,
      "geocoding_level": 8,
      "phone": "092-711-2065",
      "license_no": "",
      "license_date": null,
      "expire_date": "2027-03-31"
    },
    {
      "name": "ＪＡ福岡市パン工房",
      "name_kana": "",
      "business_type": "菓子製造業",
      "address": "福岡市西区福重一丁目９番８号",
      "lat": 33.565775387,
      "lng": 130.324597396,
      "geocoding_level": 8,
      "phone": "092-711-2065",
      "license_no": "",
      "license_date": null,
      "expire_date": "2027-03-31"
    },
    {
      "name": "生活支援施設ビックさんどメインダイニング",
      "name_kana": "",
      "business_type": "飲食店営業",
      "address": "福岡市西区元岡７４４番地",
      "lat": 33.591033,
      "lng": 130.221053,
      "geocoding_level": 3,
      "phone": "092-805-7701",
      "license_no": "",
      "license_date": null,
      "expire_date": "2027-03-31"
    },
    {
      "name": "生活支援施設ビックさんどメインダイニング",
      "name_kana": "",
      "business_type": "菓子製造業",
      "address": "福岡市西区元岡７４４番地",
      "lat": 33.591033,
      "lng": 130.221053,
      "geocoding_level": 3,
      "phone": "092-805-7701",
      "license_no": "",
      "license_date": null,
      "expire_date": "2027-03-31"
    },
    {
      "name": "生活支援施設ビックさんどメインダイニング",
      "name_kana": "",
      "business_type": "喫茶店営業",
      "address": "福岡市西区元岡７４４番地",
      "lat": 33.591033,
      "lng": 130.221053,
      "geocoding_level": 3,
      "phone": "092-805-7701",
      "license_no": "",
      "license_date": null,
      "expire_date": "2027-03-31"
    },
    {
      "name": "生活支援施設ビックさんどメインダイニング",
      "name_kana": "",
      "business_type": "飲食店営業",
      "address": "福岡市西区元岡７４４番地",
      "lat": 33.591033,
      "lng": 130.221053,
      "geocoding_level": 3,
      "phone": "092-805-7701",
      "license_no": "",
      "license_date": null,
      "expire_date": "2027-03-31"
    },
    {
      "name": "生活支援施設ビックさんどビックダイニング",
      "name_kana": "",
      "business_type": "飲食店営業",
      "address": "福岡市西区元岡７４４番地",
      "lat": 33.591033,
      "lng": 130.221053,
      "geocoding_level": 3,
      "phone": "092-805-7701",
      "license_no": "",
      "license_date": null,
      "expire_date": "2027-03-31"
    },
    {
      "name": "ビックオレンジレストラン",
      "name_kana": "",
      "business_type": "飲食店営業",
      "address": "福岡市西区元岡７４４番地",
      "lat": 33.591033,
      "lng": 130.221053,
      "geocoding_level": 3,
      "phone": "092-805-7703",
      "license_no": "",
      "license_date": null,
      "expire_date": "2027-03-31"
    },
    {
      "name": "センター地区２号館食堂　クアシス",
      "name_kana": "",
      "business_type": "飲食店営業",
      "address": "福岡市西区元岡７４４番地",
      "lat": 33.591033,
      "lng": 130.221053,
      "geocoding_level": 3,
      "phone": "092-805-7703",
      "license_no": "",
      "license_date": null,
      "expire_date": "2027-03-31"
    },
    {
      "name": "あいきょう",
      "name_kana": "",
      "business_type": "飲食店営業",
      "address": "福岡市西区横浜二丁目１９番２号",
      "lat": 33.592215558,
      "lng": 130.26467054,
      "geocoding_level": 8,
      "phone": "092-807-1896",
      "license_no": "",
      "license_date": null,
      "expire_date": "2027-03-31"
    },
    {
      "name": "鯛や大洋丸のお魚",
      "name_kana": "",
      "business_type": "飲食店営業",
      "address": "福岡市西区西浦１２６５番地３８",
      "lat": 33.653538,
      "lng": 130.215353,
      "geocoding_level": 3,
      "phone": "",
      "license_no": "",
      "license_date": null,
      "expire_date": "2027-03-31"
    },
    {
      "name": "ＣＡＦＥ　ＢＬＵＥ　ＢＥＥ",
      "name_kana": "",
      "business_type": "菓子製造業",
      "address": "福岡市西区小戸二丁目２番５５号",
      "lat": 33.594174926,
      "lng": 130.315703991,
      "geocoding_level": 8,
      "phone": "092-836-8809",
      "license_no": "",
      "license_date": null,
      "expire_date": "2027-03-31"
    },
    {
      "name": "ＣＡＦＥ　ＢＬＵＥ　ＢＥＥ",
      "name_kana": "",
      "business_type": "飲食店営業",
      "address": "福岡市西区小戸二丁目２番５５号",
      "lat": 33.594174926,
      "lng": 130.315703991,
      "geocoding_level": 8,
      "phone": "092-836-8809",
      "license_no": "",
      "license_date": null,
      "expire_date": "2027-03-31"
    },
    {
      "name": "Ｆｏｏｄ　Ｍａｃｈｉｎｅ",
      "name_kana": "",
      "business_type": "菓子製造業",
      "address": "福岡市西区小戸三丁目４９番３号",
      "lat": 33.587050878,
      "lng": 130.315047771,
      "geocoding_level": 8,
      "phone": "",
      "license_no": "",
      "license_date": null,
      "expire_date": "2027-03-31"
    },
    {
      "name": "福岡市立金武小学校",
      "name_kana": "",
      "business_type": "飲食店営業",
      "address": "福岡市西区金武２０２８番地１",
      "lat": 33.52098,
      "lng": 130.302178,
      "geocoding_level": 3,
      "phone": "092-811-1303",
      "license_no": "",
      "license_date": null,
      "expire_date": "2027-03-31"
    },
    {
      "name": "お弁当の大鶴",
      "name_kana": "",
      "business_type": "飲食店営業",
      "address": "福岡市西区姪の浜四丁目１２番１８号",
      "lat": 33.586025971,
      "lng": 130.325629067,
      "geocoding_level": 8,
      "phone": "092-884-1027",
      "license_no": "",
      "license_date": null,
      "expire_date": "2027-03-31"
    },
    {
      "name": "今宿病院",
      "name_kana": "",
      "business_type": "飲食店営業",
      "address": "福岡市西区今宿二丁目１２番７号",
      "lat": 33.581957129,
      "lng": 130.26606767,
      "geocoding_level": 8,
      "phone": "092-806-2667",
      "license_no": "",
      "license_date": null,
      "expire_date": "2027-03-31"
    },
    {
      "name": "ＳＡＫＡＥ館伊都学生寮",
      "name_kana": "",
      "business_type": "飲食店営業",
      "address": "福岡市西区元浜一丁目２６番２号",
      "lat": 33.59224,
      "lng": 130.227451,
      "geocoding_level": 3,
      "phone": "",
      "license_no": "",
      "license_date": null,
      "expire_date": "2027-03-31"
    },
    {
      "name": "リンガーハット　マリナタウン店",
      "name_kana": "",
      "business_type": "飲食店営業",
      "address": "福岡市西区豊浜三丁目１番１０号",
      "lat": 33.58927,
      "lng": 130.333735,
      "geocoding_level": 3,
      "phone": "092-885-8657",
      "license_no": "",
      "license_date": null,
      "expire_date": "2027-03-31"
    },
    {
      "name": "あおば",
      "name_kana": "",
      "business_type": "飲食店営業",
      "address": "福岡市西区拾六町三丁目８番１２号",
      "lat": 33.568118707,
      "lng": 130.306857434,
      "geocoding_level": 8,
      "phone": "092-881-4136",
      "license_no": "",
      "license_date": null,
      "expire_date": "2027-03-31"
    },
    {
      "name": "(株)パワフルライフ　坂口耳鼻咽喉科店",
      "name_kana": "",
      "business_type": "飲食店営業",
      "address": "福岡市西区石丸二丁目４０番２６号",
      "lat": 33.575203898,
      "lng": 130.316283169,
      "geocoding_level": 8,
      "phone": "092-894-1121",
      "license_no": "",
      "license_date": null,
      "expire_date": "2027-03-31"
    },
    {
      "name": "ローソン福岡周船寺二丁目店",
      "name_kana": "",
      "business_type": "飲食店営業",
      "address": "福岡市西区周船寺二丁目１１番３３号",
      "lat": 33.574184429,
      "lng": 130.24807272000004,
      "geocoding_level": 8,
      "phone": "092-807-6610",
      "license_no": "",
      "license_date": null,
      "expire_date": "2027-03-31"
    },
    {
      "name": "旬や　みなくち",
      "name_kana": "",
      "business_type": "飲食店営業",
      "address": "福岡市西区姪の浜三丁目１１番８号",
      "lat": 33.588141908,
      "lng": 130.326717106,
      "geocoding_level": 8,
      "phone": "092-885-5553",
      "license_no": "",
      "license_date": null,
      "expire_date": "2027-03-31"
    },
    {
      "name": "グリーン菜園",
      "name_kana": "",
      "business_type": "飲食店営業",
      "address": "福岡市西区豊浜一丁目２番２号",
      "lat": 33.587850806,
      "lng": 130.339856674,
      "geocoding_level": 8,
      "phone": "092-400-0630",
      "license_no": "",
      "license_date": null,
      "expire_date": "2027-03-31"
    },
    {
      "name": "中華そば　きりや",
      "name_kana": "",
      "business_type": "飲食店営業",
      "address": "福岡市西区姪の浜五丁目１番２７号",
      "lat": 33.58740977,
      "lng": 130.323093255,
      "geocoding_level": 8,
      "phone": "092-883-6870",
      "license_no": "",
      "license_date": null,
      "expire_date": "2027-03-31"
    },
    {
      "name": "セブンイレブン福岡生松台店",
      "name_kana": "",
      "business_type": "飲食店営業",
      "address": "福岡市西区生松台一丁目１番２２号",
      "lat": 33.560876226,
      "lng": 130.300876948,
      "geocoding_level": 8,
      "phone": "092-812-6634",
      "license_no": "",
      "license_date": null,
      "expire_date": "2027-03-31"
    },
    {
      "name": "有限会社　タカハシミート",
      "name_kana": "",
      "business_type": "食肉販売業",
      "address": "福岡市西区今津７４７番地",
      "lat": 33.609809,
      "lng": 130.252145,
      "geocoding_level": 3,
      "phone": "092-807-8711",
      "license_no": "",
      "license_date": null,
      "expire_date": "2027-03-31"
    },
    {
      "name": "のこのしま",
      "name_kana": "",
      "business_type": "飲食店営業",
      "address": "福岡市西区能古５１６番地１",
      "lat": 33.622845,
      "lng": 130.305936,
      "geocoding_level": 3,
      "phone": "092-891-5367",
      "license_no": "",
      "license_date": null,
      "expire_date": "2027-03-31"
    },
    {
      "name": "やま屋ミート",
      "name_kana": "",
      "business_type": "食肉販売業",
      "address": "福岡市西区拾六町一丁目４番１２号",
      "lat": 33.567327983,
      "lng": 130.314123138,
      "geocoding_level": 8,
      "phone": "092-882-7776",
      "license_no": "",
      "license_date": null,
      "expire_date": "2027-03-31"
    },
    {
      "name": "やま屋ミート",
      "name_kana": "",
      "business_type": "飲食店営業",
      "address": "福岡市西区拾六町一丁目４番１２号",
      "lat": 33.567327983,
      "lng": 130.314123138,
      "geocoding_level": 8,
      "phone": "092-882-7776",
      "license_no": "",
      "license_date": null,
      "expire_date": "2027-03-31"
    },
    {
      "name": "やま屋ミート",
      "name_kana": "",
      "business_type": "めん類製造業",
      "address": "福岡市西区拾六町一丁目４番１２号",
      "lat": 33.567327983,
      "lng": 130.314123138,
      "geocoding_level": 8,
      "phone": "092-882-7776",
      "license_no": "",
      "license_date": null,
      "expire_date": "2027-03-31"
    },
    {
      "name": "白十字病院",
      "name_kana": "",
      "business_type": "飲食店営業",
      "address": "福岡市西区石丸四丁目３番１号",
      "lat": 33.569966,
      "lng": 130.31519700000004,
      "geocoding_level": 3,
      "phone": "",
      "license_no": "",
      "license_date": null,
      "expire_date": "2027-03-31"
    },
    {
      "name": "釜揚げ牧のうどん　マリナタウン店",
      "name_kana": "",
      "business_type": "飲食店営業",
      "address": "福岡市西区豊浜三丁目１番１０号",
      "lat": 33.58927,
      "lng": 130.333735,
      "geocoding_level": 3,
      "phone": "092-885-8189",
      "license_no": "",
      "license_date": null,
      "expire_date": "2027-03-31"
    },
    {
      "name": "ラーメンよろしく",
      "name_kana": "",
      "business_type": "飲食店営業",
      "address": "福岡市西区田尻東一丁目１５番１２号",
      "lat": 33.582917,
      "lng": 130.323133,
      "geocoding_level": 2,
      "phone": "092-806-7866",
      "license_no": "",
      "license_date": null,
      "expire_date": "2027-03-31"
    },
    {
      "name": "ｃｏｃｏｌａｔｅ",
      "name_kana": "",
      "business_type": "菓子製造業",
      "address": "福岡市西区今宿三丁目１１番３８号",
      "lat": 33.579763132,
      "lng": 130.265913092,
      "geocoding_level": 8,
      "phone": "",
      "license_no": "",
      "license_date": null,
      "expire_date": "2027-03-31"
    },
    {
      "name": "ハウズ伊都店",
      "name_kana": "",
      "business_type": "飲食店営業",
      "address": "福岡市西区今宿西一丁目３３番３３号",
      "lat": 33.573614504,
      "lng": 130.267800511,
      "geocoding_level": 8,
      "phone": "092-805-8875",
      "license_no": "",
      "license_date": null,
      "expire_date": "2027-03-31"
    },
    {
      "name": "オーガニックキッチンまごころ",
      "name_kana": "",
      "business_type": "飲食店営業",
      "address": "福岡市西区小戸四丁目１３番１９号",
      "lat": 33.584553746,
      "lng": 130.318077135,
      "geocoding_level": 8,
      "phone": "092-885-1221",
      "license_no": "",
      "license_date": null,
      "expire_date": "2027-03-31"
    },
    {
      "name": "イート・フーズ",
      "name_kana": "",
      "business_type": "飲食店営業",
      "address": "福岡市西区小戸四丁目１３番１９号",
      "lat": 33.584553746,
      "lng": 130.318077135,
      "geocoding_level": 8,
      "phone": "",
      "license_no": "",
      "license_date": null,
      "expire_date": "2027-03-31"
    },
    {
      "name": "Ｙショップ白十字病院売店",
      "name_kana": "",
      "business_type": "飲食店営業",
      "address": "福岡市西区石丸四丁目３番１号",
      "lat": 33.569966,
      "lng": 130.31519700000004,
      "geocoding_level": 3,
      "phone": "092-894-1800",
      "license_no": "",
      "license_date": null,
      "expire_date": "2027-03-31"
    },
    {
      "name": "畜肉加工室",
      "name_kana": "",
      "business_type": "食肉製品製造業",
      "address": "福岡市西区元岡７４４",
      "lat": 33.591033,
      "lng": 130.221053,
      "geocoding_level": 3,
      "phone": "092-802-4915",
      "license_no": "",
      "license_date": null,
      "expire_date": "2027-03-31"
    },
    {
      "name": "みわちゃん",
      "name_kana": "",
      "business_type": "飲食店営業",
      "address": "福岡市西区姪の浜三丁目２４番１９号",
      "lat": 33.591239908,
      "lng": 130.324533837,
      "geocoding_level": 8,
      "phone": "092-892-6880",
      "license_no": "",
      "license_date": null,
      "expire_date": "2027-06-30"
    },
    {
      "name": "西の浦　イカ活造り　波平",
      "name_kana": "",
      "business_type": "魚介類販売業",
      "address": "福岡市西区西浦２８５番地　Ｃ棟",
      "lat": 33.653538,
      "lng": 130.215353,
      "geocoding_level": 3,
      "phone": "092-809-1533",
      "license_no": "",
      "license_date": null,
      "expire_date": "2027-06-30"
    },
    {
      "name": "西の浦　イカ活造り　波平",
      "name_kana": "",
      "business_type": "菓子製造業",
      "address": "福岡市西区西浦２８５番地　Ｃ棟",
      "lat": 33.653538,
      "lng": 130.215353,
      "geocoding_level": 3,
      "phone": "092-809-1533",
      "license_no": "",
      "license_date": null,
      "expire_date": "2027-06-30"
    },
    {
      "name": "（株）西日本食研",
      "name_kana": "",
      "business_type": "飲食店営業",
      "address": "福岡市西区戸切三丁目２３番１号",
      "lat": 33.551993283,
      "lng": 130.314177356,
      "geocoding_level": 8,
      "phone": "",
      "license_no": "",
      "license_date": null,
      "expire_date": "2027-06-30"
    },
    {
      "name": "Ｐｕｄｄｉｎｇ　Ｌａｂｏ",
      "name_kana": "",
      "business_type": "菓子製造業",
      "address": "福岡市西区上山門一丁目５番２４号",
      "lat": 33.574776656,
      "lng": 130.30512264,
      "geocoding_level": 8,
      "phone": "",
      "license_no": "",
      "license_date": null,
      "expire_date": "2027-06-30"
    },
    {
      "name": "梅翠",
      "name_kana": "",
      "business_type": "そうざい製造業",
      "address": "福岡市西区今宿東一丁目２番１号",
      "lat": 33.575160674,
      "lng": 130.276405504,
      "geocoding_level": 8,
      "phone": "092-982-6247",
      "license_no": "",
      "license_date": null,
      "expire_date": "2027-06-30"
    },
    {
      "name": "肉の山本",
      "name_kana": "",
      "business_type": "飲食店営業",
      "address": "福岡市西区下山門団地４０番２号",
      "lat": 33.578294,
      "lng": 130.306659,
      "geocoding_level": 3,
      "phone": "092-881-6874",
      "license_no": "",
      "license_date": null,
      "expire_date": "2027-06-30"
    },
    {
      "name": "ナチュラルナチュラル　イオンマリナタウン店",
      "name_kana": "",
      "business_type": "魚介類販売業",
      "address": "福岡市西区豊浜三丁目１番１０号",
      "lat": 33.58927,
      "lng": 130.333735,
      "geocoding_level": 3,
      "phone": "092-895-6860",
      "license_no": "",
      "license_date": null,
      "expire_date": "2027-06-30"
    },
    {
      "name": "Ｂｅｒｒｉｅｓ　Ｃａｆｅ",
      "name_kana": "",
      "business_type": "飲食店営業",
      "address": "福岡市西区千里２０８番地１",
      "lat": 33.562309,
      "lng": 130.243392,
      "geocoding_level": 3,
      "phone": "",
      "license_no": "",
      "license_date": null,
      "expire_date": "2027-06-30"
    },
    {
      "name": "ＰＤハウス今宿",
      "name_kana": "",
      "business_type": "飲食店営業",
      "address": "福岡市西区今宿一丁目３番１７号",
      "lat": 33.581016335,
      "lng": 130.27122998,
      "geocoding_level": 8,
      "phone": "",
      "license_no": "",
      "license_date": null,
      "expire_date": "2027-06-30"
    },
    {
      "name": "Ｌａｎｇａ　Ｊａｐａｎ株式会社",
      "name_kana": "",
      "business_type": "菓子製造業",
      "address": "福岡市西区福重一丁目１８番１０号",
      "lat": 33.564841566,
      "lng": 130.325742642,
      "geocoding_level": 8,
      "phone": "092-982-2861",
      "license_no": "",
      "license_date": null,
      "expire_date": "2027-06-30"
    },
    {
      "name": "Ｌａｎｇａ　Ｊａｐａｎ株式会社",
      "name_kana": "",
      "business_type": "そうざい製造業",
      "address": "福岡市西区福重一丁目１８番１０号",
      "lat": 33.564841566,
      "lng": 130.325742642,
      "geocoding_level": 8,
      "phone": "092-982-2861",
      "license_no": "",
      "license_date": null,
      "expire_date": "2027-06-30"
    },
    {
      "name": "Ｌａｎｇａ　Ｊａｐａｎ株式会社",
      "name_kana": "",
      "business_type": "食品の冷凍又は冷蔵業",
      "address": "福岡市西区福重一丁目１８番１０号",
      "lat": 33.564841566,
      "lng": 130.325742642,
      "geocoding_level": 8,
      "phone": "092-982-2861",
      "license_no": "",
      "license_date": null,
      "expire_date": "2027-06-30"
    },
    {
      "name": "Ｃａｐｐａｄｏｃｉａ　Ｋｉｔｃｈｅｎ",
      "name_kana": "",
      "business_type": "飲食店営業",
      "address": "福岡市西区上山門三丁目４番１０号",
      "lat": 33.575139436,
      "lng": 130.300826811,
      "geocoding_level": 8,
      "phone": "092-517-1432",
      "license_no": "",
      "license_date": null,
      "expire_date": "2027-06-30"
    },
    {
      "name": "リュウナン",
      "name_kana": "",
      "business_type": "魚介類販売業",
      "address": "福岡市西区今津３４３７番地３",
      "lat": 33.609809,
      "lng": 130.252145,
      "geocoding_level": 3,
      "phone": "092-806-4588",
      "license_no": "",
      "license_date": null,
      "expire_date": "2027-06-30"
    },
    {
      "name": "鰤っ子",
      "name_kana": "",
      "business_type": "飲食店営業",
      "address": "福岡市西区姪の浜三丁目２３番７号",
      "lat": 33.590924749,
      "lng": 130.324169864,
      "geocoding_level": 8,
      "phone": "092-881-0589",
      "license_no": "",
      "license_date": null,
      "expire_date": "2027-06-30"
    },
    {
      "name": "ハレノヒ",
      "name_kana": "",
      "business_type": "飲食店営業",
      "address": "福岡市西区千里７０６番地１",
      "lat": 33.56409414,
      "lng": 130.241543528,
      "geocoding_level": 8,
      "phone": "",
      "license_no": "",
      "license_date": null,
      "expire_date": "2027-06-30"
    },
    {
      "name": "エフコ－プ上山門店",
      "name_kana": "",
      "business_type": "飲食店営業",
      "address": "福岡市西区上山門一丁目１３番３０号",
      "lat": 33.574037775,
      "lng": 130.307651873,
      "geocoding_level": 8,
      "phone": "092-883-2169",
      "license_no": "",
      "license_date": null,
      "expire_date": "2027-06-30"
    },
    {
      "name": "リトル・クルサ伊都九大前店",
      "name_kana": "",
      "business_type": "飲食店営業",
      "address": "福岡市西区元浜一丁目２７番３号",
      "lat": 33.59224,
      "lng": 130.227451,
      "geocoding_level": 3,
      "phone": "092-400-1318",
      "license_no": "",
      "license_date": null,
      "expire_date": "2027-06-30"
    },
    {
      "name": "いつでもＣＯＣＯのお店から",
      "name_kana": "",
      "business_type": "飲食店営業",
      "address": "福岡市西区田尻東二丁目２５２８番地５",
      "lat": 33.582917,
      "lng": 130.323133,
      "geocoding_level": 2,
      "phone": "",
      "license_no": "",
      "license_date": null,
      "expire_date": "2027-06-30"
    },
    {
      "name": "魚処かいせい",
      "name_kana": "",
      "business_type": "菓子製造業",
      "address": "福岡市西区周船寺一丁目１２番３６号",
      "lat": 33.572928397,
      "lng": 130.243080671,
      "geocoding_level": 8,
      "phone": "092-807-3112",
      "license_no": "",
      "license_date": null,
      "expire_date": "2027-06-30"
    },
    {
      "name": "魚処かいせい",
      "name_kana": "",
      "business_type": "そうざい製造業",
      "address": "福岡市西区周船寺一丁目１２番３６号",
      "lat": 33.572928397,
      "lng": 130.243080671,
      "geocoding_level": 8,
      "phone": "092-807-3112",
      "license_no": "",
      "license_date": null,
      "expire_date": "2027-06-30"
    },
    {
      "name": "町家かふぇ　かまくら",
      "name_kana": "",
      "business_type": "飲食店営業",
      "address": "福岡市西区福重一丁目１３番５号",
      "lat": 33.564525077,
      "lng": 130.323408338,
      "geocoding_level": 8,
      "phone": "092-883-5667",
      "license_no": "",
      "license_date": null,
      "expire_date": "2027-06-30"
    },
    {
      "name": "ファミリーマート福岡下山門通り店",
      "name_kana": "",
      "business_type": "飲食店営業",
      "address": "福岡市西区下山門一丁目１３番１８号",
      "lat": 33.579409217,
      "lng": 130.315442534,
      "geocoding_level": 8,
      "phone": "092-892-8012",
      "license_no": "",
      "license_date": null,
      "expire_date": "2027-06-30"
    },
    {
      "name": "むっちゃん万十　野方店",
      "name_kana": "",
      "business_type": "飲食店営業",
      "address": "福岡市西区野方一丁目２２番１８号",
      "lat": 33.559034288,
      "lng": 130.311602122,
      "geocoding_level": 8,
      "phone": "092-407-7338",
      "license_no": "",
      "license_date": null,
      "expire_date": "2027-06-30"
    },
    {
      "name": "小冨士屋",
      "name_kana": "",
      "business_type": "飲食店営業",
      "address": "福岡市西区周船寺二丁目８番３４号",
      "lat": 33.572485223,
      "lng": 130.245844219,
      "geocoding_level": 8,
      "phone": "092-806-1046",
      "license_no": "",
      "license_date": null,
      "expire_date": "2027-06-30"
    },
    {
      "name": "小冨士屋",
      "name_kana": "",
      "business_type": "魚介類販売業",
      "address": "福岡市西区周船寺二丁目８番３４号",
      "lat": 33.572485223,
      "lng": 130.245844219,
      "geocoding_level": 8,
      "phone": "092-806-1046",
      "license_no": "",
      "license_date": null,
      "expire_date": "2027-06-30"
    },
    {
      "name": "肉のみつわ",
      "name_kana": "",
      "business_type": "食肉販売業",
      "address": "福岡市西区周船寺一丁目１６番２号",
      "lat": 33.572153782,
      "lng": 130.24139126,
      "geocoding_level": 8,
      "phone": "092-807-2917",
      "license_no": "",
      "license_date": null,
      "expire_date": "2027-06-30"
    },
    {
      "name": "ぢどり屋",
      "name_kana": "",
      "business_type": "飲食店営業",
      "address": "福岡市西区石丸三丁目４６番４号",
      "lat": 33.576109825,
      "lng": 130.314700146,
      "geocoding_level": 8,
      "phone": "092-883-0666",
      "license_no": "",
      "license_date": null,
      "expire_date": "2027-06-30"
    },