{
  "meta": {
    "updated": 1783906731,
    "sources": [
      {
        "source": "長野県食品営業許可施設",
        "license": "要確認"
      },
      {
        "source": "厚生労働省 食品衛生申請等システム（オープンデータ）",
        "license": "公共データ利用規約（第1.0版, PDL1.0）"
      }
    ]
  },
  "data": [
    {
      "name": "有限会社立石商店",
      "name_kana": "",
      "business_type": "菓子製造業",
      "address": "上伊那郡箕輪町中箕輪８４２６",
      "lat": 35.924353,
      "lng": 137.938672,
      "geocoding_level": 3,
      "phone": "",
      "license_no": "第06139292号",
      "license_date": "2019-06-28",
      "expire_date": "2026-06-30"
    },
    {
      "name": "アルピ",
      "name_kana": "",
      "business_type": "飲食店営業",
      "address": "上伊那郡箕輪町大字中箕輪１８５１－４ 第３コマツビル１階",
      "lat": 35.940101198,
      "lng": 137.977932874,
      "geocoding_level": 8,
      "phone": "",
      "license_no": "第06237270号",
      "license_date": "2019-07-18",
      "expire_date": "2026-06-30"
    },
    {
      "name": "LongHills　eco　guesthouse　 and　cafe",
      "name_kana": "",
      "business_type": "飲食店営業",
      "address": "上伊那郡箕輪町大字東箕輪３３１－２",
      "lat": 35.924387052,
      "lng": 138.005457356,
      "geocoding_level": 8,
      "phone": "",
      "license_no": "第06237682号",
      "license_date": "2019-09-03",
      "expire_date": "2026-06-30"
    },
    {
      "name": "ザ・マニラ",
      "name_kana": "",
      "business_type": "飲食店営業",
      "address": "上伊那郡箕輪町中箕輪８４８６－７",
      "lat": 35.924353,
      "lng": 137.938672,
      "geocoding_level": 3,
      "phone": "",
      "license_no": "第06238948号",
      "license_date": "2020-03-05",
      "expire_date": "2026-06-30"
    },
    {
      "name": "やまびこ　テラス",
      "name_kana": "",
      "business_type": "飲食店営業",
      "address": "上伊那郡箕輪町大字中箕輪３７３０－１５６",
      "lat": 35.9351975,
      "lng": 137.966014747,
      "geocoding_level": 8,
      "phone": "",
      "license_no": "第06238827号",
      "license_date": "2020-02-14",
      "expire_date": "2026-06-30"
    },
    {
      "name": "たまや食堂",
      "name_kana": "",
      "business_type": "飲食店営業",
      "address": "上伊那郡箕輪町大字中箕輪１３９９",
      "lat": 35.94040286,
      "lng": 137.978109555,
      "geocoding_level": 8,
      "phone": "",
      "license_no": "第06238072号",
      "license_date": "2019-10-24",
      "expire_date": "2026-06-30"
    },
    {
      "name": "カンチーニョ　ダ　ドナ　ロジーニャ",
      "name_kana": "",
      "business_type": "飲食店営業",
      "address": "上伊那郡箕輪町大字中箕輪３７３０－５６０",
      "lat": 35.935540267,
      "lng": 137.956827982,
      "geocoding_level": 8,
      "phone": "",
      "license_no": "第06239676号",
      "license_date": "2020-06-11",
      "expire_date": "2026-06-30"
    },
    {
      "name": "カンチーニョ　ダ　ドナ　ロジーニャ",
      "name_kana": "",
      "business_type": "食肉販売業",
      "address": "上伊那郡箕輪町大字中箕輪３７３０－５６０",
      "lat": 35.935540267,
      "lng": 137.956827982,
      "geocoding_level": 8,
      "phone": "",
      "license_no": "第06239683号",
      "license_date": "2020-06-11",
      "expire_date": "2026-06-30"
    },
    {
      "name": "有限会社伊藤屋精肉店",
      "name_kana": "",
      "business_type": "食肉処理業",
      "address": "上伊那郡箕輪町中箕輪９７１１",
      "lat": 35.924353,
      "lng": 137.938672,
      "geocoding_level": 3,
      "phone": "",
      "license_no": "第06015048号",
      "license_date": "2020-06-30",
      "expire_date": "2026-06-30"
    },
    {
      "name": "有限会社伊藤屋精肉店",
      "name_kana": "",
      "business_type": "食肉販売業",
      "address": "上伊那郡箕輪町中箕輪９７１１",
      "lat": 35.924353,
      "lng": 137.938672,
      "geocoding_level": 3,
      "phone": "",
      "license_no": "第06017573号",
      "license_date": "2020-06-30",
      "expire_date": "2026-06-30"
    },
    {
      "name": "明日香",
      "name_kana": "",
      "business_type": "飲食店営業",
      "address": "上伊那郡箕輪町中箕輪９４９９",
      "lat": 35.924353,
      "lng": 137.938672,
      "geocoding_level": 3,
      "phone": "",
      "license_no": "第06033467号",
      "license_date": "2020-06-30",
      "expire_date": "2026-06-30"
    },
    {
      "name": "辰己屋",
      "name_kana": "",
      "business_type": "飲食店営業",
      "address": "上伊那郡箕輪町中箕輪８５０３",
      "lat": 35.924353,
      "lng": 137.938672,
      "geocoding_level": 3,
      "phone": "",
      "license_no": "第06034109号",
      "license_date": "2020-06-30",
      "expire_date": "2026-06-30"
    },
    {
      "name": "（株）エグロ箕輪工場食堂",
      "name_kana": "",
      "business_type": "飲食店営業",
      "address": "上伊那郡箕輪町東箕輪４９６４",
      "lat": 35.937934000000006,
      "lng": 138.036741,
      "geocoding_level": 3,
      "phone": "",
      "license_no": "第06139891号",
      "license_date": "2020-06-30",
      "expire_date": "2026-06-30"
    },
    {
      "name": "有限会社大坂屋",
      "name_kana": "",
      "business_type": "菓子製造業",
      "address": "上伊那郡箕輪町大字中箕輪１２５５９－１",
      "lat": 35.899823142,
      "lng": 137.985794972,
      "geocoding_level": 8,
      "phone": "",
      "license_no": "第06139972号",
      "license_date": "2020-06-30",
      "expire_date": "2026-06-30"
    },
    {
      "name": "スナック　結",
      "name_kana": "",
      "business_type": "飲食店営業",
      "address": "上伊那郡箕輪町松島通り町１　９５３４番地",
      "lat": 35.915743,
      "lng": 137.983541,
      "geocoding_level": 3,
      "phone": "",
      "license_no": "第06219589号",
      "license_date": "2020-06-30",
      "expire_date": "2026-06-30"
    },
    {
      "name": "クアトロ　フォリオ",
      "name_kana": "",
      "business_type": "飲食店営業",
      "address": "上伊那郡箕輪町大字中箕輪９５６０番地１",
      "lat": 35.913389245,
      "lng": 137.98527477,
      "geocoding_level": 8,
      "phone": "",
      "license_no": "第06221031号",
      "license_date": "2020-06-30",
      "expire_date": "2026-06-30"
    },
    {
      "name": "花菱",
      "name_kana": "",
      "business_type": "飲食店営業",
      "address": "上伊那郡箕輪町大字中箕輪９４７６",
      "lat": 35.924353,
      "lng": 137.938672,
      "geocoding_level": 3,
      "phone": "",
      "license_no": "第06221048号",
      "license_date": "2020-06-30",
      "expire_date": "2026-06-30"
    },
    {
      "name": "麺屋　かなた",
      "name_kana": "",
      "business_type": "飲食店営業",
      "address": "上伊那郡箕輪町大字中箕輪９５６０番地１",
      "lat": 35.913389245,
      "lng": 137.98527477,
      "geocoding_level": 8,
      "phone": "",
      "license_no": "第06221137号",
      "license_date": "2020-06-30",
      "expire_date": "2026-06-30"
    },
    {
      "name": "スナック　向日葵",
      "name_kana": "",
      "business_type": "飲食店営業",
      "address": "上伊那郡箕輪町中箕輪９６１４－１井桁屋ビル２Ｆ西",
      "lat": 35.912005452,
      "lng": 137.985487646,
      "geocoding_level": 8,
      "phone": "",
      "license_no": "第06221233号",
      "license_date": "2020-06-30",
      "expire_date": "2026-06-30"
    },
    {
      "name": "くるまやラーメン箕輪店",
      "name_kana": "",
      "business_type": "飲食店営業",
      "address": "上伊那郡箕輪町中箕輪８９３０－２",
      "lat": 35.909713764,
      "lng": 137.993992171,
      "geocoding_level": 8,
      "phone": "",
      "license_no": "第06139449号",
      "license_date": "2020-06-30",
      "expire_date": "2026-06-30"
    },
    {
      "name": "台湾料理　昇龍",
      "name_kana": "",
      "business_type": "飲食店営業",
      "address": "上伊那郡箕輪町大字中箕輪１４０１６－３４６",
      "lat": 35.90181899,
      "lng": 137.955427478,
      "geocoding_level": 8,
      "phone": "",
      "license_no": "第06241588号",
      "license_date": "2021-03-31",
      "expire_date": "2027-06-30"
    },
    {
      "name": "吉野屋",
      "name_kana": "",
      "business_type": "飲食店営業",
      "address": "上伊那郡箕輪町中曽根８４",
      "lat": 35.906965,
      "lng": 137.950454,
      "geocoding_level": 3,
      "phone": "",
      "license_no": "第06241442号",
      "license_date": "2021-03-25",
      "expire_date": "2027-06-30"
    },
    {
      "name": "お好みダイニング　あすく",
      "name_kana": "",
      "business_type": "飲食店営業",
      "address": "上伊那郡箕輪町大字中箕輪８４３５－４",
      "lat": 35.914155112,
      "lng": 137.984848515,
      "geocoding_level": 8,
      "phone": "",
      "license_no": "第06241912号",
      "license_date": "2021-05-27",
      "expire_date": "2027-06-30"
    },
    {
      "name": "ベルシャイン　箕輪店",
      "name_kana": "",
      "business_type": "飲食店営業",
      "address": "上伊那郡箕輪町三日町９３３－１",
      "lat": 35.899761,
      "lng": 137.998256,
      "geocoding_level": 3,
      "phone": "",
      "license_no": "第06197737号",
      "license_date": "2020-06-30",
      "expire_date": "2026-06-30"
    },
    {
      "name": "ベルシャイン　箕輪店",
      "name_kana": "",
      "business_type": "飲食店営業",
      "address": "上伊那郡箕輪町三日町９３３－１",
      "lat": 35.899761,
      "lng": 137.998256,
      "geocoding_level": 3,
      "phone": "",
      "license_no": "第06197751号",
      "license_date": "2020-06-30",
      "expire_date": "2026-06-30"
    },
    {
      "name": "ベルシャイン　箕輪店",
      "name_kana": "",
      "business_type": "魚介類販売業",
      "address": "上伊那郡箕輪町三日町９３３－１",
      "lat": 35.899761,
      "lng": 137.998256,
      "geocoding_level": 3,
      "phone": "",
      "license_no": "第06197776号",
      "license_date": "2020-06-30",
      "expire_date": "2026-06-30"
    },
    {
      "name": "ベルシャイン　箕輪店",
      "name_kana": "",
      "business_type": "食肉販売業",
      "address": "上伊那郡箕輪町三日町９３３－１",
      "lat": 35.899761,
      "lng": 137.998256,
      "geocoding_level": 3,
      "phone": "",
      "license_no": "第06197783号",
      "license_date": "2020-06-30",
      "expire_date": "2026-06-30"
    },
    {
      "name": "ベルシャイン　箕輪店",
      "name_kana": "",
      "business_type": "菓子製造業",
      "address": "上伊那郡箕輪町三日町９３３－１",
      "lat": 35.899761,
      "lng": 137.998256,
      "geocoding_level": 3,
      "phone": "",
      "license_no": "第06197801号",
      "license_date": "2020-06-30",
      "expire_date": "2026-06-30"
    },
    {
      "name": "ぴいぷるたうん",
      "name_kana": "",
      "business_type": "飲食店営業",
      "address": "上伊那郡箕輪町大字中箕輪９４７７－５　２階",
      "lat": 35.913826981,
      "lng": 137.98797685100004,
      "geocoding_level": 8,
      "phone": "",
      "license_no": "第06107160号",
      "license_date": "2020-06-30",
      "expire_date": "2026-06-30"
    },
    {
      "name": "居酒屋　春香",
      "name_kana": "",
      "business_type": "飲食店営業",
      "address": "上伊那郡箕輪町大字中箕輪８５０４－１春香ビル",
      "lat": 35.91405914600001,
      "lng": 137.988071673,
      "geocoding_level": 8,
      "phone": "",
      "license_no": "第06219379号",
      "license_date": "2020-06-30",
      "expire_date": "2026-06-30"
    },
    {
      "name": "ｌｉｔｔｌｅ　ｒｉｖｅｒ　ＡＢＦ－ＳＹＥ６Ｔ",
      "name_kana": "",
      "business_type": "飲食店営業",
      "address": "上伊那郡箕輪町中曽根３０５－２",
      "lat": 35.907590627,
      "lng": 137.944133298,
      "geocoding_level": 8,
      "phone": "",
      "license_no": "第06241353号",
      "license_date": "2021-03-17",
      "expire_date": "2026-06-30"
    },
    {
      "name": "ｍ０９１４０",
      "name_kana": "",
      "business_type": "飲食店営業",
      "address": "上伊那郡箕輪町中箕輪１４０１７－１１",
      "lat": 35.900393604,
      "lng": 137.954523198,
      "geocoding_level": 8,
      "phone": "",
      "license_no": "第06126381号",
      "license_date": "2019-06-28",
      "expire_date": "2026-06-30"
    },
    {
      "name": "ｍ１１２４３",
      "name_kana": "",
      "business_type": "飲食店営業",
      "address": "上伊那郡箕輪町中箕輪８７９３",
      "lat": 35.924353,
      "lng": 137.938672,
      "geocoding_level": 3,
      "phone": "",
      "license_no": "第06217450号",
      "license_date": "2020-06-30",
      "expire_date": "2027-06-30"
    },
    {
      "name": "ラーメン　竜雅",
      "name_kana": "",
      "business_type": "飲食店営業",
      "address": "上伊那郡箕輪町中箕輪８０５１",
      "lat": 35.924353,
      "lng": 137.938672,
      "geocoding_level": 3,
      "phone": "",
      "license_no": "第06148544号",
      "license_date": "2020-06-30",
      "expire_date": "2026-06-30"
    },
    {
      "name": "メフォス０１８９１号店",
      "name_kana": "",
      "business_type": "飲食店営業",
      "address": "上伊那郡箕輪町大字中箕輪４７５",
      "lat": 35.924353,
      "lng": 137.938672,
      "geocoding_level": 3,
      "phone": "",
      "license_no": "第06180710号",
      "license_date": "2019-06-28",
      "expire_date": "2026-06-30"
    },
    {
      "name": "牛角　箕輪店",
      "name_kana": "",
      "business_type": "飲食店営業",
      "address": "上伊那郡箕輪町大字中箕輪１１２９９－１",
      "lat": 35.903802057,
      "lng": 137.99364601,
      "geocoding_level": 8,
      "phone": "",
      "license_no": "第06239007号",
      "license_date": "2020-03-12",
      "expire_date": "2026-06-30"
    },
    {
      "name": "イオンリテール（株）イオン箕輪店",
      "name_kana": "",
      "business_type": "飲食店営業",
      "address": "上伊那郡箕輪町大字中箕輪９０２５番地",
      "lat": 35.924353,
      "lng": 137.938672,
      "geocoding_level": 3,
      "phone": "",
      "license_no": "第06193062号",
      "license_date": "2020-06-30",
      "expire_date": "2026-06-30"
    },
    {
      "name": "株式会社西友　箕輪店",
      "name_kana": "",
      "business_type": "魚介類販売業",
      "address": "上伊那郡箕輪町大字中箕輪字北島８００８",
      "lat": 35.924353,
      "lng": 137.938672,
      "geocoding_level": 3,
      "phone": "",
      "license_no": "第06163126号",
      "license_date": "2020-06-30",
      "expire_date": "2026-06-30"
    },
    {
      "name": "旭松食品株式会社",
      "name_kana": "",
      "business_type": "食品の小分け業",
      "address": "上伊那郡箕輪町大字中箕輪９９４５－２",
      "lat": 35.918056117,
      "lng": 137.988369134,
      "geocoding_level": 8,
      "phone": "",
      "license_no": "第06243062号",
      "license_date": "2021-11-11",
      "expire_date": "2028-06-30"
    },
    {
      "name": "楽腹",
      "name_kana": "",
      "business_type": "飲食店営業",
      "address": "上伊那郡箕輪町中箕輪８２９５－５",
      "lat": 35.917696493,
      "lng": 137.991330929,
      "geocoding_level": 8,
      "phone": "",
      "license_no": "第06242074号",
      "license_date": "2021-06-17",
      "expire_date": "2027-06-30"
    },
    {
      "name": "株式会社　伸光製作所",
      "name_kana": "",
      "business_type": "飲食店営業",
      "address": "上伊那郡箕輪町大字中箕輪１２２３８",
      "lat": 35.924353,
      "lng": 137.938672,
      "geocoding_level": 3,
      "phone": "",
      "license_no": "第06248497号",
      "license_date": "2024-01-26",
      "expire_date": "2030-06-30"
    },
    {
      "name": "ハシャブ",
      "name_kana": "",
      "business_type": "飲食店営業",
      "address": "上伊那郡箕輪町中箕輪３５２５－１２",
      "lat": 35.933244794,
      "lng": 137.965693027,
      "geocoding_level": 8,
      "phone": "",
      "license_no": "第06242156号",
      "license_date": "2021-06-25",
      "expire_date": "2026-06-30"
    },
    {
      "name": "ハシャブ",
      "name_kana": "",
      "business_type": "飲食店営業",
      "address": "上伊那郡箕輪町大字中箕輪３５２５番地１２",
      "lat": 35.933244794,
      "lng": 137.965693027,
      "geocoding_level": 8,
      "phone": "",
      "license_no": "第06181455号",
      "license_date": "2023-06-30",
      "expire_date": "2029-06-30"
    },
    {
      "name": "ｔａｂｌｅ　ｔｏｐ",
      "name_kana": "",
      "business_type": "そうざい製造業",
      "address": "上伊那郡箕輪町大字中箕輪８２４１",
      "lat": 35.91875154,
      "lng": 137.990485219,
      "geocoding_level": 8,
      "phone": "",
      "license_no": "第06242171号",
      "license_date": "2021-07-02",
      "expire_date": "2028-06-30"
    },
    {
      "name": "ｔａｂｌｅ　ｔｏｐ　ＫＣ－ＶＫＲ６６Ｋ",
      "name_kana": "",
      "business_type": "飲食店営業",
      "address": "上伊那郡箕輪町大字中箕輪８４８０－５",
      "lat": 35.915406671,
      "lng": 137.985045232,
      "geocoding_level": 8,
      "phone": "",
      "license_no": "第06234572号",
      "license_date": "2024-06-28",
      "expire_date": "2029-06-30"
    },
    {
      "name": "ｔａｂｌｅ　ｔｏｐ",
      "name_kana": "",
      "business_type": "飲食店営業",
      "address": "上伊那郡箕輪町大字中箕輪８２４１",
      "lat": 35.91875154,
      "lng": 137.990485219,
      "geocoding_level": 8,
      "phone": "",
      "license_no": "第06239509号",
      "license_date": "2025-06-30",
      "expire_date": "2030-06-30"
    },
    {
      "name": "EVERYFOOD（0477）事業所",
      "name_kana": "",
      "business_type": "飲食店営業",
      "address": "上伊那郡箕輪町大字中箕輪6062 特養 グレイスフル箕輪　給食室",
      "lat": 35.920486762,
      "lng": 137.949668119,
      "geocoding_level": 8,
      "phone": "",
      "license_no": "第06182386号",
      "license_date": "2023-06-30",
      "expire_date": "2029-06-30"
    },
    {
      "name": "EVERYFOOD（0477-1）事業所",
      "name_kana": "",
      "business_type": "飲食店営業",
      "address": "上伊那郡箕輪町大字中箕輪6065 デイサービス　グレイスフル箕輪　給食室",
      "lat": 35.920418673,
      "lng": 137.950067775,
      "geocoding_level": 8,
      "phone": "",
      "license_no": "第06209004号",
      "license_date": "2023-06-30",
      "expire_date": "2029-06-30"
    },
    {
      "name": "（有）とざ和",
      "name_kana": "",
      "business_type": "飲食店営業",
      "address": "上伊那郡箕輪町東箕輪１２０８－１",
      "lat": 35.918139158,
      "lng": 137.996297339,
      "geocoding_level": 8,
      "phone": "",
      "license_no": "第06118241号",
      "license_date": "2022-06-30",
      "expire_date": "2028-06-30"
    },
    {
      "name": "ナチュラルセンス",
      "name_kana": "",
      "business_type": "飲食店営業",
      "address": "上伊那郡箕輪町中箕輪１４３５８－１",
      "lat": 35.906541863,
      "lng": 137.95849209,
      "geocoding_level": 8,
      "phone": "",
      "license_no": "第06227301号",
      "license_date": "2021-06-30",
      "expire_date": "2026-06-30"
    },
    {
      "name": "やまびこテラス",
      "name_kana": "",
      "business_type": "飲食店営業",
      "address": "上伊那郡箕輪町中曽根２８７",
      "lat": 35.904196222,
      "lng": 137.950305529,
      "geocoding_level": 8,
      "phone": "",
      "license_no": "第06242310号",
      "license_date": "2021-07-16",
      "expire_date": "2027-06-30"
    },
    {
      "name": "やまびこテラス",
      "name_kana": "",
      "business_type": "飲食店営業",
      "address": "上伊那郡箕輪町中曽根２８７",
      "lat": 35.904196222,
      "lng": 137.950305529,
      "geocoding_level": 8,
      "phone": "",
      "license_no": "第06242327号",
      "license_date": "2021-07-16",
      "expire_date": "2027-06-30"
    },
    {
      "name": "ベルシャイン伊北店",
      "name_kana": "",
      "business_type": "飲食店営業",
      "address": "上伊那郡箕輪町中箕輪３０１１－１",
      "lat": 35.932440786,
      "lng": 137.978507303,
      "geocoding_level": 8,
      "phone": "",
      "license_no": "第06115619号",
      "license_date": "2021-06-30",
      "expire_date": "2026-06-30"
    },
    {
      "name": "ベルシャイン　伊北店（鮮魚寿司）",
      "name_kana": "",
      "business_type": "飲食店営業",
      "address": "上伊那郡箕輪町中箕輪３０１１－１",
      "lat": 35.932440786,
      "lng": 137.978507303,
      "geocoding_level": 8,
      "phone": "",
      "license_no": "第06180136号",
      "license_date": "2023-06-30",
      "expire_date": "2029-06-30"
    },
    {
      "name": "ベルシャイン伊北店",
      "name_kana": "",
      "business_type": "菓子製造業",
      "address": "上伊那郡箕輪町中箕輪３０１１－１",
      "lat": 35.932440786,
      "lng": 137.978507303,
      "geocoding_level": 8,
      "phone": "",
      "license_no": "第06163681号",
      "license_date": "2024-06-28",
      "expire_date": "2030-06-30"
    },
    {
      "name": "ベルシャイン伊北店",
      "name_kana": "",
      "business_type": "食肉販売業",
      "address": "上伊那郡箕輪町中箕輪３０１１－１",
      "lat": 35.932440786,
      "lng": 137.978507303,
      "geocoding_level": 8,
      "phone": "",
      "license_no": "第06115569号",
      "license_date": "2025-06-30",
      "expire_date": "2031-06-30"
    },
    {
      "name": "ベルシャイン伊北店",
      "name_kana": "",
      "business_type": "魚介類販売業",
      "address": "上伊那郡箕輪町中箕輪３０１１－１",
      "lat": 35.932440786,
      "lng": 137.978507303,
      "geocoding_level": 8,
      "phone": "",
      "license_no": "第06115626号",
      "license_date": "2025-06-30",
      "expire_date": "2031-06-30"
    },
    {
      "name": "シャントン（山東）",
      "name_kana": "",
      "business_type": "飲食店営業",
      "address": "上伊那郡箕輪町中箕輪１２０６２",
      "lat": 35.924353,
      "lng": 137.938672,
      "geocoding_level": 3,
      "phone": "",
      "license_no": "第06033983号",
      "license_date": "2021-06-30",
      "expire_date": "2026-06-30"
    },
    {
      "name": "ローソン箕輪町松島店",
      "name_kana": "",
      "business_type": "飲食店営業",
      "address": "上伊那郡箕輪町中箕輪８２９６",
      "lat": 35.924353,
      "lng": 137.938672,
      "geocoding_level": 3,
      "phone": "",
      "license_no": "第06148779号",
      "license_date": "2021-06-30",
      "expire_date": "2026-06-30"
    },
    {
      "name": "ローソン　箕輪中央店",
      "name_kana": "",
      "business_type": "飲食店営業",
      "address": "上伊那郡箕輪町中箕輪９５３８－１",
      "lat": 35.913074232,
      "lng": 137.986016944,
      "geocoding_level": 8,
      "phone": "",
      "license_no": "第06232016号",
      "license_date": "2023-06-30",
      "expire_date": "2028-06-30"
    },
    {
      "name": "ローソン　箕輪町松島店",
      "name_kana": "",
      "business_type": "飲食店営業",
      "address": "上伊那郡箕輪町中箕輪８２９６",
      "lat": 35.924353,
      "lng": 137.938672,
      "geocoding_level": 3,
      "phone": "",
      "license_no": "第06192804号",
      "license_date": "2023-06-30",
      "expire_date": "2028-06-30"
    },
    {
      "name": "養老乃瀧箕輪町店",
      "name_kana": "",
      "business_type": "飲食店営業",
      "address": "上伊那郡箕輪町大字中箕輪９４９８",
      "lat": 35.924353,
      "lng": 137.938672,
      "geocoding_level": 3,
      "phone": "",
      "license_no": "第06154675号",
      "license_date": "2021-06-30",
      "expire_date": "2027-06-30"
    },
    {
      "name": "養老乃瀧　箕輪店",
      "name_kana": "",
      "business_type": "飲食店営業",
      "address": "上伊那郡箕輪町中箕輪９４９８",
      "lat": 35.924353,
      "lng": 137.938672,
      "geocoding_level": 3,
      "phone": "",
      "license_no": "第06250142号",
      "license_date": "2024-07-23",
      "expire_date": "2030-06-30"
    },
    {
      "name": "みのわ造花料理部",
      "name_kana": "",
      "business_type": "飲食店営業",
      "address": "上伊那郡箕輪町大字中箕輪字王墓８５５７",
      "lat": 35.924353,
      "lng": 137.938672,
      "geocoding_level": 3,
      "phone": "",
      "license_no": "第06155325号",
      "license_date": "2021-06-30",
      "expire_date": "2027-06-30"
    },
    {
      "name": "みのわ造花　料理部",
      "name_kana": "",
      "business_type": "飲食店営業",
      "address": "上伊那郡箕輪町大字中箕輪１３０５９－４",
      "lat": 35.906864817,
      "lng": 137.985379664,
      "geocoding_level": 8,
      "phone": "",
      "license_no": "第06143045号",
      "license_date": "2022-06-30",
      "expire_date": "2028-06-30"
    },
    {
      "name": "夢郷",
      "name_kana": "",
      "business_type": "飲食店営業",
      "address": "上伊那郡箕輪町大字中箕輪８５０３－７",
      "lat": 35.914327772,
      "lng": 137.988091787,
      "geocoding_level": 8,
      "phone": "",
      "license_no": "第06164930号",
      "license_date": "2021-06-30",
      "expire_date": "2026-06-30"
    },
    {
      "name": "（株）綿半ホームエイド　箕輪店",
      "name_kana": "",
      "business_type": "魚介類販売業",
      "address": "上伊那郡箕輪町大字三日町９６０－１",
      "lat": 35.899761,
      "lng": 137.998256,
      "geocoding_level": 3,
      "phone": "",
      "license_no": "第06199179号",
      "license_date": "2021-06-30",
      "expire_date": "2027-06-30"
    },
    {
      "name": "セブンーイレブン　箕輪松島店",
      "name_kana": "",
      "business_type": "飲食店営業",
      "address": "上伊那郡箕輪町大字中箕輪字鉄砲島８８６１番",
      "lat": 35.924353,
      "lng": 137.938672,
      "geocoding_level": 3,
      "phone": "",
      "license_no": "第06227575号",
      "license_date": "2021-06-30",
      "expire_date": "2026-06-30"
    },
    {
      "name": "セブンイレブン　箕輪三日町店",
      "name_kana": "",
      "business_type": "飲食店営業",
      "address": "上伊那郡箕輪町大字三日町字城９６２番３",
      "lat": 35.899761,
      "lng": 137.998256,
      "geocoding_level": 3,
      "phone": "",
      "license_no": "第06203994号",
      "license_date": "2021-06-30",
      "expire_date": "2026-06-30"
    },
    {
      "name": "セブンイレブン箕輪東箕輪店",
      "name_kana": "",
      "business_type": "飲食店営業",
      "address": "上伊那郡箕輪町東箕輪４１７７－１",
      "lat": 35.943592803,
      "lng": 137.996071812,
      "geocoding_level": 8,
      "phone": "",
      "license_no": "第06209634号",
      "license_date": "2021-06-30",
      "expire_date": "2026-06-30"
    },
    {
      "name": "ますや旅館",
      "name_kana": "",
      "business_type": "飲食店営業",
      "address": "上伊那郡箕輪町大字中箕輪１２５６４",
      "lat": 35.924353,
      "lng": 137.938672,
      "geocoding_level": 3,
      "phone": "",
      "license_no": "第06224084号",
      "license_date": "2021-06-30",
      "expire_date": "2027-06-30"
    },
    {
      "name": "居酒屋　あぶ",
      "name_kana": "",
      "business_type": "飲食店営業",
      "address": "上伊那郡箕輪町大字中箕輪９４８６",
      "lat": 35.924353,
      "lng": 137.938672,
      "geocoding_level": 3,
      "phone": "",
      "license_no": "第06224814号",
      "license_date": "2021-06-30",
      "expire_date": "2027-06-30"
    },
    {
      "name": "ＧＬＩＴＴＥＲＺ",
      "name_kana": "",
      "business_type": "飲食店営業",
      "address": "上伊那郡箕輪町中箕輪３００９－３",
      "lat": 35.93299773700001,
      "lng": 137.978125949,
      "geocoding_level": 8,
      "phone": "",
      "license_no": "第06225026号",
      "license_date": "2021-06-30",
      "expire_date": "2027-06-30"
    },
    {
      "name": "森のカフェ　かのん",
      "name_kana": "",
      "business_type": "飲食店営業",
      "address": "上伊那郡箕輪町中箕輪２１３４－１０７０",
      "lat": 35.943115953,
      "lng": 137.963247651,
      "geocoding_level": 8,
      "phone": "",
      "license_no": "第06226313号",
      "license_date": "2021-06-30",
      "expire_date": "2026-06-30"
    },
    {
      "name": "らーめん　じゃげな",
      "name_kana": "",
      "business_type": "飲食店営業",
      "address": "上伊那郡箕輪町中箕輪１８４１－１",
      "lat": 35.93547787,
      "lng": 137.979140354,
      "geocoding_level": 8,
      "phone": "",
      "license_no": "第06227761号",
      "license_date": "2021-06-30",
      "expire_date": "2026-06-30"
    },
    {
      "name": "らーめん　じゃげな",
      "name_kana": "",
      "business_type": "飲食店営業",
      "address": "上伊那郡箕輪町中箕輪１８４１－１",
      "lat": 35.93547787,
      "lng": 137.979140354,
      "geocoding_level": 8,
      "phone": "",
      "license_no": "第06214923号",
      "license_date": "2023-06-30",
      "expire_date": "2028-06-30"
    },
    {
      "name": "らーめんじゃげな",
      "name_kana": "",
      "business_type": "飲食店営業",
      "address": "上伊那郡箕輪町中箕輪１８４１－１",
      "lat": 35.93547787,
      "lng": 137.979140354,
      "geocoding_level": 8,
      "phone": "",
      "license_no": "第06218875号",
      "license_date": "2024-06-28",
      "expire_date": "2029-06-30"
    },
    {
      "name": "イオンリテール（株）イオン箕輪店",
      "name_kana": "",
      "business_type": "菓子製造業",
      "address": "上伊那郡箕輪町中箕輪９０２５",
      "lat": 35.924353,
      "lng": 137.938672,
      "geocoding_level": 3,
      "phone": "",
      "license_no": "第06207829号",
      "license_date": "2021-06-30",
      "expire_date": "2026-06-30"
    },
    {
      "name": "イオンリテール（株）イオン箕輪店",
      "name_kana": "",
      "business_type": "飲食店営業",
      "address": "上伊那郡箕輪町大字中箕輪９０２５",
      "lat": 35.924353,
      "lng": 137.938672,
      "geocoding_level": 3,
      "phone": "",
      "license_no": "第06228136号",
      "license_date": "2021-06-30",
      "expire_date": "2026-06-30"
    },
    {
      "name": "イオンリテール（株）イオン箕輪店",
      "name_kana": "",
      "business_type": "魚介類販売業",
      "address": "上伊那郡箕輪町中箕輪９０２５",
      "lat": 35.924353,
      "lng": 137.938672,
      "geocoding_level": 3,
      "phone": "",
      "license_no": "第06133211号",
      "license_date": "2022-06-30",
      "expire_date": "2028-06-30"
    },
    {
      "name": "イオンリテール（株）イオン箕輪店",
      "name_kana": "",
      "business_type": "飲食店営業",
      "address": "上伊那郡箕輪町中箕輪９０２５",
      "lat": 35.924353,
      "lng": 137.938672,
      "geocoding_level": 3,
      "phone": "",
      "license_no": "第06133161号",
      "license_date": "2022-06-30",
      "expire_date": "2028-06-30"
    },
    {
      "name": "イオンリテール（株）イオン箕輪店",
      "name_kana": "",
      "business_type": "食肉販売業",
      "address": "上伊那郡箕輪町中箕輪９０２５",
      "lat": 35.924353,
      "lng": 137.938672,
      "geocoding_level": 3,
      "phone": "",
      "license_no": "第06133179号",
      "license_date": "2022-06-30",
      "expire_date": "2028-06-30"
    },
    {
      "name": "丸井屋豆腐店",
      "name_kana": "",
      "business_type": "豆腐製造業",
      "address": "上伊那郡箕輪町中箕輪６５８",
      "lat": 35.93617217,
      "lng": 137.988191965,
      "geocoding_level": 8,
      "phone": "",
      "license_no": "第06105501号",
      "license_date": "2021-06-30",
      "expire_date": "2027-06-30"
    },
    {
      "name": "スナック恵",
      "name_kana": "",
      "business_type": "飲食店営業",
      "address": "上伊那郡箕輪町中箕輪９４５４",
      "lat": 35.924353,
      "lng": 137.938672,
      "geocoding_level": 3,
      "phone": "",
      "license_no": "第06033848号",
      "license_date": "2021-06-30",
      "expire_date": "2026-06-30"
    },
    {
      "name": "メフォス０２２１８号店",
      "name_kana": "",
      "business_type": "飲食店営業",
      "address": "上伊那郡箕輪町大字中箕輪１０２３５",
      "lat": 35.924353,
      "lng": 137.938672,
      "geocoding_level": 3,
      "phone": "",
      "license_no": "第06195241号",
      "license_date": "2022-06-30",
      "expire_date": "2029-06-30"
    },
    {
      "name": "特別養護老人ホーム　みのわ園",
      "name_kana": "",
      "business_type": "飲食店営業",
      "address": "上伊那郡箕輪町大字三日町１６６０－３",
      "lat": 35.899761,
      "lng": 137.998256,
      "geocoding_level": 3,
      "phone": "",
      "license_no": "第06234647号",
      "license_date": "2025-06-30",
      "expire_date": "2031-06-30"
    },
    {
      "name": "日清医療食品株式会社　アルプス介護センター事業所",
      "name_kana": "",
      "business_type": "飲食店営業",
      "address": "上伊那郡箕輪町中箕輪１４５０－１",
      "lat": 35.942917921,
      "lng": 137.974915272,
      "geocoding_level": 8,
      "phone": "",
      "license_no": "第06216640号",
      "license_date": "2025-06-30",
      "expire_date": "2031-06-30"
    },
    {
      "name": "株式会社西友　箕輪店　若菜",
      "name_kana": "",
      "business_type": "飲食店営業",
      "address": "上伊那郡箕輪町大字中箕輪字北島8008",
      "lat": 35.924353,
      "lng": 137.938672,
      "geocoding_level": 3,
      "phone": "",
      "license_no": "第06182490号",
      "license_date": "2023-06-30",
      "expire_date": "2029-06-30"
    },
    {
      "name": "平安祭典　箕輪斎場",
      "name_kana": "",
      "business_type": "飲食店営業",
      "address": "上伊那郡箕輪町大字中箕輪字石原田２４８２－１",
      "lat": 35.924353,
      "lng": 137.938672,
      "geocoding_level": 3,
      "phone": "",
      "license_no": "第06155019号",
      "license_date": "2023-06-30",
      "expire_date": "2028-06-30"
    },
    {
      "name": "すき家　箕輪ＢＰ店",
      "name_kana": "",
      "business_type": "飲食店営業",
      "address": "上伊那郡箕輪町中箕輪11338-1",
      "lat": 35.901589801,
      "lng": 137.992212165,
      "geocoding_level": 8,
      "phone": "",
      "license_no": "第06180435号",
      "license_date": "2023-06-30",
      "expire_date": "2029-06-30"
    },
    {
      "name": "どん麺",
      "name_kana": "",
      "business_type": "飲食店営業",
      "address": "上伊那郡箕輪町中箕輪８０７６－１",
      "lat": 35.924679073,
      "lng": 137.98492073,
      "geocoding_level": 8,
      "phone": "",
      "license_no": "第06242715号",
      "license_date": "2021-09-24",
      "expire_date": "2027-06-30"
    },
    {
      "name": "どん麺",
      "name_kana": "",
      "business_type": "麺類製造業",
      "address": "上伊那郡箕輪町中箕輪松島８０７６－１",
      "lat": 35.924353,
      "lng": 137.938672,
      "geocoding_level": 3,
      "phone": "",
      "license_no": "第06232728号",
      "license_date": "2024-06-28",
      "expire_date": "2030-06-30"
    },
    {
      "name": "夢まちＬａｂｏ",
      "name_kana": "",
      "business_type": "飲食店営業",
      "address": "上伊那郡箕輪町大字東箕輪３２９５－２",
      "lat": 35.935312459,
      "lng": 137.993985122,
      "geocoding_level": 8,
      "phone": "",
      "license_no": "第06242761号",
      "license_date": "2021-09-30",
      "expire_date": "2028-06-30"
    },
    {
      "name": "夢まちＬａｂｏ",
      "name_kana": "",
      "business_type": "飲食店営業",
      "address": "上伊那郡箕輪町大字中箕輪８４１９－１",
      "lat": 35.913626783,
      "lng": 137.985350842,
      "geocoding_level": 8,
      "phone": "",
      "license_no": "第06245519号",
      "license_date": "2023-02-17",
      "expire_date": "2028-06-30"
    },
    {
      "name": "Ｂｉｓｔｒｏ　なゆた",
      "name_kana": "",
      "business_type": "菓子製造業",
      "address": "上伊那郡箕輪町中箕輪３７３０－９０５",
      "lat": 35.93741814,
      "lng": 137.960821208,
      "geocoding_level": 8,
      "phone": "",
      "license_no": "第06242804号",
      "license_date": "2021-10-07",
      "expire_date": "2028-06-30"
    },
    {
      "name": "Ｂｉｓｔｒｏ　なゆた",
      "name_kana": "",
      "business_type": "飲食店営業",
      "address": "上伊那郡箕輪町中箕輪３７３０－９０５",
      "lat": 35.93741814,
      "lng": 137.960821208,
      "geocoding_level": 8,
      "phone": "",
      "license_no": "第06185401号",
      "license_date": "2024-06-28",
      "expire_date": "2030-06-30"
    },
    {
      "name": "やまびこテラス（移動営業車）",
      "name_kana": "",
      "business_type": "飲食店営業",
      "address": "上伊那郡箕輪町３７３０－１５６",
      "lat": 35.91502,
      "lng": 137.98199200000002,
      "geocoding_level": 2,
      "phone": "",
      "license_no": "第06242868号",
      "license_date": "2021-10-20",
      "expire_date": "2027-06-30"
    },
    {
      "name": "ニチノウ食品　中曽根工場",
      "name_kana": "",
      "business_type": "アイスクリーム類製造業",
      "address": "上伊那郡箕輪町中曽根３９７－１",
      "lat": 35.908827628,
      "lng": 137.943156367,
      "geocoding_level": 8,
      "phone": "",
      "license_no": "第06246681号",
      "license_date": "2023-06-16",
      "expire_date": "2029-06-30"
    },
    {
      "name": "ニチノウ食品株式会社",
      "name_kana": "",
      "business_type": "添加物製造業",
      "address": "上伊那郡箕輪町中曽根３９７－１",
      "lat": 35.908827628,
      "lng": 137.943156367,
      "geocoding_level": 8,
      "phone": "",
      "license_no": "第06212559号",
      "license_date": "2024-06-28",
      "expire_date": "2030-06-30"
    },
    {
      "name": "ニチノウ食品株式会社",
      "name_kana": "",
      "business_type": "添加物製造業",
      "address": "上伊那郡箕輪町大字中箕輪９３８２番地",
      "lat": 35.924353,
      "lng": 137.938672,
      "geocoding_level": 3,
      "phone": "",
      "license_no": "第06019873号",
      "license_date": "2025-06-30",
      "expire_date": "2030-06-30"
    },
    {
      "name": "ＴＡＰＩＯＣＡ　ＳＡＮＤＯ",
      "name_kana": "",
      "business_type": "飲食店営業",
      "address": "上伊那郡箕輪町大字中箕輪２８７７－２",
      "lat": 35.929223442,
      "lng": 137.980549808,
      "geocoding_level": 8,
      "phone": "",
      "license_no": "第06242957号",
      "license_date": "2021-11-04",
      "expire_date": "2027-06-30"
    },
    {
      "name": "おおぼし　みのわ店",
      "name_kana": "",
      "business_type": "飲食店営業",
      "address": "上伊那郡箕輪町中箕輪１１３３４－１",
      "lat": 35.901871321,
      "lng": 137.992317009,
      "geocoding_level": 8,
      "phone": "",
      "license_no": "第06251073号",
      "license_date": "2024-10-18",
      "expire_date": "2031-06-30"
    },
    {
      "name": "5884",
      "name_kana": "",
      "business_type": "菓子製造業",
      "address": "上伊那郡箕輪町大字中箕輪８４４５－１",
      "lat": 35.913013611,
      "lng": 137.984725853,
      "geocoding_level": 8,
      "phone": "",
      "license_no": "第06243112号",
      "license_date": "2021-11-18",
      "expire_date": "2027-06-30"
    },
    {
      "name": "5884",
      "name_kana": "",
      "business_type": "飲食店営業",
      "address": "上伊那郡箕輪町大字中箕輪８４４５－１",
      "lat": 35.913013611,
      "lng": 137.984725853,
      "geocoding_level": 8,
      "phone": "",
      "license_no": "第06221483号",
      "license_date": "2024-06-28",
      "expire_date": "2029-06-30"
    },
    {
      "name": "ゆとろぎ別館",
      "name_kana": "",
      "business_type": "飲食店営業",
      "address": "上伊那郡箕輪町大字中箕輪９５２９－１",
      "lat": 35.912931808,
      "lng": 137.986586244,
      "geocoding_level": 8,
      "phone": "",
      "license_no": "第06251162号",
      "license_date": "2024-11-08",
      "expire_date": "2031-06-30"
    },
    {
      "name": "５８８４　ゴーハチハチヨン",
      "name_kana": "",
      "business_type": "飲食店営業",
      "address": "上伊那郡箕輪町大字中箕輪８４４５－１",
      "lat": 35.913013611,
      "lng": 137.984725853,
      "geocoding_level": 8,
      "phone": "",
      "license_no": "第06214631号",
      "license_date": "2025-06-30",
      "expire_date": "2031-06-30"
    },
    {
      "name": "支那そば屋　乃の和",
      "name_kana": "",
      "business_type": "飲食店営業",
      "address": "上伊那郡箕輪町大字中箕輪８３２５－３",
      "lat": 35.916488323,
      "lng": 137.989864517,
      "geocoding_level": 8,
      "phone": "",
      "license_no": "第06243137号",
      "license_date": "2021-11-26",
      "expire_date": "2028-06-30"
    },
    {
      "name": "乃の和　離れ",
      "name_kana": "",
      "business_type": "飲食店営業",
      "address": "上伊那郡箕輪町中箕輪９４５４",
      "lat": 35.924353,
      "lng": 137.938672,
      "geocoding_level": 3,
      "phone": "",
      "license_no": "第06245840号",
      "license_date": "2023-03-31",
      "expire_date": "2028-06-30"
    },
    {
      "name": "東山食堂　箕輪店",
      "name_kana": "",
      "business_type": "飲食店営業",
      "address": "上伊那郡箕輪町大字中箕輪８０３０－８",
      "lat": 35.922253138,
      "lng": 137.989303842,
      "geocoding_level": 8,
      "phone": "",
      "license_no": "第06247096号",
      "license_date": "2023-07-21",
      "expire_date": "2030-06-30"
    },
    {
      "name": "韓国料理　舎廊房",
      "name_kana": "",
      "business_type": "飲食店営業",
      "address": "上伊那郡箕輪町大字中箕輪９５５２－１",
      "lat": 35.914240954,
      "lng": 137.986207092,
      "geocoding_level": 8,
      "phone": "",
      "license_no": "第06243226号",
      "license_date": "2021-12-23",
      "expire_date": "2028-06-30"
    },
    {
      "name": "向日葵",
      "name_kana": "",
      "business_type": "飲食店営業",
      "address": "上伊那郡箕輪町中箕輪９６１４－１ 井桁屋ビル２Ｆ西",
      "lat": 35.912005452,
      "lng": 137.985487646,
      "geocoding_level": 8,
      "phone": "",
      "license_no": "第06249617号",
      "license_date": "2024-06-11",
      "expire_date": "2029-06-30"
    },
    {
      "name": "伊那餃子会",
      "name_kana": "",
      "business_type": "飲食店営業",
      "address": "上伊那郡箕輪町大字中箕輪１３００８－１",
      "lat": 35.905610971,
      "lng": 137.982676832,
      "geocoding_level": 8,
      "phone": "",
      "license_no": "第06210572号",
      "license_date": "2021-11-30",
      "expire_date": "2026-11-30"
    },
    {
      "name": "伊那餃子会",
      "name_kana": "",
      "business_type": "飲食店営業",
      "address": "上伊那郡箕輪町大字中箕輪１３００８－１",
      "lat": 35.905610971,
      "lng": 137.982676832,
      "geocoding_level": 8,
      "phone": "",
      "license_no": "第06217983号",
      "license_date": "2023-11-30",
      "expire_date": "2028-11-30"
    },
    {
      "name": "ケアセンターふれあいの里（ふれあいご飯）",
      "name_kana": "",
      "business_type": "飲食店営業",
      "address": "上伊那郡箕輪町大字中箕輪１４４３２－１",
      "lat": 35.910205324,
      "lng": 137.95386198,
      "geocoding_level": 8,
      "phone": "",
      "license_no": "第06243258号",
      "license_date": "2022-01-21",
      "expire_date": "2028-06-30"
    },
    {
      "name": "はなのこみち",
      "name_kana": "",
      "business_type": "菓子製造業",
      "address": "上伊那郡箕輪町中箕輪９５６０－１　２Ｆ",
      "lat": 35.913389245,
      "lng": 137.98527477,
      "geocoding_level": 8,
      "phone": "",
      "license_no": "第06230307号",
      "license_date": "2022-06-30",
      "expire_date": "2027-06-30"
    },
    {
      "name": "とんかつ　魚料理　おきな",
      "name_kana": "",
      "business_type": "飲食店営業",
      "address": "上伊那郡箕輪町大字中箕輪８３６０－８",
      "lat": 35.914364944,
      "lng": 137.98988799,
      "geocoding_level": 8,
      "phone": "",
      "license_no": "第06243404号",
      "license_date": "2022-02-10",
      "expire_date": "2028-06-30"
    },
    {
      "name": "みのわ加工（株）テラススタンド",
      "name_kana": "",
      "business_type": "飲食店営業",
      "address": "上伊那郡箕輪町大字中箕輪３７３０－２４６",
      "lat": 35.935856731,
      "lng": 137.966210047,
      "geocoding_level": 8,
      "phone": "",
      "license_no": "第06244521号",
      "license_date": "2022-07-22",
      "expire_date": "2029-06-30"
    },
    {
      "name": "みのわ加工（株）テラススタンド",
      "name_kana": "",
      "business_type": "菓子製造業",
      "address": "上伊那郡箕輪町大字中箕輪３７３０－２４６",
      "lat": 35.935856731,
      "lng": 137.966210047,
      "geocoding_level": 8,
      "phone": "",
      "license_no": "第06244538号",
      "license_date": "2022-07-22",
      "expire_date": "2029-06-30"
    },
    {
      "name": "みのわ加工　株式会社",
      "name_kana": "",
      "business_type": "そうざい製造業",
      "address": "上伊那郡箕輪町大字中箕輪３７３０－２４６",
      "lat": 35.935856731,
      "lng": 137.966210047,
      "geocoding_level": 8,
      "phone": "",
      "license_no": "第06244602号",
      "license_date": "2022-08-04",
      "expire_date": "2029-06-30"
    },
    {
      "name": "すずらん　第２工場",
      "name_kana": "",
      "business_type": "乳製品製造業",
      "address": "上伊那郡箕輪町大字中箕輪３７３０－２４６",
      "lat": 35.935856731,
      "lng": 137.966210047,
      "geocoding_level": 8,
      "phone": "",
      "license_no": "第06244610号",
      "license_date": "2022-08-04",
      "expire_date": "2029-06-30"
    },
    {
      "name": "みのわ加工株式会社",
      "name_kana": "",
      "business_type": "密封包装食品製造業",
      "address": "上伊那郡箕輪町中箕輪3730-246",
      "lat": 35.935856731,
      "lng": 137.966210047,
      "geocoding_level": 8,
      "phone": "",
      "license_no": "第06235966号",
      "license_date": "2025-06-30",
      "expire_date": "2031-06-30"
    },
    {
      "name": "ラーメンショップじゅげむ",
      "name_kana": "",
      "business_type": "飲食店営業",
      "address": "上伊那郡箕輪町大字中箕輪３６５８－３",
      "lat": 35.932051099,
      "lng": 137.964143541,
      "geocoding_level": 8,
      "phone": "",
      "license_no": "第06243532号",
      "license_date": "2022-03-01",
      "expire_date": "2028-06-30"
    },
    {
      "name": "志のぶ精肉店",
      "name_kana": "",
      "business_type": "食肉販売業",
      "address": "上伊那郡箕輪町中箕輪８４２７－７",
      "lat": 35.914733608,
      "lng": 137.9857596,
      "geocoding_level": 8,
      "phone": "",
      "license_no": "第06243571号",
      "license_date": "2022-03-10",
      "expire_date": "2028-06-30"
    },
    {
      "name": "「焼きたて屋」綿半ホームエイド箕輪店",
      "name_kana": "",
      "business_type": "飲食店営業",
      "address": "上伊那郡箕輪町大字三日町９６０－１ 綿半ホームエイド駐車場内",
      "lat": 35.899761,
      "lng": 137.998256,
      "geocoding_level": 3,
      "phone": "",
      "license_no": "第06199301号",
      "license_date": "2024-06-28",
      "expire_date": "2029-06-30"
    },
    {
      "name": "藤乃園",
      "name_kana": "",
      "business_type": "飲食店営業",
      "address": "上伊那郡箕輪町大字中箕輪９６２５番地",
      "lat": 35.924353,
      "lng": 137.938672,
      "geocoding_level": 3,
      "phone": "",
      "license_no": "第06244926号",
      "license_date": "2022-09-30",
      "expire_date": "2028-06-30"
    },
    {
      "name": "有限会社藤乃園",
      "name_kana": "",
      "business_type": "飲食店営業",
      "address": "上伊那郡箕輪町大字中箕輪９６２５番地",
      "lat": 35.924353,
      "lng": 137.938672,
      "geocoding_level": 3,
      "phone": "",
      "license_no": "第06250620号",
      "license_date": "2024-08-23",
      "expire_date": "2031-06-30"
    },
    {
      "name": "有限会社藤乃園",
      "name_kana": "",
      "business_type": "菓子製造業",
      "address": "上伊那郡箕輪町大字中箕輪９６２５番地",
      "lat": 35.924353,
      "lng": 137.938672,
      "geocoding_level": 3,
      "phone": "",
      "license_no": "第06250637号",
      "license_date": "2024-08-23",
      "expire_date": "2031-06-30"
    },
    {
      "name": "山万加島屋商店　箕輪工場",
      "name_kana": "",
      "business_type": "みそ又はしょうゆ製造業",
      "address": "上伊那郡箕輪町大字中箕輪８７２２",
      "lat": 35.912963599,
      "lng": 137.990887262,
      "geocoding_level": 8,
      "phone": "",
      "license_no": "第06220238号",
      "license_date": "2024-06-28",
      "expire_date": "2029-06-30"
    },
    {
      "name": "Gelateria 宮本屋",
      "name_kana": "",
      "business_type": "飲食店営業",
      "address": "上伊那郡箕輪町大字中箕輪１１４１５－１",
      "lat": 35.897968177,
      "lng": 137.990849696,
      "geocoding_level": 8,
      "phone": "",
      "license_no": "第06243906号",
      "license_date": "2022-04-22",
      "expire_date": "2028-06-30"
    },
    {
      "name": "Gelateria 宮本屋",
      "name_kana": "",
      "business_type": "アイスクリーム類製造業",
      "address": "上伊那郡箕輪町大字中箕輪１１４１５－１",
      "lat": 35.897968177,
      "lng": 137.990849696,
      "geocoding_level": 8,
      "phone": "",
      "license_no": "第06243913号",
      "license_date": "2022-04-22",
      "expire_date": "2028-06-30"
    },
    {
      "name": "ジェラテリア宮本屋",
      "name_kana": "",
      "business_type": "飲食店営業",
      "address": "上伊那郡箕輪町中箕輪１１４１５－１",
      "lat": 35.897968177,
      "lng": 137.990849696,
      "geocoding_level": 8,
      "phone": "",
      "license_no": "第06246247号",
      "license_date": "2023-05-19",
      "expire_date": "2028-06-30"
    },
    {
      "name": "ジェラテリア宮本屋",
      "name_kana": "",
      "business_type": "飲食店営業",
      "address": "上伊那郡箕輪町中箕輪１１４１５－１",
      "lat": 35.897968177,
      "lng": 137.990849696,
      "geocoding_level": 8,
      "phone": "",
      "license_no": "第06248013号",
      "license_date": "2023-10-20",
      "expire_date": "2029-06-30"
    },
    {
      "name": "ジェラテリア宮本屋",
      "name_kana": "",
      "business_type": "飲食店営業",
      "address": "上伊那郡箕輪町中箕輪１１４１５－１",
      "lat": 35.897968177,
      "lng": 137.990849696,
      "geocoding_level": 8,
      "phone": "",
      "license_no": "第06249535号",
      "license_date": "2024-05-31",
      "expire_date": "2029-06-30"
    },
    {
      "name": "guroRiA",
      "name_kana": "",
      "business_type": "飲食店営業",
      "address": "上伊那郡箕輪町中箕輪９３５０－５",
      "lat": 35.908087071,
      "lng": 137.985668638,
      "geocoding_level": 8,
      "phone": "",
      "license_no": "第06243984号",
      "license_date": "2022-04-28",
      "expire_date": "2028-06-30"
    },
    {
      "name": "ナイトラウンジ　ラ・ムール",
      "name_kana": "",
      "business_type": "飲食店営業",
      "address": "上伊那郡箕輪町東箕輪３７２５－３",
      "lat": 35.93238136,
      "lng": 138.00188266900003,
      "geocoding_level": 8,
      "phone": "",
      "license_no": "第06217848号",
      "license_date": "2023-06-30",
      "expire_date": "2028-06-30"
    },
    {
      "name": "お菓子工房　なごみ",
      "name_kana": "",
      "business_type": "菓子製造業",
      "address": "上伊那郡箕輪町中箕輪１８０２－３",
      "lat": 35.940336146,
      "lng": 137.971286421,
      "geocoding_level": 8,
      "phone": "",
      "license_no": "第06178701号",
      "license_date": "2022-06-30",
      "expire_date": "2028-06-30"
    },
    {
      "name": "デイサービスセンター　ゆとり荘",
      "name_kana": "",
      "business_type": "飲食店営業",
      "address": "上伊那郡箕輪町大字三日町１３７２－１",
      "lat": 35.899761,
      "lng": 137.998256,
      "geocoding_level": 3,
      "phone": "",
      "license_no": "第06227689号",
      "license_date": "2022-06-30",
      "expire_date": "2028-06-30"
    },
    {
      "name": "焼肉　新味園",
      "name_kana": "",
      "business_type": "飲食店営業",
      "address": "上伊那郡箕輪町三日町５７７－３",
      "lat": 35.899761,
      "lng": 137.998256,
      "geocoding_level": 3,
      "phone": "",
      "license_no": "第06244342号",
      "license_date": "2022-07-01",
      "expire_date": "2029-06-30"
    },
    {
      "name": "株式会社オウルフーズ",
      "name_kana": "",
      "business_type": "食肉販売業",
      "address": "上伊那郡箕輪町大字中箕輪８５０１－１",
      "lat": 35.915106254,
      "lng": 137.9876122,
      "geocoding_level": 8,
      "phone": "",
      "license_no": "第06204338号",
      "license_date": "2025-06-30",
      "expire_date": "2030-06-30"
    },
    {
      "name": "笹島建設（株）伊那寮",
      "name_kana": "",
      "business_type": "飲食店営業",
      "address": "上伊那郡箕輪町大字中箕輪１１４５１番地",
      "lat": 35.924353,
      "lng": 137.938672,
      "geocoding_level": 3,
      "phone": "",
      "license_no": "第06244456号",
      "license_date": "2022-07-15",
      "expire_date": "2029-06-30"
    },
    {
      "name": "CURiO",
      "name_kana": "",
      "business_type": "飲食店営業",
      "address": "上伊那郡箕輪町大字中箕輪８７５１－１ 柳沢ビル１０１号",
      "lat": 35.911860959,
      "lng": 137.989202326,
      "geocoding_level": 8,
      "phone": "",
      "license_no": "第06244545号",
      "license_date": "2022-07-22",
      "expire_date": "2029-06-30"
    },
    {
      "name": "胡蝶蘭",
      "name_kana": "",
      "business_type": "飲食店営業",
      "address": "上伊那郡箕輪町中箕輪１８０４－１",
      "lat": 35.940721734,
      "lng": 137.971597548,
      "geocoding_level": 8,
      "phone": "",
      "license_no": "第06226263号",
      "license_date": "2022-06-30",
      "expire_date": "2028-06-30"
    },
    {
      "name": "（有）ヤマコ中村商店",
      "name_kana": "",
      "business_type": "飲食店営業",
      "address": "上伊那郡箕輪町中箕輪１２０６７",
      "lat": 35.924353,
      "lng": 137.938672,
      "geocoding_level": 3,
      "phone": "",
      "license_no": "第06132311号",
      "license_date": "2022-06-30",
      "expire_date": "2028-06-30"
    },
    {
      "name": "ゆうづき食堂",
      "name_kana": "",
      "business_type": "飲食店営業",
      "address": "上伊那郡箕輪町中箕輪８３９２－１",
      "lat": 35.913369719,
      "lng": 137.987961108,
      "geocoding_level": 8,
      "phone": "",
      "license_no": "第06141910号",
      "license_date": "2022-06-30",
      "expire_date": "2028-06-30"
    },
    {
      "name": "ビリーヴ",
      "name_kana": "",
      "business_type": "飲食店営業",
      "address": "上伊那郡箕輪町大字中箕輪９５６０－４",
      "lat": 35.91337569,
      "lng": 137.985491652,
      "geocoding_level": 8,
      "phone": "",
      "license_no": "第06176294号",
      "license_date": "2022-06-30",
      "expire_date": "2028-06-30"
    },
    {
      "name": "（株）伸光製作所　社員食堂",
      "name_kana": "",
      "business_type": "飲食店営業",
      "address": "上伊那郡箕輪町中箕輪１２２３８",
      "lat": 35.924353,
      "lng": 137.938672,
      "geocoding_level": 3,
      "phone": "",
      "license_no": "第06226306号",
      "license_date": "2022-06-30",
      "expire_date": "2028-06-30"
    },
    {
      "name": "韓国料理　舎廊房",
      "name_kana": "",
      "business_type": "飲食店営業",
      "address": "上伊那郡箕輪町大字中箕輪２２１４",
      "lat": 35.924353,
      "lng": 137.938672,
      "geocoding_level": 3,
      "phone": "",
      "license_no": "第06228378号",
      "license_date": "2022-06-30",
      "expire_date": "2027-06-30"
    },
    {
      "name": "箕輪町商工会",
      "name_kana": "",
      "business_type": "飲食店営業",
      "address": "上伊那郡箕輪町大字中箕輪１０２８６－１",
      "lat": 35.914051567,
      "lng": 137.981499568,
      "geocoding_level": 8,
      "phone": "",
      "license_no": "第06187690号",
      "license_date": "2022-06-30",
      "expire_date": "2027-06-30"
    },
    {
      "name": "箕輪町商工会",
      "name_kana": "",
      "business_type": "飲食店営業",
      "address": "上伊那郡箕輪町大字中箕輪１０２８６－１",
      "lat": 35.914051567,
      "lng": 137.981499568,
      "geocoding_level": 8,
      "phone": "",
      "license_no": "第06187701号",
      "license_date": "2022-06-30",
      "expire_date": "2027-06-30"
    },
    {
      "name": "ファミリーマート　箕輪木下原町店",
      "name_kana": "",
      "business_type": "飲食店営業",
      "address": "上伊那郡箕輪町大字中箕輪字見取畑１３７８９番地２",
      "lat": 35.924353,
      "lng": 137.938672,
      "geocoding_level": 3,
      "phone": "",
      "license_no": "第06229431号",
      "license_date": "2022-06-30",
      "expire_date": "2027-06-30"
    },
    {
      "name": "Ｆａｒｍｅｒ’ｓ　Ｋｉｔｃｈｅｎ　雪・月・花",
      "name_kana": "",
      "business_type": "飲食店営業",
      "address": "上伊那郡箕輪町中箕輪１０２９－１",
      "lat": 35.943407785,
      "lng": 137.97314484,
      "geocoding_level": 8,
      "phone": "",
      "license_no": "第06225147号",
      "license_date": "2022-06-30",
      "expire_date": "2028-06-30"
    },
    {
      "name": "餃子食堂",
      "name_kana": "",
      "business_type": "飲食店営業",
      "address": "上伊那郡箕輪町大字中箕輪８９３２－１",
      "lat": 35.908778169,
      "lng": 137.994090899,
      "geocoding_level": 8,
      "phone": "",
      "license_no": "第06226975号",
      "license_date": "2022-06-30",
      "expire_date": "2028-06-30"
    },
    {
      "name": "（有）三松屋",
      "name_kana": "",
      "business_type": "飲食店営業",
      "address": "上伊那郡箕輪町中箕輪８４８７－２",
      "lat": 35.915043801,
      "lng": 137.986261173,
      "geocoding_level": 8,
      "phone": "",
      "license_no": "第06034512号",
      "license_date": "2022-06-30",
      "expire_date": "2028-06-30"
    },
    {
      "name": "ｌｏｔｕＳｍｉｌｅ",
      "name_kana": "",
      "business_type": "飲食店営業",
      "address": "上伊那郡箕輪町大字中箕輪６１５４－１",
      "lat": 35.918100164,
      "lng": 137.95684337,
      "geocoding_level": 8,
      "phone": "",
      "license_no": "第06230613号",
      "license_date": "2022-06-30",
      "expire_date": "2027-06-30"
    },
    {
      "name": "ｌｏｔｕＳｍｉｌｅ",
      "name_kana": "",
      "business_type": "飲食店営業",
      "address": "上伊那郡箕輪町大字中箕輪６１５４－１",
      "lat": 35.918100164,
      "lng": 137.95684337,
      "geocoding_level": 8,
      "phone": "",
      "license_no": "第06237060号",
      "license_date": "2024-06-28",
      "expire_date": "2029-06-30"
    },
    {
      "name": "ダイショウ食品（株）",
      "name_kana": "",
      "business_type": "食肉処理業",
      "address": "上伊那郡箕輪町中箕輪１４６１３－８４",
      "lat": 35.913854989,
      "lng": 137.957192244,
      "geocoding_level": 8,
      "phone": "",
      "license_no": "第06133898号",
      "license_date": "2022-06-30",
      "expire_date": "2028-06-30"
    },
    {
      "name": "（有）金星製菓舗",
      "name_kana": "",
      "business_type": "菓子製造業",
      "address": "上伊那郡箕輪町中箕輪８４２２－５",
      "lat": 35.924353,
      "lng": 137.938672,
      "geocoding_level": 3,
      "phone": "",
      "license_no": "第06132294号",
      "license_date": "2022-06-30",
      "expire_date": "2028-06-30"
    },
    {
      "name": "石窯パン　ガネッシュ",
      "name_kana": "",
      "business_type": "菓子製造業",
      "address": "上伊那郡箕輪町東箕輪４７０－１",
      "lat": 35.927031084,
      "lng": 138.002910182,
      "geocoding_level": 8,
      "phone": "",
      "license_no": "第06205019号",
      "license_date": "2022-06-30",
      "expire_date": "2028-06-30"
    },
    {
      "name": "古田おばちゃん会",
      "name_kana": "",
      "business_type": "菓子製造業",
      "address": "上伊那郡箕輪町大字中箕輪５８８４",
      "lat": 35.922440298,
      "lng": 137.939005795,
      "geocoding_level": 8,
      "phone": "",
      "license_no": "第06225713号",
      "license_date": "2022-06-30",
      "expire_date": "2028-06-30"
    },
    {
      "name": "パン工房　たきざわ",
      "name_kana": "",
      "business_type": "菓子製造業",
      "address": "上伊那郡箕輪町大字中箕輪２５０８－２",
      "lat": 35.924156678,
      "lng": 137.987819684,
      "geocoding_level": 8,
      "phone": "",
      "license_no": "第06225834号",
      "license_date": "2022-06-30",
      "expire_date": "2028-06-30"
    },
    {
      "name": "（株）沢製麺",
      "name_kana": "",
      "business_type": "麺類製造業",
      "address": "上伊那郡箕輪町大字中箕輪１６２０－１",
      "lat": 35.940813557,
      "lng": 137.98230216,
      "geocoding_level": 8,
      "phone": "",
      "license_no": "第06130910号",
      "license_date": "2022-06-30",
      "expire_date": "2028-06-30"
    },
    {
      "name": "そば処　古田の里",
      "name_kana": "",
      "business_type": "飲食店営業",
      "address": "上伊那郡箕輪町中箕輪（上古田金原地籍）",
      "lat": 35.924353,
      "lng": 137.938672,
      "geocoding_level": 3,
      "phone": "",
      "license_no": "第06244716号",
      "license_date": "2022-09-16",
      "expire_date": "2028-06-30"
    },
    {
      "name": "ほっともっと伊那箕輪店",
      "name_kana": "",
      "business_type": "飲食店営業",
      "address": "上伊那郡箕輪町中箕輪字羽場下８３８２－１",
      "lat": 35.924353,
      "lng": 137.938672,
      "geocoding_level": 3,
      "phone": "",
      "license_no": "第06244755号",
      "license_date": "2022-09-20",
      "expire_date": "2029-06-30"
    },
    {
      "name": "味の伝道師やまもと屋",
      "name_kana": "",
      "business_type": "飲食店営業",
      "address": "上伊那郡箕輪町中箕輪沢２１３４－８５５ フレグランスナガタＢ１０１",
      "lat": 35.924353,
      "lng": 137.938672,
      "geocoding_level": 3,
      "phone": "",
      "license_no": "第06244837号",
      "license_date": "2022-09-26",
      "expire_date": "2028-06-30"
    },
    {
      "name": "味の伝道師やまもと屋",
      "name_kana": "",
      "business_type": "飲食店営業",
      "address": "上伊那郡箕輪町中箕輪沢２１３４－８５５ フレグランスナガタＢ１０１",
      "lat": 35.924353,
      "lng": 137.938672,
      "geocoding_level": 3,
      "phone": "",
      "license_no": "第06249446号",
      "license_date": "2024-05-29",
      "expire_date": "2029-06-30"
    },
    {
      "name": "味の伝道師やまもと屋",
      "name_kana": "",
      "business_type": "飲食店営業",
      "address": "上伊那郡箕輪町中箕輪沢２１３４－８５５ フレグランスナガタＢ１０１",
      "lat": 35.924353,
      "lng": 137.938672,
      "geocoding_level": 3,
      "phone": "",
      "license_no": "第06249453号",
      "license_date": "2024-05-29",
      "expire_date": "2029-06-30"
    },
    {
      "name": "味の伝道師　やまもと屋",
      "name_kana": "",
      "business_type": "飲食店営業",
      "address": "上伊那郡箕輪町中箕輪沢２１３４－８５５フレグランスナガタＢ１０１",
      "lat": 35.924353,
      "lng": 137.938672,
      "geocoding_level": 3,
      "phone": "",
      "license_no": "第06237426号",
      "license_date": "2024-11-29",
      "expire_date": "2029-11-30"
    },
    {
      "name": "ＫＯＪＩＭＡＹＡ",
      "name_kana": "",
      "business_type": "飲食店営業",
      "address": "上伊那郡箕輪町東箕輪７２４",
      "lat": 35.937934000000006,
      "lng": 138.036741,
      "geocoding_level": 3,
      "phone": "",
      "license_no": "第06245024号",
      "license_date": "2022-10-21",
      "expire_date": "2028-06-30"
    },
    {
      "name": "ガイヤーン",
      "name_kana": "",
      "business_type": "飲食店営業",
      "address": "上伊那郡箕輪町大字中箕輪４２３２－４",
      "lat": 35.932913075,
      "lng": 137.96268688,
      "geocoding_level": 8,
      "phone": "",
      "license_no": "第06245063号",
      "license_date": "2022-10-26",
      "expire_date": "2028-06-30"
    },
    {
      "name": "ガイヤーン",
      "name_kana": "",
      "business_type": "飲食店営業",
      "address": "上伊那郡箕輪町大字中箕輪４２３２－４",
      "lat": 35.932913075,
      "lng": 137.96268688,
      "geocoding_level": 8,
      "phone": "",
      "license_no": "第06245071号",
      "license_date": "2022-10-26",
      "expire_date": "2028-06-30"
    },
    {
      "name": "ベルシャイン　箕輪店",
      "name_kana": "",
      "business_type": "飲食店営業",
      "address": "上伊那郡箕輪町三日町９３３－１",
      "lat": 35.899761,
      "lng": 137.998256,
      "geocoding_level": 3,
      "phone": "",
      "license_no": "第06197744号",
      "license_date": "2023-06-30",
      "expire_date": "2028-06-30"
    },
    {
      "name": "セブンーイレブン　箕輪バイパス店",
      "name_kana": "",
      "business_type": "飲食店営業",
      "address": "上伊那郡箕輪町大字中箕輪１１３８５－１",
      "lat": 35.901175174,
      "lng": 137.992008895,
      "geocoding_level": 8,
      "phone": "",
      "license_no": "第06233584号",
      "license_date": "2023-06-30",
      "expire_date": "2028-06-30"
    },
    {
      "name": "信州うさぎの森お菓子工房",
      "name_kana": "",
      "business_type": "菓子製造業",
      "address": "上伊那郡箕輪町中箕輪９６２７－４",
      "lat": 35.911145078,
      "lng": 137.986124142,
      "geocoding_level": 8,
      "phone": "",
      "license_no": "第06245420号",
      "license_date": "2023-01-20",
      "expire_date": "2029-06-30"
    },
    {
      "name": "ｃａｓｕａｌｂａｒ　ＺＥＲＯ",
      "name_kana": "",
      "business_type": "飲食店営業",
      "address": "上伊那郡箕輪町中箕輪８４２７－１２ はなぶさビル２Ｆ　Ｅ号",
      "lat": 35.914596191,
      "lng": 137.985449261,
      "geocoding_level": 8,
      "phone": "",
      "license_no": "第06245679号",
      "license_date": "2023-03-17",
      "expire_date": "2028-06-30"
    },
    {
      "name": "中国料理　昊?",
      "name_kana": "",
      "business_type": "飲食店営業",
      "address": "上伊那郡箕輪町中箕輪１５２０－３",
      "lat": 35.939698196,
      "lng": 137.97845277,
      "geocoding_level": 8,
      "phone": "",
      "license_no": "第06233716号",
      "license_date": "2024-06-28",
      "expire_date": "2030-06-30"
    },
    {
      "name": "コミュニティカフェごーしゅ",
      "name_kana": "",
      "business_type": "飲食店営業",
      "address": "上伊那郡箕輪町中箕輪１１８６１－１",
      "lat": 35.89741907,
      "lng": 137.984948751,
      "geocoding_level": 8,
      "phone": "",
      "license_no": "第06245978号",
      "license_date": "2023-04-14",
      "expire_date": "2029-06-30"
    },
    {
      "name": "コミュニティカフェごーしゅ",
      "name_kana": "",
      "business_type": "菓子製造業",
      "address": "上伊那郡箕輪町中箕輪１１８６１－１",
      "lat": 35.89741907,
      "lng": 137.984948751,
      "geocoding_level": 8,
      "phone": "",
      "license_no": "第06245985号",
      "license_date": "2023-04-14",
      "expire_date": "2029-06-30"
    },
    {
      "name": "中華料理　福将",
      "name_kana": "",
      "business_type": "飲食店営業",
      "address": "上伊那郡箕輪町中箕輪８９４５－６",
      "lat": 35.90735214,
      "lng": 137.994264746,
      "geocoding_level": 8,
      "phone": "",
      "license_no": "第06246197号",
      "license_date": "2023-05-12",
      "expire_date": "2029-06-30"
    },
    {
      "name": "味の伝道師　やまもと屋",
      "name_kana": "",
      "business_type": "飲食店営業",
      "address": "上伊那郡箕輪町中箕輪沢２１３４－８５５フレグランスナガタＢ１０１",
      "lat": 35.924353,
      "lng": 137.938672,
      "geocoding_level": 3,
      "phone": "",
      "license_no": "第06217271号",
      "license_date": "2023-04-28",
      "expire_date": "2028-04-30"
    },
    {
      "name": "ダイハツ伊北",
      "name_kana": "",
      "business_type": "菓子製造業",
      "address": "上伊那郡箕輪町中箕輪２９０８－１",
      "lat": 35.930644344,
      "lng": 137.979353688,
      "geocoding_level": 8,
      "phone": "",
      "license_no": "第06246286号",
      "license_date": "2023-05-26",
      "expire_date": "2029-06-30"
    },
    {
      "name": "ＮＥＸＵＳショップ",
      "name_kana": "",
      "business_type": "飲食店営業",
      "address": "上伊那郡箕輪町中箕輪１２２６９－１２",
      "lat": 35.906330306,
      "lng": 137.989000062,
      "geocoding_level": 8,
      "phone": "",
      "license_no": "第06246343号",
      "license_date": "2023-06-02",
      "expire_date": "2028-06-30"
    },
    {
      "name": "ＮＥＸＵＳショップ",
      "name_kana": "",
      "business_type": "飲食店営業",
      "address": "上伊那郡箕輪町中箕輪１２２６９－１２",
      "lat": 35.906330306,
      "lng": 137.989000062,
      "geocoding_level": 8,
      "phone": "",
      "license_no": "第06246351号",
      "license_date": "2023-06-02",
      "expire_date": "2028-06-30"
    },
    {
      "name": "ＭＳ　ＰＲＥＳＥＮＴＥＳ",
      "name_kana": "",
      "business_type": "飲食店営業",
      "address": "上伊那郡箕輪町大字東箕輪３１５３－１",
      "lat": 35.932551769,
      "lng": 137.993038068,
      "geocoding_level": 8,
      "phone": "",
      "license_no": "第06246603号",
      "license_date": "2023-06-12",
      "expire_date": "2028-06-30"
    },
    {
      "name": "ＭＳ　ＰＲＥＳＥＮＴＥＳ",
      "name_kana": "",
      "business_type": "飲食店営業",
      "address": "上伊那郡箕輪町大字東箕輪３１５３－１",
      "lat": 35.932551769,
      "lng": 137.993038068,
      "geocoding_level": 8,
      "phone": "",
      "license_no": "第06246611号",
      "license_date": "2023-06-12",
      "expire_date": "2028-06-30"
    },
    {
      "name": "サムライ焼きラーメン",
      "name_kana": "",
      "business_type": "飲食店営業",
      "address": "上伊那郡箕輪町大字中箕輪２８５２－８ フォーブルエイト１０３号",
      "lat": 35.935217936,
      "lng": 137.982857731,
      "geocoding_level": 8,
      "phone": "",
      "license_no": "第06246628号",
      "license_date": "2023-06-12",
      "expire_date": "2028-06-30"
    },
    {
      "name": "サムライ焼きラーメン",
      "name_kana": "",
      "business_type": "飲食店営業",
      "address": "上伊那郡箕輪町大字中箕輪２８５２－８ フォーブルエイト１０３号",
      "lat": 35.935217936,
      "lng": 137.982857731,
      "geocoding_level": 8,
      "phone": "",
      "license_no": "第06246635号",
      "license_date": "2023-06-12",
      "expire_date": "2028-06-30"
    },
    {
      "name": "山崎商事",
      "name_kana": "",
      "business_type": "飲食店営業",
      "address": "上伊那郡箕輪町大字中箕輪８０５１－１ ＭＫ４５  ３０４",
      "lat": 35.923634552,
      "lng": 137.98752056400002,
      "geocoding_level": 8,
      "phone": "",
      "license_no": "第06246966号",
      "license_date": "2023-07-07",
      "expire_date": "2029-06-30"
    },
    {
      "name": "Ｓ・Ａ・Ｗウィング",
      "name_kana": "",
      "business_type": "飲食店営業",
      "address": "上伊那郡箕輪町大字中箕輪１４０１６ ＫＯＡ（株）パィンパーク内",
      "lat": 35.924353,
      "lng": 137.938672,
      "geocoding_level": 3,
      "phone": "",
      "license_no": "第06169870号",
      "license_date": "2023-06-30",
      "expire_date": "2030-06-30"
    },
    {
      "name": "いしい",
      "name_kana": "",
      "business_type": "飲食店営業",
      "address": "上伊那郡箕輪町大字中箕輪１２００６－５",
      "lat": 35.901758774,
      "lng": 137.989971991,
      "geocoding_level": 8,
      "phone": "",
      "license_no": "第06182411号",
      "license_date": "2023-06-30",
      "expire_date": "2029-06-30"
    },
    {
      "name": "ナイトスポット　カサブランカ",
      "name_kana": "",
      "business_type": "飲食店営業",
      "address": "上伊那郡箕輪町大字中箕輪９４９８",
      "lat": 35.924353,
      "lng": 137.938672,
      "geocoding_level": 3,
      "phone": "",
      "license_no": "第06206403号",
      "license_date": "2023-06-30",
      "expire_date": "2029-06-30"
    },
    {
      "name": "燈花",
      "name_kana": "",
      "business_type": "飲食店営業",
      "address": "上伊那郡箕輪町中箕輪９４１７－３",
      "lat": 35.910553808,
      "lng": 137.986460112,
      "geocoding_level": 8,
      "phone": "",
      "license_no": "第06208308号",
      "license_date": "2023-06-30",
      "expire_date": "2029-06-30"
    },
    {
      "name": "燈花　ロコ",
      "name_kana": "",
      "business_type": "飲食店営業",
      "address": "上伊那郡箕輪町大字中箕輪９４１７－３",
      "lat": 35.910553808,
      "lng": 137.986460112,
      "geocoding_level": 8,
      "phone": "",
      "license_no": "第06250951号",
      "license_date": "2024-10-04",
      "expire_date": "2030-06-30"
    },
    {
      "name": "ＣＨＩＣＯＲＡ　Ｋｉｔｃｈｅｎ",
      "name_kana": "",
      "business_type": "飲食店営業",
      "address": "上伊那郡箕輪町大字中箕輪１００８０－１",
      "lat": 35.920591349,
      "lng": 137.983980758,
      "geocoding_level": 8,
      "phone": "",
      "license_no": "第06233417号",
      "license_date": "2023-06-30",
      "expire_date": "2028-06-30"
    },
    {
      "name": "フライドポテトはじめました。",
      "name_kana": "",
      "business_type": "飲食店営業",
      "address": "上伊那郡箕輪町中箕輪１０２５１",
      "lat": 35.924353,
      "lng": 137.938672,
      "geocoding_level": 3,
      "phone": "",
      "license_no": "第06233805号",
      "license_date": "2023-06-30",
      "expire_date": "2028-06-30"
    },
    {
      "name": "（有）とざ和",
      "name_kana": "",
      "business_type": "飲食店営業",
      "address": "上伊那郡箕輪町大字東箕輪１２０８－１",
      "lat": 35.918139158,
      "lng": 137.996297339,
      "geocoding_level": 8,
      "phone": "",
      "license_no": "第06233901号",
      "license_date": "2023-06-30",
      "expire_date": "2028-06-30"
    },
    {
      "name": "（有）とざ和",
      "name_kana": "",
      "business_type": "飲食店営業",
      "address": "上伊那郡箕輪町大字東箕輪１２０８－１",
      "lat": 35.918139158,
      "lng": 137.996297339,
      "geocoding_level": 8,
      "phone": "",
      "license_no": "第06233919号",
      "license_date": "2023-06-30",
      "expire_date": "2028-06-30"
    },
    {
      "name": "三日町山田店",
      "name_kana": "",
      "business_type": "飲食店営業",
      "address": "上伊那郡箕輪町大字東箕輪７６９－５",
      "lat": 35.920519086,
      "lng": 137.998254464,
      "geocoding_level": 8,
      "phone": "",
      "license_no": "第06192882号",
      "license_date": "2023-06-30",
      "expire_date": "2028-06-30"
    },
    {
      "name": "三日町山田店",
      "name_kana": "",
      "business_type": "飲食店営業",
      "address": "上伊那郡箕輪町大字東箕輪７６９－５",
      "lat": 35.920519086,
      "lng": 137.998254464,
      "geocoding_level": 8,
      "phone": "",
      "license_no": "第06192890号",
      "license_date": "2023-06-30",
      "expire_date": "2028-06-30"
    },
    {
      "name": "三日町山田店",
      "name_kana": "",
      "business_type": "飲食店営業",
      "address": "上伊那郡箕輪町大字東箕輪７６９－５",
      "lat": 35.920519086,
      "lng": 137.998254464,
      "geocoding_level": 8,
      "phone": "",
      "license_no": "第06192901号",
      "license_date": "2023-06-30",
      "expire_date": "2028-06-30"
    },
    {
      "name": "三日町山田店",
      "name_kana": "",
      "business_type": "飲食店営業",
      "address": "上伊那郡箕輪町中箕輪",
      "lat": 35.924353,
      "lng": 137.938672,
      "geocoding_level": 3,
      "phone": "",
      "license_no": "第06198255号",
      "license_date": "2024-06-28",
      "expire_date": "2029-06-30"
    },
    {
      "name": "三日町山田店",
      "name_kana": "",
      "business_type": "飲食店営業",
      "address": "上伊那郡箕輪町中箕輪",
      "lat": 35.924353,
      "lng": 137.938672,
      "geocoding_level": 3,
      "phone": "",
      "license_no": "第06198262号",
      "license_date": "2024-06-28",
      "expire_date": "2029-06-30"
    },
    {
      "name": "山崎商事",
      "name_kana": "",
      "business_type": "飲食店営業",
      "address": "上伊那郡箕輪町大字中箕輪８１４３－３",
      "lat": 35.92044823,
      "lng": 137.986498123,
      "geocoding_level": 8,
      "phone": "",
      "license_no": "第06214211号",
      "license_date": "2023-06-30",
      "expire_date": "2028-06-30"
    },
    {
      "name": "ＨｇＬ",
      "name_kana": "",
      "business_type": "飲食店営業",
      "address": "上伊那郡箕輪町中箕輪１２４５５",
      "lat": 35.924353,
      "lng": 137.938672,
      "geocoding_level": 3,
      "phone": "",
      "license_no": "第06214931号",
      "license_date": "2023-06-30",
      "expire_date": "2028-06-30"
    },
    {
      "name": "みのわ温泉　ながた荘",
      "name_kana": "",
      "business_type": "飲食店営業",
      "address": "上伊那郡箕輪町中箕輪３７３３－１８",
      "lat": 35.944089055,
      "lng": 137.960043908,
      "geocoding_level": 8,
      "phone": "",
      "license_no": "第06173782号",
      "license_date": "2023-06-30",
      "expire_date": "2029-06-30"
    },
    {
      "name": "みのわ温泉　ながたの湯",
      "name_kana": "",
      "business_type": "飲食店営業",
      "address": "上伊那郡箕輪町大字中箕輪２１３４番地４２",
      "lat": 35.944576413,
      "lng": 137.960816813,
      "geocoding_level": 8,
      "phone": "",
      "license_no": "第06158361号",
      "license_date": "2025-06-30",
      "expire_date": "2031-06-30"
    },
    {
      "name": "酒楽堂　あいびー",
      "name_kana": "",
      "business_type": "飲食店営業",
      "address": "上伊那郡箕輪町大字中箕輪２８６６－４",
      "lat": 35.93593878,
      "lng": 137.983646598,
      "geocoding_level": 8,
      "phone": "",
      "license_no": "第06179746号",
      "license_date": "2023-06-30",
      "expire_date": "2029-06-30"
    },
    {
      "name": "お好みダイニング　あすく",
      "name_kana": "",
      "business_type": "飲食店営業",
      "address": "上伊那郡箕輪町大字中箕輪１２２１８",
      "lat": 35.902866646,
      "lng": 137.991792781,
      "geocoding_level": 8,
      "phone": "",
      "license_no": "第06230944号",
      "license_date": "2023-06-30",
      "expire_date": "2028-06-30"
    },
    {
      "name": "お好みダイニング　あすく",
      "name_kana": "",
      "business_type": "飲食店営業",
      "address": "上伊那郡箕輪町大字中箕輪１２２１８",
      "lat": 35.902866646,
      "lng": 137.991792781,
      "geocoding_level": 8,
      "phone": "",
      "license_no": "第06234273号",
      "license_date": "2024-06-28",
      "expire_date": "2029-06-30"
    },
    {
      "name": "味の里工房",
      "name_kana": "",
      "business_type": "みそ又はしょうゆ製造業",
      "address": "上伊那郡箕輪町中箕輪１０５００－８３",
      "lat": 35.916754388,
      "lng": 137.963901231,
      "geocoding_level": 8,
      "phone": "",
      "license_no": "第06208258号",
      "license_date": "2023-06-30",
      "expire_date": "2029-06-30"
    },
    {
      "name": "田村自然農園　伊那工場",
      "name_kana": "",
      "business_type": "麺類製造業",
      "address": "上伊那郡箕輪町大字中箕輪１６２０－１",
      "lat": 35.940813557,
      "lng": 137.98230216,
      "geocoding_level": 8,
      "phone": "",
      "license_no": "第06181188号",
      "license_date": "2023-06-30",
      "expire_date": "2029-06-30"
    },
    {
      "name": "ＣＡＦＥ　ＰＬＡＴ　（カフェ　プラット）",
      "name_kana": "",
      "business_type": "飲食店営業",
      "address": "上伊那郡箕輪町中箕輪７９２５－１",
      "lat": 35.923149831,
      "lng": 137.989058783,
      "geocoding_level": 8,
      "phone": "",
      "license_no": "第06247655号",
      "license_date": "2023-09-15",
      "expire_date": "2029-06-30"
    },
    {
      "name": "ＣＡＦＥ　ＰＬＡＴ",
      "name_kana": "",
      "business_type": "飲食店営業",
      "address": "上伊那郡箕輪町中箕輪７９２５－１",
      "lat": 35.923149831,
      "lng": 137.989058783,
      "geocoding_level": 8,
      "phone": "",
      "license_no": "第06211998号",
      "license_date": "2024-06-28",
      "expire_date": "2030-06-30"
    },
    {
      "name": "あつみ寿司",
      "name_kana": "",
      "business_type": "飲食店営業",
      "address": "上伊那郡箕輪町大字中箕輪１２３２４－１２",
      "lat": 35.90671277,
      "lng": 137.985860644,
      "geocoding_level": 8,
      "phone": "",
      "license_no": "第06248270号",
      "license_date": "2023-12-01",
      "expire_date": "2030-06-30"
    },
    {
      "name": "喫茶とお宿とよはく。わきみち",
      "name_kana": "",
      "business_type": "飲食店営業",
      "address": "上伊那郡箕輪町中箕輪４２７４－１",
      "lat": 35.924353,
      "lng": 137.938672,
      "geocoding_level": 3,
      "phone": "",
      "license_no": "第06248287号",
      "license_date": "2023-12-01",
      "expire_date": "2030-06-30"
    },
    {
      "name": "ステーキ宮　箕輪店",
      "name_kana": "",
      "business_type": "飲食店営業",
      "address": "上伊那郡箕輪町中箕輪木下１１３１４－１",
      "lat": 35.924353,
      "lng": 137.938672,
      "geocoding_level": 3,
      "phone": "",
      "license_no": "第06220334号",
      "license_date": "2021-06-30",
      "expire_date": "2028-06-30"
    },
    {
      "name": "韓国料理　テグ",
      "name_kana": "",
      "business_type": "飲食店営業",
      "address": "上伊那郡箕輪町中箕輪１０７１－５",
      "lat": 35.938493252,
      "lng": 137.971640969,
      "geocoding_level": 8,
      "phone": "",
      "license_no": "第06248419号",
      "license_date": "2023-12-22",
      "expire_date": "2030-06-30"
    },
    {
      "name": "Ｐａｔｉｓｓｅｒｉｅ　Ｍａｐｌｅ",
      "name_kana": "",
      "business_type": "菓子製造業",
      "address": "上伊那郡箕輪町中箕輪１０７１４－９",
      "lat": 35.911393188,
      "lng": 137.971371027,
      "geocoding_level": 8,
      "phone": "",
      "license_no": "第06248636号",
      "license_date": "2024-02-22",
      "expire_date": "2030-06-30"
    },
    {
      "name": "カンチーニョ",
      "name_kana": "",
      "business_type": "飲食店営業",
      "address": "上伊那郡箕輪町中箕輪３７３０－５６０",
      "lat": 35.935540267,
      "lng": 137.956827982,
      "geocoding_level": 8,
      "phone": "",
      "license_no": "第06249108号",
      "license_date": "2024-04-22",
      "expire_date": "2029-06-30"
    },
    {
      "name": "レストラン愛す工房",
      "name_kana": "",
      "business_type": "飲食店営業",
      "address": "上伊那郡箕輪町大字東箕輪字大垣外３１７９番地１",
      "lat": 35.937934000000006,
      "lng": 138.036741,
      "geocoding_level": 3,
      "phone": "",
      "license_no": "第06249147号",
      "license_date": "2024-04-26",
      "expire_date": "2030-06-30"
    },
    {
      "name": "レストラン愛す工房",
      "name_kana": "",
      "business_type": "食肉販売業",
      "address": "上伊那郡箕輪町大字東箕輪字大垣外３１７９番地１",
      "lat": 35.937934000000006,
      "lng": 138.036741,
      "geocoding_level": 3,
      "phone": "",
      "license_no": "第06249154号",
      "license_date": "2024-04-26",
      "expire_date": "2029-06-30"
    },
    {
      "name": "もみじ湖　夢の里",
      "name_kana": "",
      "business_type": "飲食店営業",
      "address": "上伊那郡箕輪町東箕輪３１７９－１",
      "lat": 35.932732064,
      "lng": 137.994254586,
      "geocoding_level": 8,
      "phone": "",
      "license_no": "第06251917号",
      "license_date": "2025-04-18",
      "expire_date": "2031-06-30"
    },
    {
      "name": "箕輪町防災交流施設　みのわＢＡＳＥ",
      "name_kana": "",
      "business_type": "飲食店営業",
      "address": "上伊那郡箕輪町中箕輪９４９９－４",
      "lat": 35.912573518,
      "lng": 137.986479966,
      "geocoding_level": 8,
      "phone": "",
      "license_no": "第06249204号",
      "license_date": "2024-05-02",
      "expire_date": "2030-06-30"
    },
    {
      "name": "一輪",
      "name_kana": "",
      "business_type": "飲食店営業",
      "address": "上伊那郡箕輪町中箕輪５４２－１",
      "lat": 35.933114026,
      "lng": 137.985268066,
      "geocoding_level": 8,
      "phone": "",
      "license_no": "第06249511号",
      "license_date": "2024-05-31",
      "expire_date": "2030-06-30"
    },
    {
      "name": "一輪",
      "name_kana": "",
      "business_type": "菓子製造業",
      "address": "上伊那郡箕輪町中箕輪５４２－１",
      "lat": 35.933114026,
      "lng": 137.985268066,
      "geocoding_level": 8,
      "phone": "",
      "license_no": "第06249528号",
      "license_date": "2024-05-31",
      "expire_date": "2030-06-30"
    },
    {
      "name": "一輪",
      "name_kana": "",
      "business_type": "飲食店営業",
      "address": "上伊那郡箕輪町中箕輪５４２－１",
      "lat": 35.933114026,
      "lng": 137.985268066,
      "geocoding_level": 8,
      "phone": "",
      "license_no": "第06251002号",
      "license_date": "2024-10-09",
      "expire_date": "2030-06-30"
    },
    {
      "name": "福多屋",
      "name_kana": "",
      "business_type": "菓子製造業",
      "address": "上伊那郡箕輪町中曽根１１９－５",
      "lat": 35.906428026,
      "lng": 137.947616566,
      "geocoding_level": 8,
      "phone": "",
      "license_no": "第06249760号",
      "license_date": "2024-06-21",
      "expire_date": "2030-06-30"
    },
    {
      "name": "福多屋",
      "name_kana": "",
      "business_type": "飲食店営業",
      "address": "上伊那郡箕輪町中曽根１１９－５",
      "lat": 35.906428026,
      "lng": 137.947616566,
      "geocoding_level": 8,
      "phone": "",
      "license_no": "第06235222号",
      "license_date": "2024-06-28",
      "expire_date": "2029-06-30"
    },
    {
      "name": "ＣＯＮＦＯＲＴ",
      "name_kana": "",
      "business_type": "飲食店営業",
      "address": "上伊那郡箕輪町中箕輪松島８３２５",
      "lat": 35.924353,
      "lng": 137.938672,
      "geocoding_level": 3,
      "phone": "",
      "license_no": "第06250078号",
      "license_date": "2024-07-19",
      "expire_date": "2031-06-30"
    },
    {
      "name": "スナック明日香",
      "name_kana": "",
      "business_type": "飲食店営業",
      "address": "上伊那郡箕輪町中箕輪９４９９－２",
      "lat": 35.912664607,
      "lng": 137.986267909,
      "geocoding_level": 8,
      "phone": "",
      "license_no": "第06250150号",
      "license_date": "2024-07-23",
      "expire_date": "2030-06-30"
    },
    {
      "name": "赤そば花まつり",
      "name_kana": "",
      "business_type": "飲食店営業",
      "address": "上伊那郡箕輪町大字中箕輪６３５７番地",
      "lat": 35.922403118,
      "lng": 137.944752644,
      "geocoding_level": 8,
      "phone": "",
      "license_no": "第06218836号",
      "license_date": "2024-06-28",
      "expire_date": "2029-06-30"
    },
    {
      "name": "味菓町　しばらく",
      "name_kana": "",
      "business_type": "菓子製造業",
      "address": "上伊那郡箕輪町大字三日町１０９２－９",
      "lat": 35.899761,
      "lng": 137.998256,
      "geocoding_level": 3,
      "phone": "",
      "license_no": "第06250271号",
      "license_date": "2024-07-26",
      "expire_date": "2031-06-30"
    },
    {
      "name": "みのわ　竹輪邸",
      "name_kana": "",
      "business_type": "飲食店営業",
      "address": "上伊那郡箕輪町大字中箕輪３５２２－１１",
      "lat": 35.94072261,
      "lng": 137.961954327,
      "geocoding_level": 8,
      "phone": "",
      "license_no": "第06232824号",
      "license_date": "2024-06-28",
      "expire_date": "2030-06-30"
    },
    {
      "name": "坂本　箕輪店",
      "name_kana": "",
      "business_type": "飲食店営業",
      "address": "上伊那郡箕輪町中箕輪１１２９９－１",
      "lat": 35.903802057,
      "lng": 137.99364601,
      "geocoding_level": 8,
      "phone": "",
      "license_no": "第06233869号",
      "license_date": "2024-06-28",
      "expire_date": "2030-06-30"
    },
    {
      "name": "和食　浅草家",
      "name_kana": "",
      "business_type": "飲食店営業",
      "address": "上伊那郡箕輪町大字中箕輪８９４５－３",
      "lat": 35.907944263,
      "lng": 137.99420077100004,
      "geocoding_level": 8,
      "phone": "",
      "license_no": "第06233926号",
      "license_date": "2024-06-28",
      "expire_date": "2030-06-30"
    },
    {
      "name": "和酒処　なごみ",
      "name_kana": "",
      "business_type": "飲食店営業",
      "address": "上伊那郡箕輪町大字中箕輪８４６９番地",
      "lat": 35.924353,
      "lng": 137.938672,
      "geocoding_level": 3,
      "phone": "",
      "license_no": "第06183787号",
      "license_date": "2024-06-28",
      "expire_date": "2030-06-30"
    },
    {
      "name": "酒遊　しげ",
      "name_kana": "",
      "business_type": "飲食店営業",
      "address": "上伊那郡箕輪町中箕輪４９３０－２",
      "lat": 35.932019522,
      "lng": 137.952162108,
      "geocoding_level": 8,
      "phone": "",
      "license_no": "第06185667号",
      "license_date": "2024-06-28",
      "expire_date": "2030-06-30"
    },
    {
      "name": "軽～ろ楽ちょ",
      "name_kana": "",
      "business_type": "飲食店営業",
      "address": "上伊那郡箕輪町中箕輪１２６４５－５",
      "lat": 35.897933528,
      "lng": 137.983530193,
      "geocoding_level": 8,
      "phone": "",
      "license_no": "第06212769号",
      "license_date": "2024-06-28",
      "expire_date": "2030-06-30"
    },
    {
      "name": "ａｕｔｏ　ｓｈｏｐ　ＳｅＲｕＡ",
      "name_kana": "",
      "business_type": "飲食店営業",
      "address": "上伊那郡箕輪町東箕輪５２７２－１",
      "lat": 35.936484298,
      "lng": 137.992692724,
      "geocoding_level": 8,
      "phone": "",
      "license_no": "第06234946号",
      "license_date": "2024-06-28",
      "expire_date": "2029-06-30"
    },
    {
      "name": "ａｕｔｏ　ｓｈｏｐ　ＳｅＲｕＡ",
      "name_kana": "",
      "business_type": "飲食店営業",
      "address": "上伊那郡箕輪町東箕輪５２７２－１",
      "lat": 35.936484298,
      "lng": 137.992692724,
      "geocoding_level": 8,
      "phone": "",
      "license_no": "第06234953号",
      "license_date": "2024-06-28",
      "expire_date": "2029-06-30"
    },
    {
      "name": "ＳＬＯＷＨＡＮＤ",
      "name_kana": "",
      "business_type": "飲食店営業",
      "address": "上伊那郡箕輪町大字中箕輪１１９４５－６",
      "lat": 35.900356216,
      "lng": 137.987730844,
      "geocoding_level": 8,
      "phone": "",
      "license_no": "第06236687号",
      "license_date": "2024-06-28",
      "expire_date": "2029-06-30"
    },
    {
      "name": "なべ",
      "name_kana": "",
      "business_type": "飲食店営業",
      "address": "上伊那郡箕輪町大字中箕輪１１８２５－４",
      "lat": 35.896037193,
      "lng": 137.985854992,
      "geocoding_level": 8,
      "phone": "",
      "license_no": "第06220302号",
      "license_date": "2024-06-28",
      "expire_date": "2029-06-30"
    },
    {
      "name": "大石家",
      "name_kana": "",
      "business_type": "飲食店営業",
      "address": "上伊那郡箕輪町中箕輪１０３０－１",
      "lat": 35.943464487,
      "lng": 137.972896226,
      "geocoding_level": 8,
      "phone": "",
      "license_no": "第06214268号",
      "license_date": "2025-06-30",
      "expire_date": "2031-06-30"
    },
    {
      "name": "山崎商事",
      "name_kana": "",
      "business_type": "飲食店営業",
      "address": "上伊那郡箕輪町",
      "lat": 35.91502,
      "lng": 137.98199200000002,
      "geocoding_level": 2,
      "phone": "",
      "license_no": "第06198287号",
      "license_date": "2024-06-28",
      "expire_date": "2029-06-30"
    },
    {
      "name": "ＧＵＵＵＴ（グート）",
      "name_kana": "",
      "business_type": "飲食店営業",
      "address": "上伊那郡箕輪町中箕輪５４２番地１",
      "lat": 35.933114026,
      "lng": 137.985268066,
      "geocoding_level": 8,
      "phone": "",
      "license_no": "第06234412号",
      "license_date": "2024-06-28",
      "expire_date": "2029-06-30"
    },
    {
      "name": "ｍ１２００５",
      "name_kana": "",
      "business_type": "飲食店営業",
      "address": "上伊那郡箕輪町中曽根５２２－２",
      "lat": 35.902215456,
      "lng": 137.952567238,
      "geocoding_level": 8,
      "phone": "",
      "license_no": "第06107234号",
      "license_date": "2024-06-28",
      "expire_date": "2030-06-30"
    },
    {
      "name": "うらの畑のパン工房",
      "name_kana": "",
      "business_type": "菓子製造業",
      "address": "上伊那郡箕輪町中箕輪字熊野２８８８番１",
      "lat": 35.924353,
      "lng": 137.938672,
      "geocoding_level": 3,
      "phone": "",
      "license_no": "第06206524号",
      "license_date": "2024-06-28",
      "expire_date": "2030-06-30"
    },
    {
      "name": "ハルハナ堂",
      "name_kana": "",
      "business_type": "菓子製造業",
      "address": "上伊那郡箕輪町中箕輪２１３４－８４０",
      "lat": 35.942767239,
      "lng": 137.965686537,
      "geocoding_level": 8,
      "phone": "",
      "license_no": "第06212234号",
      "license_date": "2024-06-28",
      "expire_date": "2030-06-30"
    },
    {
      "name": "株式会社ミカサ",
      "name_kana": "",
      "business_type": "清涼飲料水製造業",
      "address": "上伊那郡箕輪町大字中箕輪９３５－１",
      "lat": 35.930179996,
      "lng": 137.983378826,
      "geocoding_level": 8,
      "phone": "",
      "license_no": "第06157059号",
      "license_date": "2024-06-28",
      "expire_date": "2029-06-30"
    },
    {
      "name": "ゆかいな野菜村",
      "name_kana": "",
      "business_type": "飲食店営業",
      "address": "上伊那郡箕輪町中箕輪４９８３",
      "lat": 35.931734855,
      "lng": 137.951994546,
      "geocoding_level": 8,
      "phone": "",
      "license_no": "第06250498号",
      "license_date": "2024-08-16",
      "expire_date": "2030-06-30"
    },
    {
      "name": "ゆかいな野菜村",
      "name_kana": "",
      "business_type": "そうざい製造業",
      "address": "上伊那郡箕輪町中箕輪４９８３",
      "lat": 35.931734855,
      "lng": 137.951994546,
      "geocoding_level": 8,
      "phone": "",
      "license_no": "第06250509号",
      "license_date": "2024-08-16",
      "expire_date": "2030-06-30"
    },
    {
      "name": "ゆかいな野菜村",
      "name_kana": "",
      "business_type": "菓子製造業",
      "address": "上伊那郡箕輪町中箕輪４９８３",
      "lat": 35.931734855,
      "lng": 137.951994546,
      "geocoding_level": 8,
      "phone": "",
      "license_no": "第06250516号",
      "license_date": "2024-08-16",
      "expire_date": "2030-06-30"
    },
    {
      "name": "ファミリーマートＪＡ伊北インター店",
      "name_kana": "",
      "business_type": "飲食店営業",
      "address": "上伊那郡箕輪町大字中箕輪１５４２",
      "lat": 35.924353,
      "lng": 137.938672,
      "geocoding_level": 3,
      "phone": "",
      "license_no": "第06220512号",
      "license_date": "2024-10-31",
      "expire_date": "2029-10-31"
    },
    {
      "name": "ＶＩＮＣＵＬＯ",
      "name_kana": "",
      "business_type": "飲食店営業",
      "address": "上伊那郡箕輪町大字中箕輪４８０９－３",
      "lat": 35.934920001,
      "lng": 137.952218386,
      "geocoding_level": 8,
      "phone": "",
      "license_no": "第06250830号",
      "license_date": "2024-09-11",
      "expire_date": "2030-06-30"
    },
    {
      "name": "ＶＩＮＣＵＬＯ",
      "name_kana": "",
      "business_type": "飲食店営業",
      "address": "上伊那郡箕輪町大字中箕輪４８０９番地３",
      "lat": 35.934920001,
      "lng": 137.952218386,
      "geocoding_level": 8,
      "phone": "",
      "license_no": "第06252905号",
      "license_date": "2025-08-15",
      "expire_date": "2032-06-30"
    },
    {
      "name": "Ｃａｆｅ　さんぽ日和",
      "name_kana": "",
      "business_type": "飲食店営業",
      "address": "上伊那郡箕輪町中箕輪８４３９－１０",
      "lat": 35.914037231,
      "lng": 137.984261014,
      "geocoding_level": 8,
      "phone": "",
      "license_no": "第06251027号",
      "license_date": "2024-10-11",
      "expire_date": "2031-06-30"
    },
    {
      "name": "??と椅子",
      "name_kana": "",
      "business_type": "飲食店営業",
      "address": "上伊那郡箕輪町中箕輪５６４８－１",
      "lat": 35.922923651,
      "lng": 137.939544397,
      "geocoding_level": 8,
      "phone": "",
      "license_no": "第06251319号",
      "license_date": "2024-11-29",
      "expire_date": "2031-06-30"
    },
    {
      "name": "ごはん屋　いまい",
      "name_kana": "",
      "business_type": "飲食店営業",
      "address": "上伊那郡箕輪町大字三日町１５３１－１",
      "lat": 35.899761,
      "lng": 137.998256,
      "geocoding_level": 3,
      "phone": "",
      "license_no": "第06251640号",
      "license_date": "2025-03-14",
      "expire_date": "2031-06-30"
    },
    {
      "name": "ａｒｕｇａ　ｂａｇｅｌ",
      "name_kana": "",
      "business_type": "菓子製造業",
      "address": "上伊那郡箕輪町中箕輪５６－２",
      "lat": 35.938464903,
      "lng": 137.987916113,
      "geocoding_level": 8,
      "phone": "",
      "license_no": "第06252175号",
      "license_date": "2025-05-16",
      "expire_date": "2031-06-30"
    },
    {
      "name": "古民家宿　夕さりて",
      "name_kana": "",
      "business_type": "飲食店営業",
      "address": "上伊那郡箕輪町福与６９３－１",
      "lat": 35.889693177,
      "lng": 138.010255643,
      "geocoding_level": 8,
      "phone": "",
      "license_no": "第06252378号",
      "license_date": "2025-05-30",
      "expire_date": "2030-06-30"
    },
    {
      "name": "米厨",
      "name_kana": "",
      "business_type": "菓子製造業",
      "address": "上伊那郡箕輪町大字中箕輪１３９１３－３３",
      "lat": 35.897185472,
      "lng": 137.980644401,
      "geocoding_level": 8,
      "phone": "",
      "license_no": "第06252500号",
      "license_date": "2025-06-13",
      "expire_date": "2031-06-30"
    },
    {
      "name": "ＴＡＭＢＡＹＡＮ　ＰＨＩＬＩＰＰＩＮＥ　ＳＴＯＲＥ　ａｎｄ　ＲＥＳＴＡＵＲＡＮＴ",
      "name_kana": "",
      "business_type": "飲食店営業",
      "address": "上伊那郡箕輪町中箕輪松島９７２３－６",
      "lat": 35.924353,
      "lng": 137.938672,
      "geocoding_level": 3,
      "phone": "",
      "license_no": "第06252517号",
      "license_date": "2025-06-13",
      "expire_date": "2030-06-30"
    },
    {
      "name": "ウォーターファクトリー合同会社",
      "name_kana": "",
      "business_type": "清涼飲料水製造業",
      "address": "上伊那郡箕輪町大字中箕輪８９９５番地",
      "lat": 35.908548622,
      "lng": 137.992530638,
      "geocoding_level": 8,
      "phone": "",
      "license_no": "第06245946号",
      "license_date": "2023-04-07",
      "expire_date": "2028-06-30"
    },
    {
      "name": "そんごくう",
      "name_kana": "",
      "business_type": "飲食店営業",
      "address": "上伊那郡箕輪町中箕輪９６１４",
      "lat": 35.924353,
      "lng": 137.938672,
      "geocoding_level": 3,
      "phone": "",
      "license_no": "第06034074号",
      "license_date": "2025-06-30",
      "expire_date": "2031-06-30"
    },
    {
      "name": "木曽　水車家",
      "name_kana": "",
      "business_type": "飲食店営業",
      "address": "上伊那郡箕輪町中箕輪２９３１",
      "lat": 35.932210257,
      "lng": 137.978947679,
      "geocoding_level": 8,
      "phone": "",
      "license_no": "第06113341号",
      "license_date": "2025-06-30",
      "expire_date": "2031-06-30"
    },
    {
      "name": "紫苑",
      "name_kana": "",
      "business_type": "飲食店営業",
      "address": "上伊那郡箕輪町大字中箕輪９５５８－６",
      "lat": 35.914636523,
      "lng": 137.986272159,
      "geocoding_level": 8,
      "phone": "",
      "license_no": "第06166987号",
      "license_date": "2025-06-30",
      "expire_date": "2031-06-30"
    },
    {
      "name": "旅館　寿",
      "name_kana": "",
      "business_type": "飲食店営業",
      "address": "上伊那郡箕輪町大字中箕輪９９７３－３",
      "lat": 35.915005526,
      "lng": 137.985520184,
      "geocoding_level": 8,
      "phone": "",
      "license_no": "第06167271号",
      "license_date": "2025-06-30",
      "expire_date": "2031-06-30"
    },
    {
      "name": "スナック　ダイアナ",
      "name_kana": "",
      "business_type": "飲食店営業",
      "address": "上伊那郡箕輪町大字中箕輪８４２０－１",
      "lat": 35.91386982,
      "lng": 137.985142522,
      "geocoding_level": 8,
      "phone": "",
      "license_no": "第06167338号",
      "license_date": "2025-06-30",
      "expire_date": "2031-06-30"
    },
    {
      "name": "ａｍｂｅｒ",
      "name_kana": "",
      "business_type": "飲食店営業",
      "address": "上伊那郡箕輪町大字中箕輪８５０３－７　１階西",
      "lat": 35.914327772,
      "lng": 137.988091787,
      "geocoding_level": 8,
      "phone": "",
      "license_no": "第06216696号",
      "license_date": "2025-06-30",
      "expire_date": "2031-06-30"
    },
    {
      "name": "エンジェルハート",
      "name_kana": "",
      "business_type": "飲食店営業",
      "address": "上伊那郡箕輪町中箕輪１２５１８",
      "lat": 35.924353,
      "lng": 137.938672,
      "geocoding_level": 3,
      "phone": "",
      "license_no": "第06216971号",
      "license_date": "2025-06-30",
      "expire_date": "2031-06-30"
    },
    {
      "name": "生成",
      "name_kana": "",
      "business_type": "飲食店営業",
      "address": "上伊那郡箕輪町大字中箕輪１２０８１",
      "lat": 35.924353,
      "lng": 137.938672,
      "geocoding_level": 3,
      "phone": "",
      "license_no": "第06217151号",
      "license_date": "2025-06-30",
      "expire_date": "2031-06-30"
    },
    {
      "name": "やきとり　ローメン　よっちゃん",
      "name_kana": "",
      "business_type": "飲食店営業",
      "address": "上伊那郡箕輪町中箕輪９４９９－２",
      "lat": 35.912664607,
      "lng": 137.986267909,
      "geocoding_level": 8,
      "phone": "",
      "license_no": "第06235329号",
      "license_date": "2025-06-30",
      "expire_date": "2031-06-30"
    },
    {
      "name": "パン茶房　窯屋",
      "name_kana": "",
      "business_type": "菓子製造業",
      "address": "上伊那郡箕輪町三日町９２６－８",
      "lat": 35.899761,
      "lng": 137.998256,
      "geocoding_level": 3,
      "phone": "",
      "license_no": "第06215039号",
      "license_date": "2025-06-30",
      "expire_date": "2031-06-30"
    },
    {
      "name": "株式会社山岸酒店",
      "name_kana": "",
      "business_type": "酒類製造業",
      "address": "上伊那郡箕輪町大字中箕輪９５４９番地",
      "lat": 35.924353,
      "lng": 137.938672,
      "geocoding_level": 3,
      "phone": "",
      "license_no": "第06018839号",
      "license_date": "2025-06-30",
      "expire_date": "2030-06-30"
    },
    {
      "name": "ダイニング雅",
      "name_kana": "",
      "business_type": "飲食店営業",
      "address": "上伊那郡箕輪町中箕輪９５４５－３ 山岸ビル１F",
      "lat": 35.913503818,
      "lng": 137.986677619,
      "geocoding_level": 8,
      "phone": "",
      "license_no": "第06253221号",
      "license_date": "2025-10-03",
      "expire_date": "2031-06-30"
    },
    {
      "name": "箕輪町立箕輪東小学校",
      "name_kana": "",
      "business_type": "菓子製造業",
      "address": "上伊那郡箕輪町大字東箕輪３１８７番地１",
      "lat": 35.933098109,
      "lng": 137.992972522,
      "geocoding_level": 8,
      "phone": "",
      "license_no": "第06253462号",
      "license_date": "2025-10-31",
      "expire_date": "2032-06-30"
    },
    {
      "name": "五福",
      "name_kana": "",
      "business_type": "飲食店営業",
      "address": "上伊那郡箕輪町大字東箕輪４３０７番地 （無量寺内）",
      "lat": 35.946335336000004,
      "lng": 137.999940203,
      "geocoding_level": 8,
      "phone": "",
      "license_no": "第06253512号",
      "license_date": "2025-11-14",
      "expire_date": "2032-06-30"
    },
    {
      "name": "五福",
      "name_kana": "",
      "business_type": "菓子製造業",
      "address": "上伊那郡箕輪町大字東箕輪４３０７番地 （無量寺内）",
      "lat": 35.946335336000004,
      "lng": 137.999940203,
      "geocoding_level": 8,
      "phone": "",
      "license_no": "第06253520号",
      "license_date": "2025-11-14",
      "expire_date": "2032-06-30"
    },
    {
      "name": "セブン-イレブン　箕輪中箕輪店",
      "name_kana": "",
      "business_type": "飲食店営業",
      "address": "上伊那郡箕輪町大字中箕輪３３６７－１",
      "lat": 35.933133026,
      "lng": 137.973044319,
      "geocoding_level": 8,
      "phone": "",
      "license_no": "第06238881号",
      "license_date": "2025-06-30",
      "expire_date": "2030-06-30"
    },
    {
      "name": "はま寿司　箕輪店",
      "name_kana": "",
      "business_type": "飲食店営業",
      "address": "上伊那郡箕輪町大字三日町字城９６２－４",
      "lat": 35.899761,
      "lng": 137.998256,
      "geocoding_level": 3,
      "phone": "",
      "license_no": "第06223897号",
      "license_date": "2021-06-30",
      "expire_date": "2027-06-30"
    },
    {
      "name": "メフォス００２０４８号店",
      "name_kana": "",
      "business_type": "飲食店営業",
      "address": "上伊那郡箕輪町中箕輪１１３２４番地",
      "lat": 35.903246888,
      "lng": 137.99238991200002,
      "geocoding_level": 8,
      "phone": "",
      "license_no": "第06237084号",
      "license_date": "2025-06-30",
      "expire_date": "2031-06-30"
    },
    {
      "name": "ココス箕輪店",
      "name_kana": "",
      "business_type": "飲食店営業",
      "address": "上伊那郡箕輪町大字三日町913-2",
      "lat": 35.899761,
      "lng": 137.998256,
      "geocoding_level": 3,
      "phone": "",
      "license_no": "第06228920号",
      "license_date": "2023-06-30",
      "expire_date": "2029-06-30"
    },
    {
      "name": "五福",
      "name_kana": "",
      "business_type": "飲食店営業",
      "address": "上伊那郡箕輪町東箕輪4307",
      "lat": 35.946335336000004,
      "lng": 137.999940203,
      "geocoding_level": 8,
      "phone": "",
      "license_no": "第06251244号",
      "license_date": "2024-11-11",
      "expire_date": "2030-06-30"
    },
    {
      "name": "西山食堂ｆｏｏｄｉｅｓ",
      "name_kana": "",
      "business_type": "飲食店営業",
      "address": "上伊那郡箕輪町大字中箕輪１５８９６－２",
      "lat": 35.924353,
      "lng": 137.938672,
      "geocoding_level": 3,
      "phone": "",
      "license_no": "第06253851号",
      "license_date": "2026-02-20",
      "expire_date": "2032-06-30"
    },
    {
      "name": "モスバーガー伊北インター店",
      "name_kana": "",
      "business_type": "飲食店営業",
      "address": "上伊那郡箕輪町大字中箕輪１４３９－１",
      "lat": 35.941950709,
      "lng": 137.978217339,
      "geocoding_level": 8,
      "phone": "",
      "license_no": "第06226111号",
      "license_date": "2022-06-30",
      "expire_date": "2028-06-30"
    },
    {
      "name": "カレーハウスＣＯＣＯ壱番屋長野箕輪店",
      "name_kana": "",
      "business_type": "飲食店営業",
      "address": "上伊那郡箕輪町大字中箕輪８０５１番地１",
      "lat": 35.923634552,
      "lng": 137.98752056400002,
      "geocoding_level": 8,
      "phone": "",
      "license_no": "第06186841号",
      "license_date": "2025-06-30",
      "expire_date": "2031-06-30"
    },
    {
      "name": "セイコーエプソン生活協同組合　伊那事業所食堂",
      "name_kana": "",
      "business_type": "飲食店営業",
      "address": "上伊那郡箕輪町中箕輪８５４８",
      "lat": 35.924353,
      "lng": 137.938672,
      "geocoding_level": 3,
      "phone": "",
      "license_no": "第06229988号",
      "license_date": "2024-06-28",
      "expire_date": "2030-06-30"
    },
    {
      "name": "（株）明治亭　箕輪事業所",
      "name_kana": "",
      "business_type": "飲食店営業",
      "address": "上伊那郡箕輪町三日町４８２－１",
      "lat": 35.899761,
      "lng": 137.998256,
      "geocoding_level": 3,
      "phone": "",
      "license_no": "第06153089号",
      "license_date": "2025-06-30",
      "expire_date": "2031-06-30"
    },
    {
      "name": "綿半スーパーセンター箕輪店　寿司厨房",
      "name_kana": "",
      "business_type": "飲食店営業",
      "address": "上伊那郡箕輪町大字三日町９６０番１",
      "lat": 35.899761,
      "lng": 137.998256,
      "geocoding_level": 3,
      "phone": "",
      "license_no": "第06254233号",
      "license_date": "2026-04-17",
      "expire_date": "2032-06-30"
    },
    {
      "name": "綿半スーパーセンター箕輪店　精肉厨房",
      "name_kana": "",
      "business_type": "食肉販売業",
      "address": "上伊那郡箕輪町大字三日町９６０番１",
      "lat": 35.899761,
      "lng": 137.998256,
      "geocoding_level": 3,
      "phone": "",
      "license_no": "第06254241号",
      "license_date": "2026-04-17",
      "expire_date": "2032-06-30"
    },
    {
      "name": "綿半スーパーセンター箕輪店　ベーカリー厨房",
      "name_kana": "",
      "business_type": "飲食店営業",
      "address": "上伊那郡箕輪町大字三日町９６０番１",
      "lat": 35.899761,
      "lng": 137.998256,
      "geocoding_level": 3,
      "phone": "",
      "license_no": "第06254258号",
      "license_date": "2026-04-17",
      "expire_date": "2032-06-30"
    },
    {
      "name": "綿半スーパーセンター箕輪店　ベーカリー厨房",
      "name_kana": "",
      "business_type": "菓子製造業",
      "address": "上伊那郡箕輪町大字三日町９６０番１",
      "lat": 35.899761,
      "lng": 137.998256,
      "geocoding_level": 3,
      "phone": "",
      "license_no": "第06254265号",
      "license_date": "2026-04-17",
      "expire_date": "2032-06-30"
    },
    {
      "name": "綿半スーパーセンター箕輪店　グルメ厨房",
      "name_kana": "",
      "business_type": "飲食店営業",
      "address": "上伊那郡箕輪町大字三日町９６０番１",
      "lat": 35.899761,
      "lng": 137.998256,
      "geocoding_level": 3,
      "phone": "",
      "license_no": "第06254272号",
      "license_date": "2026-04-17",
      "expire_date": "2032-06-30"
    },
    {
      "name": "綿半スーパーセンター箕輪店　グルメ厨房",
      "name_kana": "",
      "business_type": "そうざい製造業",
      "address": "上伊那郡箕輪町大字三日町９６０番１",
      "lat": 35.899761,
      "lng": 137.998256,
      "geocoding_level": 3,
      "phone": "",
      "license_no": "第06254280号",
      "license_date": "2026-04-17",
      "expire_date": "2032-06-30"
    },
    {
      "name": "ＭＹＴＨ－伊那",
      "name_kana": "",
      "business_type": "飲食店営業",
      "address": "上伊那郡箕輪町福与３６７－６",
      "lat": 35.883280067,
      "lng": 137.99594787400002,
      "geocoding_level": 8,
      "phone": "",
      "license_no": "第06033727号",
      "license_date": "2025-06-30",
      "expire_date": "2031-06-30"
    },