{
  "meta": {
    "updated": 1783906731,
    "sources": [
      {
        "source": "三重県 食品営業許可施設",
        "license": "Creative Commons Attribution 4.0 International"
      },
      {
        "source": "厚生労働省 食品衛生申請等システム（オープンデータ）",
        "license": "公共データ利用規約（第1.0版, PDL1.0）"
      }
    ]
  },
  "data": [
    {
      "name": "日清医療食品株式会社",
      "name_kana": "",
      "business_type": "飲食店営業",
      "address": "伊賀市山出２２２０－１０",
      "lat": 34.714285934,
      "lng": 136.120321671,
      "geocoding_level": 8,
      "phone": "0595-22-0112",
      "license_no": "賀2301-0561",
      "license_date": null,
      "expire_date": null
    },
    {
      "name": "株式会社伊賀の里モクモク手づくりファーム",
      "name_kana": "",
      "business_type": "飲食店営業",
      "address": "伊賀市西湯舟３５５２－１５",
      "lat": 34.862314,
      "lng": 136.192374,
      "geocoding_level": 3,
      "phone": "0595-43-0909",
      "license_no": "賀2501-0025",
      "license_date": null,
      "expire_date": null
    },
    {
      "name": "株式会社伊賀の里モクモク手づくりファーム",
      "name_kana": "",
      "business_type": "飲食店営業",
      "address": "伊賀市西湯舟３６０９",
      "lat": 34.862314,
      "lng": 136.192374,
      "geocoding_level": 3,
      "phone": "0595-43-0909",
      "license_no": "賀2501-0125",
      "license_date": null,
      "expire_date": null
    },
    {
      "name": "吉田　規正",
      "name_kana": "",
      "business_type": "飲食店営業",
      "address": "伊賀市桐ケ丘５丁目８８",
      "lat": 34.661934,
      "lng": 136.195674,
      "geocoding_level": 3,
      "phone": "0595-52-2899",
      "license_no": "賀2401-0192",
      "license_date": null,
      "expire_date": null
    },
    {
      "name": "有限会社レストラン美園",
      "name_kana": "",
      "business_type": "飲食店営業",
      "address": "伊賀市下友生２６４２－５",
      "lat": 34.750084,
      "lng": 136.157252,
      "geocoding_level": 3,
      "phone": "0595-21-3858",
      "license_no": "賀2401-0411",
      "license_date": null,
      "expire_date": null
    },
    {
      "name": "株式会社上田硝子店",
      "name_kana": "",
      "business_type": "飲食店営業",
      "address": "伊賀市上野忍町２６７８－１",
      "lat": 34.763242000000005,
      "lng": 136.130302,
      "geocoding_level": 3,
      "phone": "0595-21-0627",
      "license_no": "賀2501-0101",
      "license_date": null,
      "expire_date": null
    },
    {
      "name": "森山美津孝",
      "name_kana": "",
      "business_type": "飲食店営業",
      "address": "伊賀市ゆめが丘２丁目５－６",
      "lat": 34.73773,
      "lng": 136.163437,
      "geocoding_level": 3,
      "phone": "0595-23-3390",
      "license_no": "賀2501-0492",
      "license_date": null,
      "expire_date": null
    },
    {
      "name": "有限会社ラバーズ",
      "name_kana": "",
      "business_type": "飲食店営業",
      "address": "伊賀市千歳１１３－１",
      "lat": 34.798923729,
      "lng": 136.162374863,
      "geocoding_level": 8,
      "phone": "0595-24-2390",
      "license_no": "賀2501-0219",
      "license_date": null,
      "expire_date": null
    },
    {
      "name": "有限会社森辻󠄀",
      "name_kana": "",
      "business_type": "飲食店営業",
      "address": "伊賀市上野車坂町８２１",
      "lat": 34.767606,
      "lng": 136.142591,
      "geocoding_level": 3,
      "phone": "",
      "license_no": "賀2301-0154",
      "license_date": null,
      "expire_date": null
    },
    {
      "name": "有限会社森辻󠄀",
      "name_kana": "",
      "business_type": "そうざい製造業",
      "address": "伊賀市上野車坂町８２１",
      "lat": 34.767606,
      "lng": 136.142591,
      "geocoding_level": 3,
      "phone": "",
      "license_no": "賀2325-0003",
      "license_date": null,
      "expire_date": null
    },
    {
      "name": "カネ美食品株式会社",
      "name_kana": "",
      "business_type": "飲食店営業",
      "address": "伊賀市服部町１７８８　 アピタ伊賀上野店内",
      "lat": 34.781188,
      "lng": 136.138056,
      "geocoding_level": 3,
      "phone": "0595-22-0351",
      "license_no": "賀2301-0458",
      "license_date": null,
      "expire_date": null
    },
    {
      "name": "カネ美食品株式会社",
      "name_kana": "",
      "business_type": "菓子製造業",
      "address": "伊賀市服部町１７８８　 アピタ伊賀上野店内",
      "lat": 34.781188,
      "lng": 136.138056,
      "geocoding_level": 3,
      "phone": "0595-22-0351",
      "license_no": "賀2311-0047",
      "license_date": null,
      "expire_date": null
    },
    {
      "name": "カネ美食品株式会社",
      "name_kana": "",
      "business_type": "飲食店営業",
      "address": "伊賀市服部町１７８８ アピタ伊賀上野店内",
      "lat": 34.781188,
      "lng": 136.138056,
      "geocoding_level": 3,
      "phone": "0595-22-0351",
      "license_no": "賀2401-0438",
      "license_date": null,
      "expire_date": null
    },
    {
      "name": "株式会社鮮魚丸忠",
      "name_kana": "",
      "business_type": "飲食店営業",
      "address": "伊賀市服部町１７８８",
      "lat": 34.781188,
      "lng": 136.138056,
      "geocoding_level": 3,
      "phone": "0595-23-7033",
      "license_no": "賀2501-0420",
      "license_date": null,
      "expire_date": null
    },
    {
      "name": "株式会社鮮魚丸忠",
      "name_kana": "",
      "business_type": "魚介類販売業",
      "address": "伊賀市服部町１７８８ アピタ伊賀上野店内",
      "lat": 34.781188,
      "lng": 136.138056,
      "geocoding_level": 3,
      "phone": "0595-23-7033",
      "license_no": "賀2204-0006",
      "license_date": null,
      "expire_date": null
    },
    {
      "name": "ルートインジャパン株式会社",
      "name_kana": "",
      "business_type": "飲食店営業",
      "address": "伊賀市服部町２６０－３",
      "lat": 34.786563123,
      "lng": 136.139727318,
      "geocoding_level": 8,
      "phone": "0595-26-1818",
      "license_no": "賀2501-0413",
      "license_date": null,
      "expire_date": null
    },
    {
      "name": "株式会社マルハンダイニング",
      "name_kana": "",
      "business_type": "飲食店営業",
      "address": "伊賀市久米町６０８",
      "lat": 34.754622,
      "lng": 136.140668,
      "geocoding_level": 3,
      "phone": "0595-22-8703",
      "license_no": "賀2501-0460",
      "license_date": null,
      "expire_date": null
    },
    {
      "name": "有限会社森辻",
      "name_kana": "",
      "business_type": "食肉販売業",
      "address": "伊賀市上野車坂町８２１",
      "lat": 34.767606,
      "lng": 136.142591,
      "geocoding_level": 3,
      "phone": "0595-21-0760",
      "license_no": "賀2503-0009",
      "license_date": null,
      "expire_date": null
    },
    {
      "name": "有限会社森辻",
      "name_kana": "",
      "business_type": "飲食店営業",
      "address": "伊賀市上野車坂町８２１",
      "lat": 34.767606,
      "lng": 136.142591,
      "geocoding_level": 3,
      "phone": "0595-21-0760",
      "license_no": "賀2501-0269",
      "license_date": null,
      "expire_date": null
    },
    {
      "name": "株式会社日本サンガリアベバレッジカンパニー",
      "name_kana": "",
      "business_type": "清涼飲料水製造業",
      "address": "伊賀市中柘植１２２１",
      "lat": 34.835048,
      "lng": 136.22838,
      "geocoding_level": 3,
      "phone": "0595-45-3666",
      "license_no": "賀2514-0001",
      "license_date": null,
      "expire_date": null
    },
    {
      "name": "若戎酒造株式会社",
      "name_kana": "",
      "business_type": "酒類製造業",
      "address": "伊賀市阿保１３１７",
      "lat": 34.66631,
      "lng": 136.178221,
      "geocoding_level": 3,
      "phone": "0595-52-1153",
      "license_no": "賀2421-0002",
      "license_date": null,
      "expire_date": null
    },
    {
      "name": "北川一美",
      "name_kana": "",
      "business_type": "飲食店営業",
      "address": "伊賀市柘植町３３３９－１",
      "lat": 34.846303,
      "lng": 136.255628,
      "geocoding_level": 3,
      "phone": "0595-45-2002",
      "license_no": "賀2501-0522",
      "license_date": null,
      "expire_date": null
    },
    {
      "name": "有限会社蕉月",
      "name_kana": "",
      "business_type": "飲食店営業",
      "address": "伊賀市西条１２５－５",
      "lat": 34.793310661,
      "lng": 136.15322939,
      "geocoding_level": 8,
      "phone": "0595-23-3400",
      "license_no": "賀2501-0513",
      "license_date": null,
      "expire_date": null
    },
    {
      "name": "奥田隆三",
      "name_kana": "",
      "business_type": "飲食店営業",
      "address": "伊賀市四十九町１０９５－２",
      "lat": 34.744391,
      "lng": 136.135738,
      "geocoding_level": 3,
      "phone": "0595-24-3028",
      "license_no": "賀2601-0008",
      "license_date": null,
      "expire_date": null
    },
    {
      "name": "仙波由美子",
      "name_kana": "",
      "business_type": "飲食店営業（旧）",
      "address": "伊賀市柘植町５３７７",
      "lat": 34.846303,
      "lng": 136.255628,
      "geocoding_level": 3,
      "phone": "0595-45-6565",
      "license_no": "伊賀 保第 58-0201-0137 号",
      "license_date": null,
      "expire_date": null
    },
    {
      "name": "ＪＡ全農Ａコープ株式会社",
      "name_kana": "",
      "business_type": "飲食店営業（旧）",
      "address": "伊賀市阿保４６４",
      "lat": 34.66631,
      "lng": 136.178221,
      "geocoding_level": 3,
      "phone": "0595-52-1125",
      "license_no": "伊賀 保第 58-0201-0190 号",
      "license_date": null,
      "expire_date": null
    },
    {
      "name": "ＪＡ全農Ａコープ株式会社",
      "name_kana": "",
      "business_type": "食肉販売業（旧）",
      "address": "伊賀市阿保４６４",
      "lat": 34.66631,
      "lng": 136.178221,
      "geocoding_level": 3,
      "phone": "0595-52-1125",
      "license_no": "伊賀 保第 58-0208-0003 号",
      "license_date": null,
      "expire_date": null
    },
    {
      "name": "ＪＡ全農Ａコープ株式会社",
      "name_kana": "",
      "business_type": "魚介類販売業（旧）",
      "address": "伊賀市阿保４６４",
      "lat": 34.66631,
      "lng": 136.178221,
      "geocoding_level": 3,
      "phone": "0595-52-1125",
      "license_no": "伊賀 保第 58-0209-0002 号",
      "license_date": null,
      "expire_date": null
    },
    {
      "name": "株式会社日本ヒュウマップ",
      "name_kana": "",
      "business_type": "飲食店営業（旧）",
      "address": "伊賀市服部町６０１－２",
      "lat": 34.781188,
      "lng": 136.138056,
      "geocoding_level": 3,
      "phone": "070-1370-9867",
      "license_no": "伊賀 保第 58-0201-0256 号",
      "license_date": null,
      "expire_date": null
    },
    {
      "name": "株式会社ジョイフル関西",
      "name_kana": "",
      "business_type": "飲食店営業",
      "address": "伊賀市平野西町５５",
      "lat": 34.772756067,
      "lng": 136.136656507,
      "geocoding_level": 8,
      "phone": "0595-22-8776",
      "license_no": "賀2301-0476",
      "license_date": null,
      "expire_date": null
    },
    {
      "name": "徳山善也",
      "name_kana": "",
      "business_type": "飲食店営業（旧）",
      "address": "伊賀市上野鍛冶町２８０７",
      "lat": 34.76572,
      "lng": 136.133097,
      "geocoding_level": 3,
      "phone": "0595-24-7558",
      "license_no": "伊賀 保第 58-0201-0263 号",
      "license_date": null,
      "expire_date": null
    },
    {
      "name": "株式会社三重平安閣",
      "name_kana": "",
      "business_type": "飲食店営業（旧）",
      "address": "伊賀市西明寺３２１４－１　外３筆",
      "lat": 34.758597096,
      "lng": 136.155884684,
      "geocoding_level": 8,
      "phone": "0595-24-9999",
      "license_no": "伊賀 保第 58-0201-0267 号",
      "license_date": null,
      "expire_date": null
    },
    {
      "name": "森濵和栄",
      "name_kana": "",
      "business_type": "飲食店営業（旧）",
      "address": "伊賀市阿保５７８－３",
      "lat": 34.66631,
      "lng": 136.178221,
      "geocoding_level": 3,
      "phone": "0595-52-0114",
      "license_no": "伊賀 保第 58-0201-0271 号",
      "license_date": null,
      "expire_date": null
    },
    {
      "name": "株式会社日本サンガリアベバレッジカンパニー",
      "name_kana": "",
      "business_type": "乳製品製造業（旧）",
      "address": "伊賀市中柘植１２２１",
      "lat": 34.835048,
      "lng": 136.22838,
      "geocoding_level": 3,
      "phone": "0595-45-3666",
      "license_no": "伊賀 保第 58-0217-0001 号",
      "license_date": null,
      "expire_date": null
    },
    {
      "name": "株式会社日本サンガリアベバレッジカンパニー",
      "name_kana": "",
      "business_type": "清涼飲料水製造業（旧）",
      "address": "伊賀市中柘植１２２１",
      "lat": 34.835048,
      "lng": 136.22838,
      "geocoding_level": 3,
      "phone": "0595-45-3666",
      "license_no": "伊賀 保第 58-9824-0001 号",
      "license_date": null,
      "expire_date": null
    },
    {
      "name": "株式会社伊賀の里モクモク手づくりファーム",
      "name_kana": "",
      "business_type": "清涼飲料水製造業（旧）",
      "address": "伊賀市西湯舟３６０９",
      "lat": 34.862314,
      "lng": 136.192374,
      "geocoding_level": 3,
      "phone": "0595-43-0909",
      "license_no": "伊賀 保第 58-0224-0001 号",
      "license_date": null,
      "expire_date": null
    },
    {
      "name": "井上聡史",
      "name_kana": "",
      "business_type": "飲食店営業（旧）",
      "address": "伊賀市ゆめが丘２丁目５－１",
      "lat": 34.73773,
      "lng": 136.163437,
      "geocoding_level": 3,
      "phone": "0595-24-2536",
      "license_no": "伊賀 保第 58-0301-0001 号",
      "license_date": null,
      "expire_date": null
    },
    {
      "name": "株式会社三重給食センター",
      "name_kana": "",
      "business_type": "飲食店営業（旧）",
      "address": "伊賀市真泥２０６６",
      "lat": 34.765171,
      "lng": 136.190666,
      "geocoding_level": 3,
      "phone": "0595-46-0655",
      "license_no": "伊賀 保第 58-0301-0039 号",
      "license_date": null,
      "expire_date": null
    },
    {
      "name": "泉　進弥",
      "name_kana": "",
      "business_type": "飲食店営業（旧）",
      "address": "伊賀市柏野５９７－３",
      "lat": 34.81769,
      "lng": 136.189942,
      "geocoding_level": 3,
      "phone": "45-7372",
      "license_no": "伊賀 保第 58-0301-0093 号",
      "license_date": null,
      "expire_date": null
    },
    {
      "name": "川口　代志子",
      "name_kana": "",
      "business_type": "飲食店営業",
      "address": "伊賀市上野西日南町１７７０",
      "lat": 34.760514,
      "lng": 136.130288,
      "geocoding_level": 3,
      "phone": "0595-21-0260",
      "license_no": "賀2301-0222",
      "license_date": null,
      "expire_date": null
    },
    {
      "name": "山中潤己",
      "name_kana": "",
      "business_type": "菓子製造業（旧）",
      "address": "伊賀市平野城北町１４８",
      "lat": 34.774013524,
      "lng": 136.130843837,
      "geocoding_level": 8,
      "phone": "0595-23-0121",
      "license_no": "伊賀 保第 58-0303-0005 号",
      "license_date": null,
      "expire_date": null
    },
    {
      "name": "有限会社愛農ネット本部",
      "name_kana": "",
      "business_type": "菓子製造業（旧）",
      "address": "伊賀市別府６９４－１",
      "lat": 34.672559,
      "lng": 136.182926,
      "geocoding_level": 3,
      "phone": "",
      "license_no": "伊賀 保第 58-0303-0006 号",
      "license_date": null,
      "expire_date": null
    },
    {
      "name": "有限会社愛農ネット本部",
      "name_kana": "",
      "business_type": "食用油脂製造業（旧）",
      "address": "伊賀市別府６９４－１",
      "lat": 34.672559,
      "lng": 136.182926,
      "geocoding_level": 3,
      "phone": "",
      "license_no": "伊賀 保第 58-0327-0001 号",
      "license_date": null,
      "expire_date": null
    },
    {
      "name": "有限会社愛農ネット本部",
      "name_kana": "",
      "business_type": "みそ製造業（旧）",
      "address": "伊賀市別府６９４－１",
      "lat": 34.672559,
      "lng": 136.182926,
      "geocoding_level": 3,
      "phone": "",
      "license_no": "伊賀 保第 58-0329-0001 号",
      "license_date": null,
      "expire_date": null
    },
    {
      "name": "有限会社愛農ネット本部",
      "name_kana": "",
      "business_type": "ソース類製造業（旧）",
      "address": "伊賀市別府６９４－１",
      "lat": 34.672559,
      "lng": 136.182926,
      "geocoding_level": 3,
      "phone": "",
      "license_no": "伊賀 保第 58-0331-0002 号",
      "license_date": null,
      "expire_date": null
    },
    {
      "name": "有限会社愛農ネット本部",
      "name_kana": "",
      "business_type": "かん詰又はびん詰食品製造業（旧）",
      "address": "伊賀市別府６９４－１",
      "lat": 34.672559,
      "lng": 136.182926,
      "geocoding_level": 3,
      "phone": "",
      "license_no": "伊賀 保第 58-0333-0001 号",
      "license_date": null,
      "expire_date": null
    },
    {
      "name": "大橋　都",
      "name_kana": "",
      "business_type": "飲食店営業",
      "address": "伊賀市平野清水６３１－１２",
      "lat": 34.776985,
      "lng": 136.130208,
      "geocoding_level": 3,
      "phone": "",
      "license_no": "賀2401-0053",
      "license_date": null,
      "expire_date": null
    },
    {
      "name": "川合　輝美",
      "name_kana": "",
      "business_type": "飲食店営業",
      "address": "伊賀市上野忍町２６６５",
      "lat": 34.763242000000005,
      "lng": 136.130302,
      "geocoding_level": 3,
      "phone": "0595-23-6902",
      "license_no": "賀2401-0257",
      "license_date": null,
      "expire_date": null
    },
    {
      "name": "町野　仁英",
      "name_kana": "",
      "business_type": "菓子製造業",
      "address": "伊賀市上野車坂町６１５－４３",
      "lat": 34.767606,
      "lng": 136.142591,
      "geocoding_level": 3,
      "phone": "23-8390",
      "license_no": "賀2311-0056",
      "license_date": null,
      "expire_date": null
    },
    {
      "name": "株式会社福岡醤油店",
      "name_kana": "",
      "business_type": "みそ又はしょうゆ製造業",
      "address": "伊賀市島ケ原１３３０",
      "lat": 34.770733,
      "lng": 136.05433,
      "geocoding_level": 3,
      "phone": "0595-59-3121",
      "license_no": "賀2420-0002",
      "license_date": null,
      "expire_date": null
    },
    {
      "name": "株式会社福岡醤油店",
      "name_kana": "",
      "business_type": "密封包装食品製造業",
      "address": "伊賀市島ヶ原１３３０",
      "lat": 34.770733,
      "lng": 136.05433,
      "geocoding_level": 3,
      "phone": "0595-59-3121",
      "license_no": "賀2430-0002",
      "license_date": null,
      "expire_date": null
    },
    {
      "name": "有限会社エムアンドエムファミリー",
      "name_kana": "",
      "business_type": "飲食店営業",
      "address": "伊賀市四十九町１６５８－６",
      "lat": 34.744391,
      "lng": 136.135738,
      "geocoding_level": 3,
      "phone": "0595-26-2661",
      "license_no": "賀2201-0330",
      "license_date": null,
      "expire_date": null
    },
    {
      "name": "岡嶋　英喜",
      "name_kana": "",
      "business_type": "飲食店営業",
      "address": "伊賀市上野忍町２５６０",
      "lat": 34.763242000000005,
      "lng": 136.130302,
      "geocoding_level": 3,
      "phone": "0595-21-4541",
      "license_no": "賀2301-0165",
      "license_date": null,
      "expire_date": null
    },
    {
      "name": "松永みや",
      "name_kana": "",
      "business_type": "飲食店営業",
      "address": "伊賀市四十九町７９０",
      "lat": 34.744391,
      "lng": 136.135738,
      "geocoding_level": 3,
      "phone": "0595-21-6388",
      "license_no": "賀2501-0181",
      "license_date": null,
      "expire_date": null
    },
    {
      "name": "株式会社すき家",
      "name_kana": "",
      "business_type": "飲食店営業",
      "address": "伊賀市平野中川原４８４－１",
      "lat": 34.775833,
      "lng": 136.129336,
      "geocoding_level": 3,
      "phone": "",
      "license_no": "賀2301-0235",
      "license_date": null,
      "expire_date": null
    },
    {
      "name": "合同会社山給フードサービス",
      "name_kana": "",
      "business_type": "飲食店営業",
      "address": "伊賀市ゆめが丘７丁目３－３",
      "lat": 34.736406,
      "lng": 136.170369,
      "geocoding_level": 3,
      "phone": "0595-26-2455",
      "license_no": "賀2301-0398",
      "license_date": null,
      "expire_date": null
    },
    {
      "name": "有限会社もり口",
      "name_kana": "",
      "business_type": "飲食店営業",
      "address": "伊賀市ゆめが丘２丁目５－３",
      "lat": 34.73773,
      "lng": 136.163437,
      "geocoding_level": 3,
      "phone": "0595-22-2610",
      "license_no": "賀2301-0287",
      "license_date": null,
      "expire_date": null
    },
    {
      "name": "浮並直美",
      "name_kana": "",
      "business_type": "飲食店営業",
      "address": "伊賀市久米町３２６",
      "lat": 34.754622,
      "lng": 136.140668,
      "geocoding_level": 3,
      "phone": "0595-23-6050",
      "license_no": "賀2501-0426",
      "license_date": null,
      "expire_date": null
    },
    {
      "name": "有限会社ヒロ・Ｋ・プロデュース",
      "name_kana": "",
      "business_type": "飲食店営業",
      "address": "伊賀市平野西町５６",
      "lat": 34.772744789,
      "lng": 136.136989809,
      "geocoding_level": 8,
      "phone": "0595-23-5677",
      "license_no": "賀2301-0475",
      "license_date": null,
      "expire_date": null
    },
    {
      "name": "有限会社フードセンター八百半",
      "name_kana": "",
      "business_type": "飲食店営業",
      "address": "伊賀市上野丸之内３８",
      "lat": 34.769566,
      "lng": 136.128784,
      "geocoding_level": 3,
      "phone": "0595-21-0608",
      "license_no": "賀2501-0437",
      "license_date": null,
      "expire_date": null
    },
    {
      "name": "株式会社安全",
      "name_kana": "",
      "business_type": "飲食店営業",
      "address": "伊賀市柘植町６１８７－１",
      "lat": 34.846303,
      "lng": 136.255628,
      "geocoding_level": 3,
      "phone": "0595-45-3513",
      "license_no": "賀2301-0459",
      "license_date": null,
      "expire_date": null
    },
    {
      "name": "横山昌巳",
      "name_kana": "",
      "business_type": "菓子製造業",
      "address": "伊賀市ゆめが丘４丁目１６－１",
      "lat": 34.734778000000006,
      "lng": 136.158071,
      "geocoding_level": 3,
      "phone": "0595-23-4000",
      "license_no": "賀2411-0035",
      "license_date": null,
      "expire_date": null
    },
    {
      "name": "小澤製菓有限会社",
      "name_kana": "",
      "business_type": "菓子製造業",
      "address": "伊賀市平野東町６２",
      "lat": 34.770785555,
      "lng": 136.138159177,
      "geocoding_level": 8,
      "phone": "0595-23-1352",
      "license_no": "賀2311-0033",
      "license_date": null,
      "expire_date": null
    },
    {
      "name": "有限会社フードセンター八百半",
      "name_kana": "",
      "business_type": "魚介類販売業",
      "address": "伊賀市上野丸之内３８",
      "lat": 34.769566,
      "lng": 136.128784,
      "geocoding_level": 3,
      "phone": "0595-21-0608",
      "license_no": "賀2504-0014",
      "license_date": null,
      "expire_date": null
    },
    {
      "name": "株式会社農業法人モクモク",
      "name_kana": "",
      "business_type": "そうざい製造業",
      "address": "伊賀市島ヶ原１４３５８－１",
      "lat": 34.770733,
      "lng": 136.05433,
      "geocoding_level": 3,
      "phone": "0595-59-9292",
      "license_no": "賀2325-0004",
      "license_date": null,
      "expire_date": null
    },
    {
      "name": "株式会社農業法人モクモク",
      "name_kana": "",
      "business_type": "冷凍食品製造業",
      "address": "伊賀市島ヶ原１４３５８－１",
      "lat": 34.770733,
      "lng": 136.05433,
      "geocoding_level": 3,
      "phone": "0595-59-9292",
      "license_no": "賀2327-0001",
      "license_date": null,
      "expire_date": null
    },
    {
      "name": "株式会社農業法人モクモク",
      "name_kana": "",
      "business_type": "豆腐製造業",
      "address": "伊賀市島ヶ原１４３５８－１",
      "lat": 34.770733,
      "lng": 136.05433,
      "geocoding_level": 3,
      "phone": "0595-59-9292",
      "license_no": "賀2422-0001",
      "license_date": null,
      "expire_date": null
    },
    {
      "name": "株式会社伊賀の里モクモク手づくりファーム",
      "name_kana": "",
      "business_type": "乳製品製造業",
      "address": "伊賀市西湯舟３７７１、３７７２",
      "lat": 34.862314,
      "lng": 136.192374,
      "geocoding_level": 3,
      "phone": "0595-43-9080",
      "license_no": "賀2313-0002",
      "license_date": null,
      "expire_date": null
    },
    {
      "name": "株式会社伊賀の里モクモク手づくりファーム",
      "name_kana": "",
      "business_type": "乳処理業",
      "address": "伊賀市西湯舟３７７１、３７７２",
      "lat": 34.862314,
      "lng": 136.192374,
      "geocoding_level": 3,
      "phone": "0595-43-0909",
      "license_no": "賀2307-0001",
      "license_date": null,
      "expire_date": null
    },
    {
      "name": "一般財団法人信貴山病院",
      "name_kana": "",
      "business_type": "飲食店営業",
      "address": "伊賀市緑ケ丘本町１６０６",
      "lat": 34.761112,
      "lng": 136.141304,
      "geocoding_level": 3,
      "phone": "0595-26-0505",
      "license_no": "賀2401-0008",
      "license_date": null,
      "expire_date": null
    },
    {
      "name": "有限会社瑞福祥",
      "name_kana": "",
      "business_type": "飲食店営業",
      "address": "伊賀市希望ケ丘西１丁目３－１５",
      "lat": 34.782901718,
      "lng": 136.219991266,
      "geocoding_level": 8,
      "phone": "0595-45-6114",
      "license_no": "賀2401-0078",
      "license_date": null,
      "expire_date": null
    },
    {
      "name": "有限会社瑞福祥",
      "name_kana": "",
      "business_type": "飲食店営業",
      "address": "伊賀市桐ケ丘３丁目３５５",
      "lat": 34.662676,
      "lng": 136.190918,
      "geocoding_level": 3,
      "phone": "0595-52-5885",
      "license_no": "賀2401-0079",
      "license_date": null,
      "expire_date": null
    },
    {
      "name": "株式会社エイ・ダイニング",
      "name_kana": "",
      "business_type": "飲食店営業",
      "address": "伊賀市平野清水６４８",
      "lat": 34.776985,
      "lng": 136.130208,
      "geocoding_level": 3,
      "phone": "090-8465-4883",
      "license_no": "賀2401-0215",
      "license_date": null,
      "expire_date": null
    },
    {
      "name": "東久保　千加子",
      "name_kana": "",
      "business_type": "飲食店営業",
      "address": "伊賀市上野丸之内３９－１７",
      "lat": 34.769566,
      "lng": 136.128784,
      "geocoding_level": 3,
      "phone": "0595-21-6686",
      "license_no": "賀2401-0298",
      "license_date": null,
      "expire_date": null
    },
    {
      "name": "葛原礼子",
      "name_kana": "",
      "business_type": "飲食店営業",
      "address": "伊賀市緑ケ丘南町３９０８－２０",
      "lat": 34.759248355,
      "lng": 136.145508355,
      "geocoding_level": 8,
      "phone": "0595-22-1102",
      "license_no": "賀2401-0531",
      "license_date": null,
      "expire_date": null
    },
    {
      "name": "松本具規",
      "name_kana": "",
      "business_type": "飲食店営業",
      "address": "伊賀市長田９７",
      "lat": 34.775273914,
      "lng": 136.104536542,
      "geocoding_level": 8,
      "phone": "0595-21-7001",
      "license_no": "賀2401-0499",
      "license_date": null,
      "expire_date": null
    },
    {
      "name": "株式会社ＴＳＵＭＩＥ",
      "name_kana": "",
      "business_type": "飲食店営業",
      "address": "伊賀市柘植町２４４９－１３",
      "lat": 34.846303,
      "lng": 136.255628,
      "geocoding_level": 3,
      "phone": "0595-45-4824",
      "license_no": "賀2501-0301",
      "license_date": null,
      "expire_date": null
    },
    {
      "name": "髙森知司",
      "name_kana": "",
      "business_type": "飲食店営業",
      "address": "伊賀市玉滝６９８７－１",
      "lat": 34.868503,
      "lng": 136.172631,
      "geocoding_level": 3,
      "phone": "0595-42-1637",
      "license_no": "賀2401-0538",
      "license_date": null,
      "expire_date": null
    },
    {
      "name": "申　倫澈",
      "name_kana": "",
      "business_type": "飲食店営業",
      "address": "伊賀市上野東町２９３４",
      "lat": 34.76628,
      "lng": 136.131492,
      "geocoding_level": 3,
      "phone": "",
      "license_no": "賀2401-0536",
      "license_date": null,
      "expire_date": null
    },
    {
      "name": "ウイングトワゴルフ倶楽部株式会社",
      "name_kana": "",
      "business_type": "飲食店営業",
      "address": "伊賀市大滝１２５８",
      "lat": 34.69127,
      "lng": 136.08416,
      "geocoding_level": 3,
      "phone": "",
      "license_no": "賀2501-0026",
      "license_date": null,
      "expire_date": null
    },
    {
      "name": "株式会社エムツウコーポレーション",
      "name_kana": "",
      "business_type": "飲食店営業",
      "address": "伊賀市長田８９６－１",
      "lat": 34.769895716,
      "lng": 136.106681114,
      "geocoding_level": 8,
      "phone": "0595-24-8410",
      "license_no": "賀2201-0136",
      "license_date": null,
      "expire_date": null
    },
    {
      "name": "伊藤秀樹",
      "name_kana": "",
      "business_type": "飲食店営業",
      "address": "伊賀市上野桑町２１７８",
      "lat": 34.75788,
      "lng": 136.134265,
      "geocoding_level": 3,
      "phone": "0595-21-7658",
      "license_no": "賀2501-0369",
      "license_date": null,
      "expire_date": null
    },
    {
      "name": "杉本米寿",
      "name_kana": "",
      "business_type": "飲食店営業",
      "address": "伊賀市下友生２６７７",
      "lat": 34.750084,
      "lng": 136.157252,
      "geocoding_level": 3,
      "phone": "0595-23-8129",
      "license_no": "賀2501-0423",
      "license_date": null,
      "expire_date": null
    },
    {
      "name": "今井　智",
      "name_kana": "",
      "business_type": "飲食店営業",
      "address": "伊賀市長田６０６２－１",
      "lat": 34.76715,
      "lng": 136.093566,
      "geocoding_level": 3,
      "phone": "0595-26-1211",
      "license_no": "賀2501-0400",
      "license_date": null,
      "expire_date": null
    },
    {
      "name": "名阪食品株式会社",
      "name_kana": "",
      "business_type": "飲食店営業",
      "address": "伊賀市高畑７８０",
      "lat": 34.784116066,
      "lng": 136.153583914,
      "geocoding_level": 8,
      "phone": "0595-48-5657",
      "license_no": "賀2501-0403",
      "license_date": null,
      "expire_date": null
    },
    {
      "name": "倉本忠司",
      "name_kana": "",
      "business_type": "飲食店営業",
      "address": "伊賀市緑ケ丘東町７７０－１",
      "lat": 34.764723177,
      "lng": 136.141553583,
      "geocoding_level": 8,
      "phone": "0595-24-3690",
      "license_no": "賀2501-0466",
      "license_date": null,
      "expire_date": null
    },
    {
      "name": "有限会社心",
      "name_kana": "",
      "business_type": "飲食店営業",
      "address": "伊賀市服部町３６４－６",
      "lat": 34.781188,
      "lng": 136.138056,
      "geocoding_level": 3,
      "phone": "0595-22-2012",
      "license_no": "賀2501-0392",
      "license_date": null,
      "expire_date": null
    },
    {
      "name": "株式会社伊賀の里モクモク手づくりファーム",
      "name_kana": "",
      "business_type": "アイスクリーム類製造業",
      "address": "伊賀市西湯舟３６０９",
      "lat": 34.862314,
      "lng": 136.192374,
      "geocoding_level": 3,
      "phone": "0595-43-0909",
      "license_no": "賀2512-0001",
      "license_date": null,
      "expire_date": null
    },
    {
      "name": "ユニー株式会社",
      "name_kana": "",
      "business_type": "飲食店営業",
      "address": "伊賀市服部町１７８８",
      "lat": 34.781188,
      "lng": 136.138056,
      "geocoding_level": 3,
      "phone": "0570-009-383",
      "license_no": "賀2401-0433",
      "license_date": null,
      "expire_date": null
    },
    {
      "name": "ユニー株式会社",
      "name_kana": "",
      "business_type": "飲食店営業",
      "address": "伊賀市服部町１７８８",
      "lat": 34.781188,
      "lng": 136.138056,
      "geocoding_level": 3,
      "phone": "0570-009-383",
      "license_no": "賀2401-0434",
      "license_date": null,
      "expire_date": null
    },
    {
      "name": "ユニー株式会社",
      "name_kana": "",
      "business_type": "飲食店営業",
      "address": "伊賀市服部町１７８８",
      "lat": 34.781188,
      "lng": 136.138056,
      "geocoding_level": 3,
      "phone": "0570-009-383",
      "license_no": "賀2501-0393",
      "license_date": null,
      "expire_date": null
    },
    {
      "name": "ユニー株式会社",
      "name_kana": "",
      "business_type": "食肉販売業",
      "address": "伊賀市服部町１７８８",
      "lat": 34.781188,
      "lng": 136.138056,
      "geocoding_level": 3,
      "phone": "0570-009-383",
      "license_no": "賀2503-0013",
      "license_date": null,
      "expire_date": null
    },
    {
      "name": "ユニー株式会社",
      "name_kana": "",
      "business_type": "魚介類販売業",
      "address": "伊賀市服部町１７８８",
      "lat": 34.781188,
      "lng": 136.138056,
      "geocoding_level": 3,
      "phone": "0570-009-383",
      "license_no": "賀2504-0012",
      "license_date": null,
      "expire_date": null
    },
    {
      "name": "ユニー株式会社",
      "name_kana": "",
      "business_type": "飲食店営業",
      "address": "伊賀市服部町１７８８",
      "lat": 34.781188,
      "lng": 136.138056,
      "geocoding_level": 3,
      "phone": "0570-009-383",
      "license_no": "賀2401-0503",
      "license_date": null,
      "expire_date": null
    },
    {
      "name": "三成食品株式会社",
      "name_kana": "",
      "business_type": "そうざい製造業",
      "address": "伊賀市千歳８－１",
      "lat": 34.798163343,
      "lng": 136.16530245,
      "geocoding_level": 8,
      "phone": "0595-21-6886",
      "license_no": "賀2525-0004",
      "license_date": null,
      "expire_date": null
    },
    {
      "name": "三成食品株式会社",
      "name_kana": "",
      "business_type": "食品の冷凍又は冷蔵業（旧）",
      "address": "伊賀市千歳８－１",
      "lat": 34.798163343,
      "lng": 136.16530245,
      "geocoding_level": 8,
      "phone": "0595-21-6886",
      "license_no": "伊賀 保第 58-1422-0001 号",
      "license_date": null,
      "expire_date": null
    },
    {
      "name": "株式会社魚国総本社",
      "name_kana": "",
      "business_type": "飲食店営業",
      "address": "伊賀市馬田１４７３",
      "lat": 34.831611583,
      "lng": 136.175453156,
      "geocoding_level": 8,
      "phone": "",
      "license_no": "賀2601-0015",
      "license_date": null,
      "expire_date": null
    },
    {
      "name": "堀内智恵子",
      "name_kana": "",
      "business_type": "飲食店営業",
      "address": "伊賀市上野東町２９６９",
      "lat": 34.76628,
      "lng": 136.131492,
      "geocoding_level": 3,
      "phone": "0595-23-4535",
      "license_no": "賀2501-0578",
      "license_date": null,
      "expire_date": null
    },
    {
      "name": "余原立高",
      "name_kana": "",
      "business_type": "飲食店営業（旧）",
      "address": "伊賀市緑ケ丘中町４２５５－３",
      "lat": 34.761320565,
      "lng": 136.143580777,
      "geocoding_level": 8,
      "phone": "0595-48-5439",
      "license_no": "伊賀 保第 58-0801-0098 号",
      "license_date": null,
      "expire_date": null
    },
    {
      "name": "福嶋明美",
      "name_kana": "",
      "business_type": "飲食店営業（旧）",
      "address": "伊賀市白樫５８３５－４",
      "lat": 34.729774,
      "lng": 136.076336,
      "geocoding_level": 3,
      "phone": "090-9021-0116",
      "license_no": "伊賀 保第 58-0801-0208 号",
      "license_date": null,
      "expire_date": null
    },
    {
      "name": "株式会社コラボ",
      "name_kana": "",
      "business_type": "飲食店営業（旧）",
      "address": "伊賀市服部町１７８８",
      "lat": 34.781188,
      "lng": 136.138056,
      "geocoding_level": 3,
      "phone": "0595-23-2238",
      "license_no": "伊賀 保第 58-0801-0232 号",
      "license_date": null,
      "expire_date": null
    },
    {
      "name": "株式会社安全",
      "name_kana": "",
      "business_type": "飲食店営業（旧）",
      "address": "伊賀市柘植町６４２７－１",
      "lat": 34.846303,
      "lng": 136.255628,
      "geocoding_level": 3,
      "phone": "0595-45-3511",
      "license_no": "伊賀 保第 58-0801-0249 号",
      "license_date": null,
      "expire_date": null
    },
    {
      "name": "木村眞澄",
      "name_kana": "",
      "business_type": "飲食店営業（旧）",
      "address": "伊賀市上野桑町２１２０－４",
      "lat": 34.75788,
      "lng": 136.134265,
      "geocoding_level": 3,
      "phone": "0595-24-4321",
      "license_no": "伊賀 保第 58-0801-0253 号",
      "license_date": null,
      "expire_date": null
    },
    {
      "name": "株式会社ハートランド",
      "name_kana": "",
      "business_type": "飲食店営業（旧）",
      "address": "伊賀市四十九町２８８８",
      "lat": 34.744391,
      "lng": 136.135738,
      "geocoding_level": 3,
      "phone": "0595-21-5010",
      "license_no": "伊賀 保第 58-0801-0332 号",
      "license_date": null,
      "expire_date": null
    },
    {
      "name": "株式会社リエイ",
      "name_kana": "",
      "business_type": "飲食店営業（旧）",
      "address": "伊賀市佐那具町１１６８",
      "lat": 34.800557291,
      "lng": 136.170490912,
      "geocoding_level": 8,
      "phone": "0595-23-1455",
      "license_no": "伊賀 保第 58-0801-0347 号",
      "license_date": null,
      "expire_date": null
    },
    {
      "name": "社会福祉法人洗心福祉会",
      "name_kana": "",
      "business_type": "菓子製造業",
      "address": "伊賀市馬田１４７３",
      "lat": 34.831611583,
      "lng": 136.175453156,
      "geocoding_level": 8,
      "phone": "0595-43-9050",
      "license_no": "賀2511-0057",
      "license_date": null,
      "expire_date": null
    },
    {
      "name": "株式会社クオン",
      "name_kana": "",
      "business_type": "菓子製造業（旧）",
      "address": "伊賀市上野池町１３４９－６",
      "lat": 34.761793,
      "lng": 136.133482,
      "geocoding_level": 3,
      "phone": "0595-21-2875",
      "license_no": "伊賀 保第 58-0803-0015 号",
      "license_date": null,
      "expire_date": null
    },
    {
      "name": "株式会社大進水産",
      "name_kana": "",
      "business_type": "魚介類販売業（旧）",
      "address": "伊賀市問屋町４５",
      "lat": 34.751655,
      "lng": 136.1443,
      "geocoding_level": 3,
      "phone": "0595-24-1351",
      "license_no": "伊賀 保第 58-0809-0005 号",
      "license_date": null,
      "expire_date": null
    },
    {
      "name": "株式会社大進水産",
      "name_kana": "",
      "business_type": "そうざい製造業",
      "address": "伊賀市問屋町４５",
      "lat": 34.751655,
      "lng": 136.1443,
      "geocoding_level": 3,
      "phone": "0595-24-1351",
      "license_no": "賀2225-0008",
      "license_date": null,
      "expire_date": null
    },
    {
      "name": "株式会社日本サンガリアベバレッジカンパニー",
      "name_kana": "",
      "business_type": "清涼飲料水製造業（旧）",
      "address": "伊賀市依那具８４４－１",
      "lat": 34.737239,
      "lng": 136.144162,
      "geocoding_level": 3,
      "phone": "0595-23-3290",
      "license_no": "伊賀 保第 58-0824-0001 号",
      "license_date": null,
      "expire_date": null
    },
    {
      "name": "株式会社日本サンガリアベバレッジカンパニー",
      "name_kana": "",
      "business_type": "酒類製造業（旧）",
      "address": "伊賀市依那具８４４－１",
      "lat": 34.737239,
      "lng": 136.144162,
      "geocoding_level": 3,
      "phone": "0595-23-3290",
      "license_no": "伊賀 保第 58-0832-0001 号",
      "license_date": null,
      "expire_date": null
    },
    {
      "name": "株式会社日本サンガリアベバレッジカンパニー",
      "name_kana": "",
      "business_type": "乳製品製造業（旧）",
      "address": "伊賀市依那具８４４－１",
      "lat": 34.737239,
      "lng": 136.144162,
      "geocoding_level": 3,
      "phone": "0595-23-3290",
      "license_no": "伊賀 保第 58-2117-0001 号",
      "license_date": null,
      "expire_date": null
    },
    {
      "name": "長田和正",
      "name_kana": "",
      "business_type": "飲食店営業（旧）",
      "address": "伊賀市ゆめが丘１丁目１　建設産業会館ドーム南側",
      "lat": 34.740468,
      "lng": 136.155524,
      "geocoding_level": 3,
      "phone": "0595-22-0233",
      "license_no": "伊賀 保第 58-0901-0019 号",
      "license_date": null,
      "expire_date": null
    },
    {
      "name": "廣岡　篤",
      "name_kana": "",
      "business_type": "飲食店営業（旧）",
      "address": "伊賀市上野東町３９（天神商店街５号店）",
      "lat": 34.76628,
      "lng": 136.131492,
      "geocoding_level": 3,
      "phone": "070-5653-1117",
      "license_no": "伊賀 保第 58-0901-0030 号",
      "license_date": null,
      "expire_date": null
    },
    {
      "name": "藤本久光",
      "name_kana": "",
      "business_type": "飲食店営業",
      "address": "伊賀市馬田１４９０",
      "lat": 34.832446270000005,
      "lng": 136.17504834,
      "geocoding_level": 8,
      "phone": "0595-43-9017",
      "license_no": "賀2101-0212",
      "license_date": null,
      "expire_date": null
    },
    {
      "name": "伊藤拓馬",
      "name_kana": "",
      "business_type": "飲食店営業",
      "address": "伊賀市上野忍町２６６５－１",
      "lat": 34.763242000000005,
      "lng": 136.130302,
      "geocoding_level": 3,
      "phone": "",
      "license_no": "賀2401-0205",
      "license_date": null,
      "expire_date": null
    },
    {
      "name": "松田　八重子",
      "name_kana": "",
      "business_type": "飲食店営業",
      "address": "伊賀市上野幸坂町３５４０－２",
      "lat": 34.766111,
      "lng": 136.12463,
      "geocoding_level": 3,
      "phone": "",
      "license_no": "賀2401-0299",
      "license_date": null,
      "expire_date": null
    },
    {
      "name": "ルートインジャパン株式会社",
      "name_kana": "",
      "business_type": "飲食店営業",
      "address": "伊賀市上野丸之内１－１３１　 ルートイングランティア伊賀上野和蔵の宿",
      "lat": 34.769566,
      "lng": 136.128784,
      "geocoding_level": 3,
      "phone": "0595-26-1011",
      "license_no": "賀2301-0236",
      "license_date": null,
      "expire_date": null
    },
    {
      "name": "有限会社新納",
      "name_kana": "",
      "business_type": "飲食店営業",
      "address": "伊賀市千歳２６０－１",
      "lat": 34.795966252,
      "lng": 136.158386749,
      "geocoding_level": 8,
      "phone": "0595-26-6161",
      "license_no": "賀2101-0189",
      "license_date": null,
      "expire_date": null
    },
    {
      "name": "藤田真弓",
      "name_kana": "",
      "business_type": "飲食店営業",
      "address": "伊賀市西明寺６２３－４",
      "lat": 34.770454617000006,
      "lng": 136.144796904,
      "geocoding_level": 8,
      "phone": "0595-48-7033",
      "license_no": "賀2401-0562",
      "license_date": null,
      "expire_date": null
    },
    {
      "name": "林佳代子",
      "name_kana": "",
      "business_type": "飲食店営業",
      "address": "伊賀市ゆめが丘６－９－７",
      "lat": 34.731618,
      "lng": 136.165048,
      "geocoding_level": 3,
      "phone": "0595-24-0815",
      "license_no": "賀2501-0108",
      "license_date": null,
      "expire_date": null
    },
    {
      "name": "堀智栄子",
      "name_kana": "",
      "business_type": "菓子製造業",
      "address": "伊賀市柘植町８８０４",
      "lat": 34.846303,
      "lng": 136.255628,
      "geocoding_level": 3,
      "phone": "0595-45-2232",
      "license_no": "賀2411-0036",
      "license_date": null,
      "expire_date": null
    },
    {
      "name": "株式会社桔梗屋織居",
      "name_kana": "",
      "business_type": "菓子製造業",
      "address": "伊賀市上野東町２９４９",
      "lat": 34.76628,
      "lng": 136.131492,
      "geocoding_level": 3,
      "phone": "0595-21-0123",
      "license_no": "賀2511-0020",
      "license_date": null,
      "expire_date": null
    },
    {
      "name": "藤﨑義武",
      "name_kana": "",
      "business_type": "菓子製造業",
      "address": "伊賀市上野車坂町７４２",
      "lat": 34.767606,
      "lng": 136.142591,
      "geocoding_level": 3,
      "phone": "0595-21-0870",
      "license_no": "賀2511-0025",
      "license_date": null,
      "expire_date": null
    },
    {
      "name": "株式会社ＲＹＵ－ＫＹＵ",
      "name_kana": "",
      "business_type": "飲食店営業",
      "address": "伊賀市柘植町９８６２－１",
      "lat": 34.846303,
      "lng": 136.255628,
      "geocoding_level": 3,
      "phone": "0595-45-8027",
      "license_no": "賀2101-0291",
      "license_date": null,
      "expire_date": null
    },
    {
      "name": "小鹿博文",
      "name_kana": "",
      "business_type": "飲食店営業",
      "address": "伊賀市上野車坂町８７８",
      "lat": 34.767606,
      "lng": 136.142591,
      "geocoding_level": 3,
      "phone": "",
      "license_no": "賀2501-0529",
      "license_date": null,
      "expire_date": null
    },
    {
      "name": "中野創太",
      "name_kana": "",
      "business_type": "飲食店営業",
      "address": "伊賀市緑ケ丘南町３９０８－１９",
      "lat": 34.759267486,
      "lng": 136.145550234,
      "geocoding_level": 8,
      "phone": "",
      "license_no": "賀2301-0118",
      "license_date": null,
      "expire_date": null
    },
    {
      "name": "宮下　葉子",
      "name_kana": "",
      "business_type": "飲食店営業",
      "address": "伊賀市上野忍町２５８０",
      "lat": 34.763242000000005,
      "lng": 136.130302,
      "geocoding_level": 3,
      "phone": "0595-21-1864",
      "license_no": "賀2301-0221",
      "license_date": null,
      "expire_date": null
    },
    {
      "name": "株式会社はま寿司",
      "name_kana": "",
      "business_type": "飲食店営業",
      "address": "伊賀市小田町２３９－１",
      "lat": 34.774187,
      "lng": 136.119149,
      "geocoding_level": 3,
      "phone": "0595-22-8620",
      "license_no": "賀2301-0203",
      "license_date": null,
      "expire_date": null
    },
    {
      "name": "植田　清美",
      "name_kana": "",
      "business_type": "飲食店営業",
      "address": "伊賀市平野城北町１２１",
      "lat": 34.773465692,
      "lng": 136.133093846,
      "geocoding_level": 8,
      "phone": "0595-23-2355",
      "license_no": "賀2301-0262",
      "license_date": null,
      "expire_date": null
    },
    {
      "name": "阿山物産振興協同組合",
      "name_kana": "",
      "business_type": "菓子製造業",
      "address": "伊賀市川合３３７０－２９",
      "lat": 34.819998,
      "lng": 136.169139,
      "geocoding_level": 3,
      "phone": "0595-43-9955",
      "license_no": "賀2511-0059",
      "license_date": null,
      "expire_date": null
    },
    {
      "name": "有限会社時代屋プロジェクト",
      "name_kana": "",
      "business_type": "食肉処理業",
      "address": "伊賀市上野紺屋町３１６７－１",
      "lat": 34.764502,
      "lng": 136.130069,
      "geocoding_level": 3,
      "phone": "0595-51-0751",
      "license_no": "賀2309-0002",
      "license_date": null,
      "expire_date": null
    },
    {
      "name": "有限会社時代屋プロジェクト",
      "name_kana": "",
      "business_type": "飲食店営業",
      "address": "伊賀市上野紺屋町３１６７－１",
      "lat": 34.764502,
      "lng": 136.130069,
      "geocoding_level": 3,
      "phone": "0595-51-0751",
      "license_no": "賀2301-0170",
      "license_date": null,
      "expire_date": null
    },
    {
      "name": "フジ産業株式会社",
      "name_kana": "",
      "business_type": "飲食店営業",
      "address": "伊賀市上野福居町３３３６－１",
      "lat": 34.76479,
      "lng": 136.125298,
      "geocoding_level": 3,
      "phone": "0595-24-8866",
      "license_no": "賀2301-0497",
      "license_date": null,
      "expire_date": null
    },
    {
      "name": "株式会社あみやき亭",
      "name_kana": "",
      "business_type": "飲食店営業",
      "address": "伊賀市服部町１９４９－１",
      "lat": 34.781188,
      "lng": 136.138056,
      "geocoding_level": 3,
      "phone": "0595-26-4129",
      "license_no": "賀2301-0518",
      "license_date": null,
      "expire_date": null
    },
    {
      "name": "株式会社近鉄リテーリング",
      "name_kana": "",
      "business_type": "飲食店営業",
      "address": "伊賀市比土４１６７－３",
      "lat": 34.653651,
      "lng": 136.156837,
      "geocoding_level": 3,
      "phone": "0595-36-2730",
      "license_no": "賀2301-0572",
      "license_date": null,
      "expire_date": null
    },
    {
      "name": "株式会社ステーキハウスＧｒａｚｉｅ",
      "name_kana": "",
      "business_type": "飲食店営業",
      "address": "伊賀市上野丸之内５００ ハイトピア２Ｆ",
      "lat": 34.769566,
      "lng": 136.128784,
      "geocoding_level": 3,
      "phone": "0595-51-0783",
      "license_no": "賀2301-0542",
      "license_date": null,
      "expire_date": null
    },
    {
      "name": "神立　義文",
      "name_kana": "",
      "business_type": "飲食店営業",
      "address": "伊賀市上野中町３０３３－１",
      "lat": 34.765989,
      "lng": 136.128337,
      "geocoding_level": 3,
      "phone": "0595-24-1606",
      "license_no": "賀2401-0073",
      "license_date": null,
      "expire_date": null
    },
    {
      "name": "社会福祉法人洗心福祉会",
      "name_kana": "",
      "business_type": "飲食店営業",
      "address": "伊賀市久米町８７２－１",
      "lat": 34.754622,
      "lng": 136.140668,
      "geocoding_level": 3,
      "phone": "0595-23-6500",
      "license_no": "賀2401-0160",
      "license_date": null,
      "expire_date": null
    },
    {
      "name": "社会福祉法人伊賀昴会",
      "name_kana": "",
      "business_type": "飲食店営業",
      "address": "伊賀市四十九町２１０７",
      "lat": 34.744391,
      "lng": 136.135738,
      "geocoding_level": 3,
      "phone": "0595-24-7897",
      "license_no": "賀2401-0087",
      "license_date": null,
      "expire_date": null
    },
    {
      "name": "巽　恵理子",
      "name_kana": "",
      "business_type": "飲食店営業",
      "address": "伊賀市緑ケ丘南町３９０８－２１",
      "lat": 34.759230607000006,
      "lng": 136.145469488,
      "geocoding_level": 8,
      "phone": "090-7042-5024",
      "license_no": "賀2401-0234",
      "license_date": null,
      "expire_date": null
    },
    {
      "name": "稲垣孝志",
      "name_kana": "",
      "business_type": "飲食店営業",
      "address": "伊賀市上野丸之内２３ 映劇ビル２Ｆ",
      "lat": 34.769566,
      "lng": 136.128784,
      "geocoding_level": 3,
      "phone": "0595-51-5760",
      "license_no": "賀2401-0401",
      "license_date": null,
      "expire_date": null
    },
    {
      "name": "垣本浩宣",
      "name_kana": "",
      "business_type": "飲食店営業",
      "address": "伊賀市千歳２７３－６",
      "lat": 34.796994547,
      "lng": 136.159459683,
      "geocoding_level": 8,
      "phone": "0595-24-0797",
      "license_no": "賀2401-0507",
      "license_date": null,
      "expire_date": null
    },
    {
      "name": "有限会社伊藤和",
      "name_kana": "",
      "business_type": "食肉販売業",
      "address": "伊賀市上野丸之内５００　 ハイトピア伊賀１Ｆ",
      "lat": 34.769566,
      "lng": 136.128784,
      "geocoding_level": 3,
      "phone": "0595-24-2983",
      "license_no": "賀2303-0017",
      "license_date": null,
      "expire_date": null
    },
    {
      "name": "農事組合法人あぐりぴあ伊賀",
      "name_kana": "",
      "business_type": "そうざい製造業",
      "address": "伊賀市才良１８９１－１",
      "lat": 34.711456965,
      "lng": 136.156741854,
      "geocoding_level": 8,
      "phone": "",
      "license_no": "賀2425-0002",
      "license_date": null,
      "expire_date": null
    },
    {
      "name": "農事組合法人あぐりぴあ伊賀",
      "name_kana": "",
      "business_type": "みそ又はしょうゆ製造業",
      "address": "伊賀市才良１８９１－１",
      "lat": 34.711456965,
      "lng": 136.156741854,
      "geocoding_level": 8,
      "phone": "0595-38-8001",
      "license_no": "賀2420-0001",
      "license_date": null,
      "expire_date": null
    },
    {
      "name": "株式会社日本サンガリアベバレッジカンパニー",
      "name_kana": "",
      "business_type": "清涼飲料水製造業",
      "address": "伊賀市柘植町１５８３",
      "lat": 34.846303,
      "lng": 136.255628,
      "geocoding_level": 3,
      "phone": "0595-45-7701",
      "license_no": "賀2414-0001",
      "license_date": null,
      "expire_date": null
    },
    {
      "name": "株式会社ますだ",
      "name_kana": "",
      "business_type": "飲食店営業",
      "address": "伊賀市緑ケ丘東町７７２－１",
      "lat": 34.764930383,
      "lng": 136.141955874,
      "geocoding_level": 8,
      "phone": "0595-22-2512",
      "license_no": "賀2401-0564",
      "license_date": null,
      "expire_date": null
    },
    {
      "name": "中尾眞憲",
      "name_kana": "",
      "business_type": "飲食店営業",
      "address": "伊賀市佐那具町９６６",
      "lat": 34.802724036,
      "lng": 136.170423484,
      "geocoding_level": 8,
      "phone": "0595-22-1020",
      "license_no": "賀2401-0598",
      "license_date": null,
      "expire_date": null
    },
    {
      "name": "奈良マルタマフーズ株式会社",
      "name_kana": "",
      "business_type": "飲食店営業",
      "address": "伊賀市腰山１１３５",
      "lat": 34.626804,
      "lng": 136.216619,
      "geocoding_level": 3,
      "phone": "0595-54-1331",
      "license_no": "賀2401-0575",
      "license_date": null,
      "expire_date": null
    },
    {
      "name": "株式会社三重給食センター",
      "name_kana": "",
      "business_type": "飲食店営業",
      "address": "伊賀市ゆめが丘２丁目１－３",
      "lat": 34.73773,
      "lng": 136.163437,
      "geocoding_level": 3,
      "phone": "059-352-7255",
      "license_no": "賀2401-0576",
      "license_date": null,
      "expire_date": null
    },
    {
      "name": "株式会社ぼて福",
      "name_kana": "",
      "business_type": "飲食店営業",
      "address": "伊賀市小田町７４５－３８",
      "lat": 34.774187,
      "lng": 136.119149,
      "geocoding_level": 3,
      "phone": "0595-23-8026",
      "license_no": "賀2501-0039",
      "license_date": null,
      "expire_date": null
    },
    {
      "name": "池澤早苗",
      "name_kana": "",
      "business_type": "飲食店営業",
      "address": "伊賀市上野小玉町３０４５－１",
      "lat": 34.765249,
      "lng": 136.128563,
      "geocoding_level": 3,
      "phone": "0595-23-2351",
      "license_no": "賀2501-0089",
      "license_date": null,
      "expire_date": null
    },
    {
      "name": "株式会社賀門",
      "name_kana": "",
      "business_type": "飲食店営業",
      "address": "伊賀市上野中町２９９３",
      "lat": 34.765989,
      "lng": 136.128337,
      "geocoding_level": 3,
      "phone": "0595-22-0707",
      "license_no": "賀2501-0072",
      "license_date": null,
      "expire_date": null
    },
    {
      "name": "株式会社魚国総本社",
      "name_kana": "",
      "business_type": "飲食店営業",
      "address": "伊賀市平野蔵垣内１－３",
      "lat": 34.769696,
      "lng": 136.140967,
      "geocoding_level": 3,
      "phone": "0595-24-0255",
      "license_no": "賀2501-0118",
      "license_date": null,
      "expire_date": null
    },
    {
      "name": "古川ちづる",
      "name_kana": "",
      "business_type": "飲食店営業",
      "address": "伊賀市上野桑町１４９７－１－５０１",
      "lat": 34.75788,
      "lng": 136.134265,
      "geocoding_level": 3,
      "phone": "090-6612-0523",
      "license_no": "賀2501-0085",
      "license_date": null,
      "expire_date": null
    },
    {
      "name": "有限会社時代屋プロジェクト",
      "name_kana": "",
      "business_type": "飲食店営業",
      "address": "伊賀市上野農人町３５３－２",
      "lat": 34.767257,
      "lng": 136.136678,
      "geocoding_level": 3,
      "phone": "0595-24-3353",
      "license_no": "賀2501-0166",
      "license_date": null,
      "expire_date": null
    },
    {
      "name": "山田　剛巳",
      "name_kana": "",
      "business_type": "飲食店営業",
      "address": "伊賀市ゆめが丘４丁目２０－５",
      "lat": 34.734778000000006,
      "lng": 136.158071,
      "geocoding_level": 3,
      "phone": "090-5455-5779",
      "license_no": "賀2301-0196",
      "license_date": null,
      "expire_date": null
    },
    {
      "name": "株式会社アップケイズ",
      "name_kana": "",
      "business_type": "飲食店営業",
      "address": "伊賀市佐那具町１５３５－１",
      "lat": 34.799715,
      "lng": 136.169509,
      "geocoding_level": 3,
      "phone": "0595-23-3380",
      "license_no": "賀2301-0245",
      "license_date": null,
      "expire_date": null
    },
    {
      "name": "岡田　康代",
      "name_kana": "",
      "business_type": "飲食店営業",
      "address": "伊賀市上野茅町２６８６－１５",
      "lat": 34.76133,
      "lng": 136.135857,
      "geocoding_level": 3,
      "phone": "0595-24-7332",
      "license_no": "賀2301-0251",
      "license_date": null,
      "expire_date": null
    },
    {
      "name": "株式会社弁慶",
      "name_kana": "",
      "business_type": "飲食店営業",
      "address": "伊賀市服部町３７１－１",
      "lat": 34.781188,
      "lng": 136.138056,
      "geocoding_level": 3,
      "phone": "0595-23-5860",
      "license_no": "賀2501-0311",
      "license_date": null,
      "expire_date": null
    },
    {
      "name": "山下直人",
      "name_kana": "",
      "business_type": "飲食店営業",
      "address": "伊賀市勝地１８５２－６３",
      "lat": 34.694745,
      "lng": 136.265424,
      "geocoding_level": 3,
      "phone": "080-8068-1645",
      "license_no": "賀2501-0382",
      "license_date": null,
      "expire_date": null
    },
    {
      "name": "幸良産業株式会社",
      "name_kana": "",
      "business_type": "飲食店営業",
      "address": "伊賀市小田町１５２８",
      "lat": 34.774187,
      "lng": 136.119149,
      "geocoding_level": 3,
      "phone": "0595-24-0568",
      "license_no": "賀2501-0427",
      "license_date": null,
      "expire_date": null
    },
    {
      "name": "株式会社クックサービス",
      "name_kana": "",
      "business_type": "飲食店営業",
      "address": "伊賀市上野忍町２５１６－７",
      "lat": 34.763242000000005,
      "lng": 136.130302,
      "geocoding_level": 3,
      "phone": "0595-24-2526",
      "license_no": "賀2501-0472",
      "license_date": null,
      "expire_date": null
    },
    {
      "name": "株式会社伊賀の里モクモク手づくりファーム",
      "name_kana": "",
      "business_type": "そうざい製造業",
      "address": "伊賀市西湯舟３５２６",
      "lat": 34.862314,
      "lng": 136.192374,
      "geocoding_level": 3,
      "phone": "0595-43-2011",
      "license_no": "賀2525-0011",
      "license_date": null,
      "expire_date": null
    },
    {
      "name": "株式会社安全",
      "name_kana": "",
      "business_type": "菓子製造業",
      "address": "伊賀市柘植町６４２７－１",
      "lat": 34.846303,
      "lng": 136.255628,
      "geocoding_level": 3,
      "phone": "0595-45-3511",
      "license_no": "賀2411-0025",
      "license_date": null,
      "expire_date": null
    },
    {
      "name": "株式会社金澤兼六製菓",
      "name_kana": "",
      "business_type": "菓子製造業",
      "address": "伊賀市西明寺２３８０－１",
      "lat": 34.760389624,
      "lng": 136.15768815,
      "geocoding_level": 8,
      "phone": "0595-23-1131",
      "license_no": "賀2411-0039",
      "license_date": null,
      "expire_date": null
    },
    {
      "name": "株式会社金澤兼六製菓",
      "name_kana": "",
      "business_type": "菓子製造業",
      "address": "伊賀市西明寺２３８０－１",
      "lat": 34.760389624,
      "lng": 136.15768815,
      "geocoding_level": 8,
      "phone": "0595-23-1131",
      "license_no": "賀2411-0038",
      "license_date": null,
      "expire_date": null
    },
    {
      "name": "イシダフーズ株式会社",
      "name_kana": "",
      "business_type": "添加物製造業",
      "address": "伊賀市安場１４５２－１",
      "lat": 34.67543332,
      "lng": 136.113197587,
      "geocoding_level": 8,
      "phone": "0595-39-0946",
      "license_no": "賀2532-0001",
      "license_date": null,
      "expire_date": null
    },
    {
      "name": "株式会社モンテローザフーズ",
      "name_kana": "",
      "business_type": "飲食店営業",
      "address": "伊賀市上野丸之内５６－８　渡邊貸店舗１階２階",
      "lat": 34.769566,
      "lng": 136.128784,
      "geocoding_level": 3,
      "phone": "0595-24-1788",
      "license_no": "賀2501-0471",
      "license_date": null,
      "expire_date": null
    },
    {
      "name": "株式会社千翔",
      "name_kana": "",
      "business_type": "飲食店営業",
      "address": "伊賀市守田町７－７",
      "lat": 34.748513,
      "lng": 136.120782,
      "geocoding_level": 3,
      "phone": "0595-60-2460",
      "license_no": "賀2501-0499",
      "license_date": null,
      "expire_date": null
    },
    {
      "name": "株式会社魚国総本社",
      "name_kana": "",
      "business_type": "飲食店営業",
      "address": "伊賀市小田町２４１８",
      "lat": 34.774187,
      "lng": 136.119149,
      "geocoding_level": 3,
      "phone": "0595-22-0206",
      "license_no": "賀2501-0496",
      "license_date": null,
      "expire_date": null
    },
    {
      "name": "株式会社魚国総本社",
      "name_kana": "",
      "business_type": "飲食店営業",
      "address": "伊賀市小田町２４１８",
      "lat": 34.774187,
      "lng": 136.119149,
      "geocoding_level": 3,
      "phone": "0595-22-0206",
      "license_no": "賀2501-0497",
      "license_date": null,
      "expire_date": null
    },
    {
      "name": "村木隆仁",
      "name_kana": "",
      "business_type": "飲食店営業",
      "address": "伊賀市白樫５８３５－４",
      "lat": 34.729774,
      "lng": 136.076336,
      "geocoding_level": 3,
      "phone": "0595-51-6487",
      "license_no": "賀2501-0501",
      "license_date": null,
      "expire_date": null
    },
    {
      "name": "松尾　一也",
      "name_kana": "",
      "business_type": "飲食店営業",
      "address": "伊賀市上野東町２９３４－１１",
      "lat": 34.76628,
      "lng": 136.131492,
      "geocoding_level": 3,
      "phone": "0595-24-1556",
      "license_no": "賀2301-0524",
      "license_date": null,
      "expire_date": null
    },
    {
      "name": "株式会社ＲＹＵ－ＫＹＵ",
      "name_kana": "",
      "business_type": "飲食店営業",
      "address": "伊賀市ゆめが丘２丁目３－２",
      "lat": 34.73773,
      "lng": 136.163437,
      "geocoding_level": 3,
      "phone": "",
      "license_no": "賀2501-0509",
      "license_date": null,
      "expire_date": null
    },
    {
      "name": "岡嶋優英",
      "name_kana": "",
      "business_type": "飲食店営業",
      "address": "伊賀市上野東町２９３４－１１",
      "lat": 34.76628,
      "lng": 136.131492,
      "geocoding_level": 3,
      "phone": "0595-51-8856",
      "license_no": "賀2501-0569",
      "license_date": null,
      "expire_date": null
    },
    {
      "name": "株式会社吉野家",
      "name_kana": "",
      "business_type": "飲食店営業",
      "address": "伊賀市小田町２５１",
      "lat": 34.774187,
      "lng": 136.119149,
      "geocoding_level": 3,
      "phone": "0595-26-5782",
      "license_no": "賀2501-0553",
      "license_date": null,
      "expire_date": null
    },
    {
      "name": "株式会社リトパコーポレーション",
      "name_kana": "",
      "business_type": "飲食店営業（旧）",
      "address": "伊賀市平野西町７９",
      "lat": 34.77274,
      "lng": 136.135776,
      "geocoding_level": 3,
      "phone": "0595-22-0588",
      "license_no": "伊賀 保第 58-1401-0123 号",
      "license_date": null,
      "expire_date": null
    },
    {
      "name": "株式会社ウィング",
      "name_kana": "",
      "business_type": "飲食店営業（旧）",
      "address": "伊賀市槇山１３２１",
      "lat": 34.749838,
      "lng": 136.142305,
      "geocoding_level": 2,
      "phone": "0595-42-0681",
      "license_no": "伊賀 保第 58-1401-0131 号",
      "license_date": null,
      "expire_date": null
    },
    {
      "name": "シダックスコントラクトフードサービス株式会社",
      "name_kana": "",
      "business_type": "飲食店営業（旧）",
      "address": "伊賀市愛田５２０－４",
      "lat": 34.810465,
      "lng": 136.225268,
      "geocoding_level": 3,
      "phone": "",
      "license_no": "伊賀 保第 58-1401-0136 号",
      "license_date": null,
      "expire_date": null
    },
    {
      "name": "柏原明子",
      "name_kana": "",
      "business_type": "飲食店営業（旧）",
      "address": "伊賀市野間３９７",
      "lat": 34.794615,
      "lng": 136.117788,
      "geocoding_level": 3,
      "phone": "090-7613-5090",
      "license_no": "伊賀 保第 58-1401-0168 号",
      "license_date": null,
      "expire_date": null
    },
    {
      "name": "島袋　アベンダニョ　ジュリアナ",
      "name_kana": "",
      "business_type": "飲食店営業",
      "address": "伊賀市ゆめが丘４丁目２０－６",
      "lat": 34.734778000000006,
      "lng": 136.158071,
      "geocoding_level": 3,
      "phone": "090-4261-1437",
      "license_no": "賀2401-0195",
      "license_date": null,
      "expire_date": null
    },
    {
      "name": "アコーディア・ゴルフ・アセット合同会社",
      "name_kana": "",
      "business_type": "飲食店営業（旧）",
      "address": "伊賀市愛田２２８０",
      "lat": 34.810465,
      "lng": 136.225268,
      "geocoding_level": 3,
      "phone": "0595-45-8300",
      "license_no": "伊賀 保第 58-1401-0252 号",
      "license_date": null,
      "expire_date": null
    },
    {
      "name": "日清医療食品株式会社",
      "name_kana": "",
      "business_type": "飲食店営業（旧）",
      "address": "伊賀市下友生２９１６",
      "lat": 34.750084,
      "lng": 136.157252,
      "geocoding_level": 3,
      "phone": "0595-42-8215",
      "license_no": "伊賀 保第 58-1401-0270 号",
      "license_date": null,
      "expire_date": null
    },
    {
      "name": "株式会社アジアル",
      "name_kana": "",
      "business_type": "飲食店営業（旧）",
      "address": "伊賀市四十九町１８５０",
      "lat": 34.744391,
      "lng": 136.135738,
      "geocoding_level": 3,
      "phone": "0595-26-4100",
      "license_no": "伊賀 保第 58-1401-0290 号",
      "license_date": null,
      "expire_date": null
    },
    {
      "name": "鍋本義昭",
      "name_kana": "",
      "business_type": "飲食店営業（旧）",
      "address": "伊賀市長田２３５７－１",
      "lat": 34.765932417,
      "lng": 136.10444521,
      "geocoding_level": 8,
      "phone": "0595-21-1551",
      "license_no": "伊賀 保第 58-1401-0303 号",
      "license_date": null,
      "expire_date": null
    },
    {
      "name": "鍋本義昭",
      "name_kana": "",
      "business_type": "魚介類販売業（旧）",
      "address": "伊賀市長田２３５７－１",
      "lat": 34.765932417,
      "lng": 136.10444521,
      "geocoding_level": 8,
      "phone": "0595-21-1551",
      "license_no": "伊賀 保第 58-1409-0008 号",
      "license_date": null,
      "expire_date": null
    },
    {
      "name": "株式会社Ｌｉｔｔｌｅ Ｗｉｎｇ",
      "name_kana": "",
      "business_type": "飲食店営業（旧）",
      "address": "伊賀市服部町２６０－３",
      "lat": 34.786563123,
      "lng": 136.139727318,
      "geocoding_level": 8,
      "phone": "0595-21-1237",
      "license_no": "伊賀 保第 58-1401-0310 号",
      "license_date": null,
      "expire_date": null
    },
    {
      "name": "中西亮二",
      "name_kana": "",
      "business_type": "飲食店営業（旧）",
      "address": "伊賀市下柘植４９９５",
      "lat": 34.818022,
      "lng": 136.23677,
      "geocoding_level": 3,
      "phone": "0595-45-8078",
      "license_no": "伊賀 保第 58-1401-0311 号",
      "license_date": null,
      "expire_date": null
    },
    {
      "name": "株式会社大田酒造",
      "name_kana": "",
      "business_type": "飲食店営業（旧）",
      "address": "伊賀市上之庄１３９２－１",
      "lat": 34.732858,
      "lng": 136.114745,
      "geocoding_level": 3,
      "phone": "0595-24-6521",
      "license_no": "伊賀 保第 58-1401-0319 号",
      "license_date": null,
      "expire_date": null
    },
    {
      "name": "大王フードサービス株式会社",
      "name_kana": "",
      "business_type": "飲食店営業（旧）",
      "address": "伊賀市白樫２６３６",
      "lat": 34.729774,
      "lng": 136.076336,
      "geocoding_level": 3,
      "phone": "",
      "license_no": "伊賀 保第 58-1401-0356 号",
      "license_date": null,
      "expire_date": null
    },
    {
      "name": "公益財団法人伊賀市文化都市協会",
      "name_kana": "",
      "business_type": "飲食店営業（旧）",
      "address": "伊賀市上野忍町２４９１－１",
      "lat": 34.763242000000005,
      "lng": 136.130302,
      "geocoding_level": 3,
      "phone": "0595-51-7578",
      "license_no": "伊賀 保第 58-1401-0357 号",
      "license_date": null,
      "expire_date": null
    },
    {
      "name": "有限会社新納",
      "name_kana": "",
      "business_type": "飲食店営業（旧）",
      "address": "伊賀市佐那具町１５１－１",
      "lat": 34.803743727,
      "lng": 136.172838842,
      "geocoding_level": 8,
      "phone": "0595-26-5060",
      "license_no": "伊賀 保第 58-1401-0381 号",
      "license_date": null,
      "expire_date": null
    },
    {
      "name": "有限会社新納",
      "name_kana": "",
      "business_type": "菓子製造業（旧）",
      "address": "伊賀市佐那具町１５１－１",
      "lat": 34.803743727,
      "lng": 136.172838842,
      "geocoding_level": 8,
      "phone": "0595-26-5060",
      "license_no": "伊賀 保第 58-1403-0018 号",
      "license_date": null,
      "expire_date": null
    },
    {
      "name": "中野広美",
      "name_kana": "",
      "business_type": "飲食店営業（旧）",
      "address": "伊賀市上野桑町１４９７－１　サンパレス６Ｆ　６０１",
      "lat": 34.75788,
      "lng": 136.134265,
      "geocoding_level": 3,
      "phone": "0595-22-2015",
      "license_no": "伊賀 保第 58-1401-0511 号",
      "license_date": null,
      "expire_date": null
    },
    {
      "name": "株式会社ヨネダ",
      "name_kana": "",
      "business_type": "飲食店営業（旧）",
      "address": "伊賀市四十九町１８５０",
      "lat": 34.744391,
      "lng": 136.135738,
      "geocoding_level": 3,
      "phone": "0595-42-8844",
      "license_no": "伊賀 保第 58-1401-0521 号",
      "license_date": null,
      "expire_date": null
    },
    {
      "name": "株式会社魚国総本社",
      "name_kana": "",
      "business_type": "飲食店営業（旧）",
      "address": "伊賀市予野４７１３",
      "lat": 34.712052,
      "lng": 136.099969,
      "geocoding_level": 3,
      "phone": "0595-20-1570",
      "license_no": "伊賀 保第 58-1401-0535 号",
      "license_date": null,
      "expire_date": null
    },
    {
      "name": "農事組合法人百姓工房　伊賀の大地",
      "name_kana": "",
      "business_type": "菓子製造業（旧）",
      "address": "伊賀市島ヶ原１５０８５－２",
      "lat": 34.770733,
      "lng": 136.05433,
      "geocoding_level": 3,
      "phone": "0595-59-3711",
      "license_no": "伊賀 保第 58-1403-0006 号",
      "license_date": null,
      "expire_date": null
    },
    {
      "name": "農事組合法人百姓工房 伊賀の大地",
      "name_kana": "",
      "business_type": "菓子製造業",
      "address": "伊賀市島ヶ原１５０８５－１",
      "lat": 34.770733,
      "lng": 136.05433,
      "geocoding_level": 3,
      "phone": "0595-59-3711",
      "license_no": "賀2211-0022",
      "license_date": null,
      "expire_date": null
    },
    {
      "name": "摺本宣朗",
      "name_kana": "",
      "business_type": "菓子製造業（旧）",
      "address": "伊賀市阿保４０－９",
      "lat": 34.66631,
      "lng": 136.178221,
      "geocoding_level": 3,
      "phone": "0595-52-0072",
      "license_no": "伊賀 保第 58-1403-0008 号",
      "license_date": null,
      "expire_date": null
    },
    {
      "name": "百本武嗣",
      "name_kana": "",
      "business_type": "菓子製造業（旧）",
      "address": "伊賀市長田１０４８",
      "lat": 34.768264505,
      "lng": 136.110138903,
      "geocoding_level": 8,
      "phone": "0595-21-4310",
      "license_no": "伊賀 保第 58-1403-0012 号",
      "license_date": null,
      "expire_date": null
    },
    {
      "name": "京野奈月",
      "name_kana": "",
      "business_type": "菓子製造業（旧）",
      "address": "伊賀市諏訪１７１８",
      "lat": 34.82017367400001,
      "lng": 136.108539155,
      "geocoding_level": 8,
      "phone": "0595-23-8807",
      "license_no": "伊賀 保第 58-1403-0014 号",
      "license_date": null,
      "expire_date": null
    },
    {
      "name": "京野　奈月",
      "name_kana": "",
      "business_type": "飲食店営業",
      "address": "伊賀市諏訪１７１８",
      "lat": 34.82017367400001,
      "lng": 136.108539155,
      "geocoding_level": 8,
      "phone": "0595-23-8807",
      "license_no": "賀2201-0345",
      "license_date": null,
      "expire_date": null
    },
    {
      "name": "栄光堂ファクトリー株式会社",
      "name_kana": "",
      "business_type": "菓子製造業（旧）",
      "address": "伊賀市川東２３７－１",
      "lat": 34.798511,
      "lng": 136.214821,
      "geocoding_level": 3,
      "phone": "0595-45-5100",
      "license_no": "伊賀 保第 58-1403-0021 号",
      "license_date": null,
      "expire_date": null
    },
    {
      "name": "栄光堂ファクトリー株式会社",
      "name_kana": "",
      "business_type": "菓子製造業",
      "address": "伊賀市川東２３７－１",
      "lat": 34.798511,
      "lng": 136.214821,
      "geocoding_level": 3,
      "phone": "0595-45-5100",
      "license_no": "賀2211-0020",
      "license_date": null,
      "expire_date": null
    },
    {
      "name": "企業組合旬菜工房笑み",
      "name_kana": "",
      "business_type": "惣菜製造業（旧）",
      "address": "伊賀市比自岐１７５",
      "lat": 34.706209848,
      "lng": 136.185202204,
      "geocoding_level": 8,
      "phone": "090-5113-3934",
      "license_no": "伊賀 保第 58-1414-0001 号",
      "license_date": null,
      "expire_date": null
    },
    {
      "name": "企業組合旬菜工房笑み",
      "name_kana": "",
      "business_type": "漬物製造業",
      "address": "伊賀市比自岐５１２",
      "lat": 34.703225,
      "lng": 136.197749,
      "geocoding_level": 3,
      "phone": "",
      "license_no": "賀2429-0007",
      "license_date": null,
      "expire_date": null
    },
    {
      "name": "株式会社日本サンガリアベバレッジカンパニー",
      "name_kana": "",
      "business_type": "清涼飲料水製造業（旧）",
      "address": "伊賀市円徳院７４７",
      "lat": 34.81153,
      "lng": 136.177313,
      "geocoding_level": 3,
      "phone": "0595-43-0562",
      "license_no": "伊賀 保第 58-1424-0001 号",
      "license_date": null,
      "expire_date": null
    },
    {
      "name": "角　賢治",
      "name_kana": "",
      "business_type": "飲食店営業",
      "address": "伊賀市小田町２３３－１２",
      "lat": 34.774187,
      "lng": 136.119149,
      "geocoding_level": 3,
      "phone": "0595-23-6253",
      "license_no": "賀2401-0488",
      "license_date": null,
      "expire_date": null
    },
    {
      "name": "有限会社やまぐち",
      "name_kana": "",
      "business_type": "飲食店営業（旧）",
      "address": "伊賀市上野桑町１４７８－３　１Ｆ",
      "lat": 34.75788,
      "lng": 136.134265,
      "geocoding_level": 3,
      "phone": "0595-24-0623",
      "license_no": "伊賀 保第 58-1501-0012 号",
      "license_date": null,
      "expire_date": null
    },
    {
      "name": "戴　幸男",
      "name_kana": "",
      "business_type": "飲食店営業（旧）",
      "address": "伊賀市ゆめが丘３丁目１５－５",
      "lat": 34.736377,
      "lng": 136.160659,
      "geocoding_level": 3,
      "phone": "0595-21-1861",
      "license_no": "伊賀 保第 58-1501-0034 号",
      "license_date": null,
      "expire_date": null
    },
    {
      "name": "株式会社丸末",
      "name_kana": "",
      "business_type": "飲食店営業（旧）",
      "address": "伊賀市島ヶ原８３００",
      "lat": 34.770733,
      "lng": 136.05433,
      "geocoding_level": 3,
      "phone": "0595-59-3111",
      "license_no": "伊賀 保第 58-1501-0050 号",
      "license_date": null,
      "expire_date": null
    },
    {
      "name": "北出能章",
      "name_kana": "",
      "business_type": "飲食店営業（旧）",
      "address": "伊賀市平野東町５８",
      "lat": 34.770805316,
      "lng": 136.137582554,
      "geocoding_level": 8,
      "phone": "0595-24-9224",
      "license_no": "伊賀 保第 58-1501-0067 号",
      "license_date": null,
      "expire_date": null
    },
    {
      "name": "株式会社第一興商",
      "name_kana": "",
      "business_type": "飲食店営業（旧）",
      "address": "伊賀市小田町２５１ はみんぐたうん内",
      "lat": 34.774187,
      "lng": 136.119149,
      "geocoding_level": 3,
      "phone": "0595-23-2242",
      "license_no": "伊賀 保第 58-1501-0072 号",
      "license_date": null,
      "expire_date": null
    },
    {
      "name": "日本メナード化粧品株式会社",
      "name_kana": "",
      "business_type": "飲食店営業（旧）",
      "address": "伊賀市霧生２３５６",
      "lat": 34.607034,
      "lng": 136.229793,
      "geocoding_level": 3,
      "phone": "0595-54-1321",
      "license_no": "伊賀 保第 58-1501-0085 号",
      "license_date": null,
      "expire_date": null
    },
    {
      "name": "岡井伊久磨",
      "name_kana": "",
      "business_type": "飲食店営業（旧）",
      "address": "伊賀市西明寺３２２０－１",
      "lat": 34.75722494,
      "lng": 136.156049006,
      "geocoding_level": 8,
      "phone": "0595-24-3939",
      "license_no": "伊賀 保第 58-1501-0122 号",
      "license_date": null,
      "expire_date": null
    },
    {
      "name": "富島　隆",
      "name_kana": "",
      "business_type": "飲食店営業",
      "address": "伊賀市問屋町６４",
      "lat": 34.751655,
      "lng": 136.1443,
      "geocoding_level": 3,
      "phone": "0595-51-6124",
      "license_no": "賀2501-0217",
      "license_date": null,
      "expire_date": null
    },
    {
      "name": "山本清美",
      "name_kana": "",
      "business_type": "飲食店営業",
      "address": "伊賀市上友田２２１６－１",
      "lat": 34.849413000000006,
      "lng": 136.212647,
      "geocoding_level": 3,
      "phone": "0595-43-2121",
      "license_no": "賀2501-0231",
      "license_date": null,
      "expire_date": null
    },
    {
      "name": "岡森宏美",
      "name_kana": "",
      "business_type": "飲食店営業",
      "address": "伊賀市服部町３７２－１",
      "lat": 34.781188,
      "lng": 136.138056,
      "geocoding_level": 3,
      "phone": "0595-51-8836",
      "license_no": "賀2501-0337",
      "license_date": null,
      "expire_date": null
    },
    {
      "name": "前岨有紀",
      "name_kana": "",
      "business_type": "菓子製造業（旧）",
      "address": "伊賀市三田１０１６",
      "lat": 34.794361,
      "lng": 136.127279,
      "geocoding_level": 3,
      "phone": "0595-21-0418",
      "license_no": "伊賀 保第 58-1503-0009 号",
      "license_date": null,
      "expire_date": null
    },
    {
      "name": "有限会社エムアンドエムファミリー",
      "name_kana": "",
      "business_type": "飲食店営業",
      "address": "伊賀市緑ケ丘南町２３０１－１４",
      "lat": 34.756016445,
      "lng": 136.14643589,
      "geocoding_level": 8,
      "phone": "0595-26-6518",
      "license_no": "賀2101-0256",
      "license_date": null,
      "expire_date": null
    },
    {
      "name": "王　紅",
      "name_kana": "",
      "business_type": "飲食店営業",
      "address": "伊賀市小田町１３９６－４１",
      "lat": 34.774187,
      "lng": 136.119149,
      "geocoding_level": 3,
      "phone": "",
      "license_no": "賀2601-0023",
      "license_date": null,
      "expire_date": null
    },
    {
      "name": "本田智子",
      "name_kana": "",
      "business_type": "菓子製造業",
      "address": "伊賀市丸柱４７４",
      "lat": 34.846226,
      "lng": 136.122176,
      "geocoding_level": 3,
      "phone": "",
      "license_no": "賀2611-0004",
      "license_date": null,
      "expire_date": null
    },
    {
      "name": "本田智子",
      "name_kana": "",
      "business_type": "飲食店営業",
      "address": "伊賀市丸柱４７４",
      "lat": 34.846226,
      "lng": 136.122176,
      "geocoding_level": 3,
      "phone": "",
      "license_no": "賀2601-0013",
      "license_date": null,
      "expire_date": null
    },
    {
      "name": "有限会社エムアンドエムファミリー",
      "name_kana": "",
      "business_type": "飲食店営業",
      "address": "伊賀市西明寺９４０－１",
      "lat": 34.77148829,
      "lng": 136.156313038,
      "geocoding_level": 8,
      "phone": "0595-26-3125",
      "license_no": "賀2101-0257",
      "license_date": null,
      "expire_date": null
    },
    {
      "name": "ＴＨＡＲＡＰＨＡＮ　ＷＯＲＡＮＯＯＣＨ",
      "name_kana": "",
      "business_type": "飲食店営業",
      "address": "伊賀市上野茅町２７１９－９　 茅町ビル１－１",
      "lat": 34.76133,
      "lng": 136.135857,
      "geocoding_level": 3,
      "phone": "",
      "license_no": "賀2301-0064",
      "license_date": null,
      "expire_date": null
    },
    {
      "name": "鈴木　バアハ",
      "name_kana": "",
      "business_type": "飲食店営業",
      "address": "伊賀市久米町６３７－３",
      "lat": 34.754622,
      "lng": 136.140668,
      "geocoding_level": 3,
      "phone": "0595-24-6411",
      "license_no": "賀2301-0117",
      "license_date": null,
      "expire_date": null
    },
    {
      "name": "株式会社料理かしば",
      "name_kana": "",
      "business_type": "飲食店営業",
      "address": "伊賀市柘植町２７００",
      "lat": 34.846303,
      "lng": 136.255628,
      "geocoding_level": 3,
      "phone": "0595-45-4131",
      "license_no": "賀2301-0082",
      "license_date": null,
      "expire_date": null
    },
    {
      "name": "皆川　真一郎",
      "name_kana": "",
      "business_type": "飲食店営業",
      "address": "伊賀市久米町６８８－３",
      "lat": 34.754622,
      "lng": 136.140668,
      "geocoding_level": 3,
      "phone": "",
      "license_no": "賀2301-0084",
      "license_date": null,
      "expire_date": null
    },
    {
      "name": "竹岡　パディパット",
      "name_kana": "",
      "business_type": "飲食店営業",
      "address": "伊賀市上野桑町１４９７－１ サンパレスビル上野６０２",
      "lat": 34.75788,
      "lng": 136.134265,
      "geocoding_level": 3,
      "phone": "",
      "license_no": "賀2301-0217",
      "license_date": null,
      "expire_date": null
    },
    {
      "name": "松山　尚",
      "name_kana": "",
      "business_type": "飲食店営業",
      "address": "伊賀市青山羽根２０４－６",
      "lat": 34.657392,
      "lng": 136.170003,
      "geocoding_level": 3,
      "phone": "",
      "license_no": "賀2301-0197",
      "license_date": null,
      "expire_date": null
    },
    {
      "name": "福田　寛美",
      "name_kana": "",
      "business_type": "飲食店営業",
      "address": "伊賀市四十九町２０５７",
      "lat": 34.744391,
      "lng": 136.135738,
      "geocoding_level": 3,
      "phone": "0595-21-9383",
      "license_no": "賀2301-0205",
      "license_date": null,
      "expire_date": null
    },
    {
      "name": "三國　栄子",
      "name_kana": "",
      "business_type": "飲食店営業",
      "address": "伊賀市上野東町２９３４",
      "lat": 34.76628,
      "lng": 136.131492,
      "geocoding_level": 3,
      "phone": "",
      "license_no": "賀2301-0216",
      "license_date": null,
      "expire_date": null
    },
    {
      "name": "株式会社Ｆ＆Ｓ",
      "name_kana": "",
      "business_type": "飲食店営業",
      "address": "伊賀市平野城北町１０８",
      "lat": 34.773627049,
      "lng": 136.132549711,
      "geocoding_level": 8,
      "phone": "0595-26-6120",
      "license_no": "賀2301-0204",
      "license_date": null,
      "expire_date": null
    },
    {
      "name": "株戸　美代子",
      "name_kana": "",
      "business_type": "飲食店営業",
      "address": "伊賀市上野東町２９２４－１",
      "lat": 34.76628,
      "lng": 136.131492,
      "geocoding_level": 3,
      "phone": "080-8255-6875",
      "license_no": "賀2301-0303",
      "license_date": null,
      "expire_date": null
    },
    {
      "name": "特定非営利活動法人杜のカフェいこいこ",
      "name_kana": "",
      "business_type": "飲食店営業",
      "address": "伊賀市柘植町２３５７－１",
      "lat": 34.846303,
      "lng": 136.255628,
      "geocoding_level": 3,
      "phone": "",
      "license_no": "賀2301-0260",
      "license_date": null,
      "expire_date": null
    },
    {
      "name": "株式会社丸末",
      "name_kana": "",
      "business_type": "飲食店営業",
      "address": "伊賀市島ヶ原８３００",
      "lat": 34.770733,
      "lng": 136.05433,
      "geocoding_level": 3,
      "phone": "0595-59-3000",
      "license_no": "賀2301-0412",
      "license_date": null,
      "expire_date": null
    },
    {
      "name": "株式会社丸末",
      "name_kana": "",
      "business_type": "飲食店営業",
      "address": "伊賀市島ヶ原８３００",
      "lat": 34.770733,
      "lng": 136.05433,
      "geocoding_level": 3,
      "phone": "0595-59-3000",
      "license_no": "賀2301-0436",
      "license_date": null,
      "expire_date": null
    },
    {
      "name": "宋　理与",
      "name_kana": "",
      "business_type": "飲食店営業",
      "address": "伊賀市上野東町２９３４　 天神商店街西側北４",
      "lat": 34.76628,
      "lng": 136.131492,
      "geocoding_level": 3,
      "phone": "",
      "license_no": "賀2301-0420",
      "license_date": null,
      "expire_date": null
    },
    {
      "name": "株式会社ＲＹＵ－ＫＹＵ",
      "name_kana": "",
      "business_type": "飲食店営業",
      "address": "伊賀市下柘植４",
      "lat": 34.818022,
      "lng": 136.23677,
      "geocoding_level": 3,
      "phone": "0595-45-8180",
      "license_no": "賀2301-0460",
      "license_date": null,
      "expire_date": null
    },
    {
      "name": "長井　宏治",
      "name_kana": "",
      "business_type": "飲食店営業",
      "address": "伊賀市四十九町２２６９",
      "lat": 34.744391,
      "lng": 136.135738,
      "geocoding_level": 3,
      "phone": "0595-24-0337",
      "license_no": "賀2301-0487",
      "license_date": null,
      "expire_date": null
    },
    {
      "name": "株式会社三重平安閣",
      "name_kana": "",
      "business_type": "飲食店営業",
      "address": "伊賀市西之澤１６－１",
      "lat": 34.800611,
      "lng": 136.186001,
      "geocoding_level": 3,
      "phone": "0595-45-9999",
      "license_no": "賀2301-0466",
      "license_date": null,
      "expire_date": null
    },
    {
      "name": "横田　翼",
      "name_kana": "",
      "business_type": "飲食店営業",
      "address": "伊賀市緑ケ丘本町１６５８－１",
      "lat": 34.761112,
      "lng": 136.141304,
      "geocoding_level": 3,
      "phone": "0595-24-5113",
      "license_no": "賀2301-0109",
      "license_date": null,
      "expire_date": null
    },
    {
      "name": "中西　万里子",
      "name_kana": "",
      "business_type": "菓子製造業",
      "address": "伊賀市野間１５７",
      "lat": 34.794615,
      "lng": 136.117788,
      "geocoding_level": 3,
      "phone": "090-4154-4178",
      "license_no": "賀2311-0042",
      "license_date": null,
      "expire_date": null
    },
    {
      "name": "武藤　邦弘",
      "name_kana": "",
      "business_type": "菓子製造業",
      "address": "伊賀市木興町２１６０－２",
      "lat": 34.761019,
      "lng": 136.119761,
      "geocoding_level": 3,
      "phone": "0595-51-6996",
      "license_no": "賀2311-0036",
      "license_date": null,
      "expire_date": null
    },
    {
      "name": "倉本　亘",
      "name_kana": "",
      "business_type": "飲食店営業",
      "address": "伊賀市上野茅町２６８６－１３",
      "lat": 34.76133,
      "lng": 136.135857,
      "geocoding_level": 3,
      "phone": "0595-41-1250",
      "license_no": "賀2301-0493",
      "license_date": null,
      "expire_date": null
    },
    {
      "name": "髙橋　憲次",
      "name_kana": "",
      "business_type": "飲食店営業",
      "address": "伊賀市八幡町３３００－２３",
      "lat": 34.755471,
      "lng": 136.125223,
      "geocoding_level": 3,
      "phone": "0595-23-8495",
      "license_no": "賀2301-0522",
      "license_date": null,
      "expire_date": null
    },
    {
      "name": "日清医療食品株式会社",
      "name_kana": "",
      "business_type": "飲食店営業",
      "address": "伊賀市ゆめが丘４丁目１－５",
      "lat": 34.734778000000006,
      "lng": 136.158071,
      "geocoding_level": 3,
      "phone": "0595-24-7185",
      "license_no": "賀2301-0557",
      "license_date": null,
      "expire_date": null
    },
    {
      "name": "山口　絵理",
      "name_kana": "",
      "business_type": "飲食店営業",
      "address": "伊賀市上野桑町１４９７－１ サンパレス上野３０２",
      "lat": 34.75788,
      "lng": 136.134265,
      "geocoding_level": 3,
      "phone": "0595-24-6535",
      "license_no": "賀2401-0043",
      "license_date": null,
      "expire_date": null
    },
    {
      "name": "山本　学",
      "name_kana": "",
      "business_type": "飲食店営業",
      "address": "伊賀市島ヶ原４８２６",
      "lat": 34.770733,
      "lng": 136.05433,
      "geocoding_level": 3,
      "phone": "0595-51-7498",
      "license_no": "賀2401-0069",
      "license_date": null,
      "expire_date": null
    },
    {
      "name": "川口　恵",
      "name_kana": "",
      "business_type": "飲食店営業",
      "address": "伊賀市西明寺６２３－４",
      "lat": 34.770454617000006,
      "lng": 136.144796904,
      "geocoding_level": 8,
      "phone": "0595-24-3487",
      "license_no": "賀2401-0037",
      "license_date": null,
      "expire_date": null
    },
    {
      "name": "柴田　伊佐央",
      "name_kana": "",
      "business_type": "飲食店営業",
      "address": "伊賀市東条字岸ノ上１０９－１",
      "lat": 34.796978,
      "lng": 136.155053,
      "geocoding_level": 3,
      "phone": "0595-24-5705",
      "license_no": "賀2401-0097",
      "license_date": null,
      "expire_date": null
    },
    {
      "name": "株式会社エム・シー・カンパニー",
      "name_kana": "",
      "business_type": "飲食店営業",
      "address": "伊賀市平野西町６１",
      "lat": 34.772998081,
      "lng": 136.134470042,
      "geocoding_level": 8,
      "phone": "0595-24-0611",
      "license_no": "賀2401-0061",
      "license_date": null,
      "expire_date": null
    },
    {
      "name": "荒木　龍秀",
      "name_kana": "",
      "business_type": "飲食店営業",
      "address": "伊賀市服部町１９４８－１",
      "lat": 34.781188,
      "lng": 136.138056,
      "geocoding_level": 3,
      "phone": "0595-51-7102",
      "license_no": "賀2401-0075",
      "license_date": null,
      "expire_date": null
    },
    {
      "name": "原　桃子",
      "name_kana": "",
      "business_type": "飲食店営業",
      "address": "伊賀市炊村２０２４",
      "lat": 34.782089,
      "lng": 136.204847,
      "geocoding_level": 3,
      "phone": "0595-47-1760",
      "license_no": "賀2401-0103",
      "license_date": null,
      "expire_date": null
    },
    {
      "name": "木下　エイ子",
      "name_kana": "",
      "business_type": "飲食店営業",
      "address": "伊賀市希望ケ丘西１丁目４－１６",
      "lat": 34.78341588,
      "lng": 136.218790895,
      "geocoding_level": 8,
      "phone": "",
      "license_no": "賀2301-0142",
      "license_date": null,
      "expire_date": null
    },
    {
      "name": "株式会社あじみ屋",
      "name_kana": "",
      "business_type": "飲食店営業",
      "address": "伊賀市柘植町５７０４－１",
      "lat": 34.846303,
      "lng": 136.255628,
      "geocoding_level": 3,
      "phone": "0595-45-6810",
      "license_no": "賀2401-0191",
      "license_date": null,
      "expire_date": null
    },
    {
      "name": "井上　武彦",
      "name_kana": "",
      "business_type": "飲食店営業",
      "address": "伊賀市佐那具町２９１",
      "lat": 34.799715,
      "lng": 136.169509,
      "geocoding_level": 3,
      "phone": "0595-23-3031",
      "license_no": "賀2401-0315",
      "license_date": null,
      "expire_date": null
    },
    {
      "name": "有限会社吹田総業",
      "name_kana": "",
      "business_type": "飲食店営業",
      "address": "伊賀市平野東町１０",
      "lat": 34.772703589,
      "lng": 136.13839784800004,
      "geocoding_level": 8,
      "phone": "0595-24-8552",
      "license_no": "賀2401-0235",
      "license_date": null,
      "expire_date": null
    },
    {
      "name": "有限会社フィリア",
      "name_kana": "",
      "business_type": "飲食店営業",
      "address": "伊賀市山出２０８８",
      "lat": 34.716297,
      "lng": 136.123291,
      "geocoding_level": 3,
      "phone": "0595-22-0048",
      "license_no": "賀2401-0190",
      "license_date": null,
      "expire_date": null
    },
    {
      "name": "株式会社アヤマＮＯＳＡＮ",
      "name_kana": "",
      "business_type": "飲食店営業",
      "address": "伊賀市上友田２４０５",
      "lat": 34.849413000000006,
      "lng": 136.212647,
      "geocoding_level": 3,
      "phone": "0595-43-1880",
      "license_no": "賀2401-0305",
      "license_date": null,
      "expire_date": null
    },
    {
      "name": "株式会社アヤマＮＯＳＡＮ",
      "name_kana": "",
      "business_type": "菓子製造業",
      "address": "伊賀市上友田２４０５",
      "lat": 34.849413000000006,
      "lng": 136.212647,
      "geocoding_level": 3,
      "phone": "0595-43-1880",
      "license_no": "賀2411-0018",
      "license_date": null,
      "expire_date": null
    },
    {
      "name": "株式会社プレナス",
      "name_kana": "",
      "business_type": "飲食店営業",
      "address": "伊賀市平野西町７９",
      "lat": 34.77274,
      "lng": 136.135776,
      "geocoding_level": 3,
      "phone": "0595-26-3515",
      "license_no": "賀2401-0255",
      "license_date": null,
      "expire_date": null
    },
    {
      "name": "永井　富美子",
      "name_kana": "",
      "business_type": "飲食店営業",
      "address": "伊賀市上野東町２９３４",
      "lat": 34.76628,
      "lng": 136.131492,
      "geocoding_level": 3,
      "phone": "0595-24-9222",
      "license_no": "賀2401-0300",
      "license_date": null,
      "expire_date": null
    },
    {
      "name": "髙森　俊仁",
      "name_kana": "",
      "business_type": "飲食店営業",
      "address": "伊賀市諏訪２３３９－２",
      "lat": 34.818896561,
      "lng": 136.113173851,
      "geocoding_level": 8,
      "phone": "0595-51-7644",
      "license_no": "賀2301-0244",
      "license_date": null,
      "expire_date": null
    },
    {
      "name": "平野幸一",
      "name_kana": "",
      "business_type": "飲食店営業",
      "address": "伊賀市上野東町２９３４",
      "lat": 34.76628,
      "lng": 136.131492,
      "geocoding_level": 3,
      "phone": "090-8671-7179",
      "license_no": "賀2401-0398",
      "license_date": null,
      "expire_date": null
    },
    {
      "name": "森田　治",
      "name_kana": "",
      "business_type": "飲食店営業",
      "address": "伊賀市西高倉５９９６",
      "lat": 34.794799,
      "lng": 136.094135,
      "geocoding_level": 3,
      "phone": "0595-51-6800",
      "license_no": "賀2401-0413",
      "license_date": null,
      "expire_date": null
    },
    {
      "name": "株式会社シン・ライフクリエイト",
      "name_kana": "",
      "business_type": "飲食店営業",
      "address": "伊賀市上野丸之内１２８－１ 共立ビル１Ｆ１号",
      "lat": 34.769566,
      "lng": 136.128784,
      "geocoding_level": 3,
      "phone": "0595-23-4332",
      "license_no": "賀2401-0414",
      "license_date": null,
      "expire_date": null
    },
    {
      "name": "梅田　ありさ",
      "name_kana": "",
      "business_type": "飲食店営業",
      "address": "伊賀市上野寺町１１３９－２",
      "lat": 34.763962,
      "lng": 136.134845,
      "geocoding_level": 3,
      "phone": "0595-21-7031",
      "license_no": "賀2301-0441",
      "license_date": null,
      "expire_date": null
    },
    {
      "name": "木村安紀",
      "name_kana": "",
      "business_type": "飲食店営業",
      "address": "伊賀市西明寺１２５８－１１",
      "lat": 34.770240506,
      "lng": 136.143706736,
      "geocoding_level": 8,
      "phone": "0595-24-3492",
      "license_no": "賀2401-0447",
      "license_date": null,
      "expire_date": null
    },
    {
      "name": "北川直司",
      "name_kana": "",
      "business_type": "飲食店営業",
      "address": "伊賀市上野桑町１５４２",
      "lat": 34.75788,
      "lng": 136.134265,
      "geocoding_level": 3,
      "phone": "0595-21-1322",
      "license_no": "賀2101-0102",
      "license_date": null,
      "expire_date": null
    },
    {
      "name": "北川直司",
      "name_kana": "",
      "business_type": "乳処理業",
      "address": "伊賀市上野桑町１５４２",
      "lat": 34.75788,
      "lng": 136.134265,
      "geocoding_level": 3,
      "phone": "0595-21-1322",
      "license_no": "賀2107-0001",
      "license_date": null,
      "expire_date": null
    },
    {
      "name": "北川　直司",
      "name_kana": "",
      "business_type": "アイスクリーム類製造業",
      "address": "伊賀市上野桑町１５４２",
      "lat": 34.75788,
      "lng": 136.134265,
      "geocoding_level": 3,
      "phone": "0595-21-1322",
      "license_no": "賀2412-0001",
      "license_date": null,
      "expire_date": null
    },
    {
      "name": "中外医薬生産株式会社",
      "name_kana": "",
      "business_type": "清涼飲料水製造業",
      "address": "伊賀市西明寺３１６０",
      "lat": 34.760606883,
      "lng": 136.155616388,
      "geocoding_level": 8,
      "phone": "0595-21-0020",
      "license_no": "賀2314-0003",
      "license_date": null,
      "expire_date": null
    },
    {
      "name": "株式会社日本サンガリアベバレッジカンパニー",
      "name_kana": "",
      "business_type": "清涼飲料水製造業",
      "address": "伊賀市柘植町１５８３",
      "lat": 34.846303,
      "lng": 136.255628,
      "geocoding_level": 3,
      "phone": "0595-45-7701",
      "license_no": "賀2314-0004",
      "license_date": null,
      "expire_date": null
    },
    {
      "name": "西口　正和",
      "name_kana": "",
      "business_type": "飲食店営業",
      "address": "伊賀市島ヶ原６４１９",
      "lat": 34.770733,
      "lng": 136.05433,
      "geocoding_level": 3,
      "phone": "",
      "license_no": "賀2301-0477",
      "license_date": null,
      "expire_date": null
    },
    {
      "name": "小松裕香",
      "name_kana": "",
      "business_type": "飲食店営業",
      "address": "伊賀市阿保３８－１",
      "lat": 34.66631,
      "lng": 136.178221,
      "geocoding_level": 3,
      "phone": "0595-52-0912",
      "license_no": "賀2401-0500",
      "license_date": null,
      "expire_date": null
    },
    {
      "name": "橋本　和子",
      "name_kana": "",
      "business_type": "飲食店営業",
      "address": "伊賀市槇山２８－１",
      "lat": 34.749838,
      "lng": 136.142305,
      "geocoding_level": 2,
      "phone": "0595-42-1167",
      "license_no": "賀2301-0512",
      "license_date": null,
      "expire_date": null
    },
    {
      "name": "阪﨑吉則",
      "name_kana": "",
      "business_type": "飲食店営業",
      "address": "伊賀市野村字安田３９－４",
      "lat": 34.83816,
      "lng": 136.234695,
      "geocoding_level": 3,
      "phone": "0595-45-1150",
      "license_no": "賀2401-0524",
      "license_date": null,
      "expire_date": null
    },
    {
      "name": "岡　久代",
      "name_kana": "",
      "business_type": "飲食店営業",
      "address": "伊賀市上野丸之内２３ Ｇ棟",
      "lat": 34.769566,
      "lng": 136.128784,
      "geocoding_level": 3,
      "phone": "080-9114-0141",
      "license_no": "賀2301-0543",
      "license_date": null,
      "expire_date": null
    },
    {
      "name": "株式会社魚国総本社",
      "name_kana": "",
      "business_type": "飲食店営業",
      "address": "伊賀市円徳院１６３６",
      "lat": 34.81153,
      "lng": 136.177313,
      "geocoding_level": 3,
      "phone": "0595-43-0707",
      "license_no": "賀2401-0563",
      "license_date": null,
      "expire_date": null
    },
    {
      "name": "服部　祥和",
      "name_kana": "",
      "business_type": "魚介類販売業",
      "address": "伊賀市槇山１５５８",
      "lat": 34.749838,
      "lng": 136.142305,
      "geocoding_level": 2,
      "phone": "0595-42-1280",
      "license_no": "賀2404-0004",
      "license_date": null,
      "expire_date": null
    },
    {
      "name": "服部　祥和",
      "name_kana": "",
      "business_type": "飲食店営業",
      "address": "伊賀市槙山１５５８",
      "lat": 34.879022,
      "lng": 136.11734,
      "geocoding_level": 3,
      "phone": "0595-42-1280",
      "license_no": "賀2301-0085",
      "license_date": null,
      "expire_date": null
    },
    {
      "name": "上山　了",
      "name_kana": "",
      "business_type": "飲食店営業",
      "address": "伊賀市上野相生町２８１５－２",
      "lat": 34.764891,
      "lng": 136.13251500000004,
      "geocoding_level": 3,
      "phone": "0595-21-0241",
      "license_no": "賀2501-0517",
      "license_date": null,
      "expire_date": null
    },
    {
      "name": "大西彌惠",
      "name_kana": "",
      "business_type": "菓子製造業",
      "address": "伊賀市上野中町３００９－１",
      "lat": 34.765989,
      "lng": 136.128337,
      "geocoding_level": 3,
      "phone": "0595-21-1440",
      "license_no": "賀2511-0038",
      "license_date": null,
      "expire_date": null
    },
    {
      "name": "宮本祐也",
      "name_kana": "",
      "business_type": "麺類製造業",
      "address": "伊賀市市部１３５５",
      "lat": 34.73003,
      "lng": 136.18218,
      "geocoding_level": 3,
      "phone": "0595-37-0581",
      "license_no": "賀2424-0004",
      "license_date": null,
      "expire_date": null
    },
    {
      "name": "倉阪浩充",
      "name_kana": "",
      "business_type": "菓子製造業",
      "address": "伊賀市上野車坂町７５３－３",
      "lat": 34.767606,
      "lng": 136.142591,
      "geocoding_level": 3,
      "phone": "0595-21-2866",
      "license_no": "賀2611-0006",
      "license_date": null,
      "expire_date": null
    },
    {
      "name": "前田政己",
      "name_kana": "",
      "business_type": "飲食店営業",
      "address": "伊賀市御代７６３",
      "lat": 34.812178,
      "lng": 136.206369,
      "geocoding_level": 3,
      "phone": "0595-45-3256",
      "license_no": "賀2401-0525",
      "license_date": null,
      "expire_date": null
    },
    {
      "name": "前田政己",
      "name_kana": "",
      "business_type": "魚介類販売業",
      "address": "伊賀市御代７６３",
      "lat": 34.812178,
      "lng": 136.206369,
      "geocoding_level": 3,
      "phone": "0595-45-3256",
      "license_no": "賀2404-0009",
      "license_date": null,
      "expire_date": null
    },
    {
      "name": "森本仙右衛門商店株式会社",
      "name_kana": "",
      "business_type": "酒類製造業",
      "address": "伊賀市上野福居町３３４２",
      "lat": 34.76479,
      "lng": 136.125298,
      "geocoding_level": 3,
      "phone": "0595-23-5500",
      "license_no": "賀2521-0005",
      "license_date": null,
      "expire_date": null
    },
    {
      "name": "柘植　侃子",
      "name_kana": "",
      "business_type": "菓子製造業",
      "address": "伊賀市柘植町１７５２",
      "lat": 34.846303,
      "lng": 136.255628,
      "geocoding_level": 3,
      "phone": "0595-45-2054",
      "license_no": "賀2311-0031",
      "license_date": null,
      "expire_date": null
    },
    {
      "name": "木根　任宏",
      "name_kana": "",
      "business_type": "飲食店営業",
      "address": "伊賀市小田町１１１",
      "lat": 34.774187,
      "lng": 136.119149,
      "geocoding_level": 3,
      "phone": "0595-21-3789",
      "license_no": "賀2301-0589",
      "license_date": null,
      "expire_date": null
    },
    {
      "name": "木根　任宏",
      "name_kana": "",
      "business_type": "魚介類販売業",
      "address": "伊賀市小田町１１１",
      "lat": 34.774187,
      "lng": 136.119149,
      "geocoding_level": 3,
      "phone": "0595-21-3789",
      "license_no": "賀2304-0008",
      "license_date": null,
      "expire_date": null
    },
    {
      "name": "大道　新悟",
      "name_kana": "",
      "business_type": "飲食店営業",
      "address": "伊賀市柘植町２３４９－１",
      "lat": 34.846303,
      "lng": 136.255628,
      "geocoding_level": 3,
      "phone": "0595-45-2005",
      "license_no": "賀2301-0326",
      "license_date": null,
      "expire_date": null
    },
    {
      "name": "大道　新悟",
      "name_kana": "",
      "business_type": "食肉販売業",
      "address": "伊賀市柘植町２３４９－１",
      "lat": 34.846303,
      "lng": 136.255628,
      "geocoding_level": 3,
      "phone": "0595-45-2005",
      "license_no": "賀2303-0013",
      "license_date": null,
      "expire_date": null
    },
    {
      "name": "山中鉄也",
      "name_kana": "",
      "business_type": "食肉処理業",
      "address": "伊賀市問屋町５７",
      "lat": 34.751655,
      "lng": 136.1443,
      "geocoding_level": 3,
      "phone": "0595-23-5128",
      "license_no": "賀2509-0001",
      "license_date": null,
      "expire_date": null
    },
    {
      "name": "長島　正敏",
      "name_kana": "",
      "business_type": "飲食店営業",
      "address": "伊賀市上野丸之内４２",
      "lat": 34.769566,
      "lng": 136.128784,
      "geocoding_level": 3,
      "phone": "0595-21-1609",
      "license_no": "賀2301-0395",
      "license_date": null,
      "expire_date": null
    },
    {
      "name": "株式会社田口商店",
      "name_kana": "",
      "business_type": "魚介類販売業（旧）",
      "address": "伊賀市問屋町２－５４",
      "lat": 34.751655,
      "lng": 136.1443,
      "geocoding_level": 3,
      "phone": "0595-21-1128",
      "license_no": "伊賀 保第 58-7409-0561 号",
      "license_date": null,
      "expire_date": null
    },
    {
      "name": "中西慶三郎",
      "name_kana": "",
      "business_type": "飲食店営業",
      "address": "伊賀市平田３７４",
      "lat": 34.76267,
      "lng": 136.213119,
      "geocoding_level": 3,
      "phone": "0595-47-0012",
      "license_no": "賀2501-0106",
      "license_date": null,
      "expire_date": null
    },
    {
      "name": "堀　桂子",
      "name_kana": "",
      "business_type": "麺類製造業",
      "address": "伊賀市上野愛宕町１８３８－３",
      "lat": 34.759827,
      "lng": 136.129147,
      "geocoding_level": 3,
      "phone": "0595-21-0582",
      "license_no": "賀2424-0001",
      "license_date": null,
      "expire_date": null
    },
    {
      "name": "有限会社いせや",
      "name_kana": "",
      "business_type": "菓子製造業",
      "address": "伊賀市上野新町２７５５－２",
      "lat": 34.765648,
      "lng": 136.133712,
      "geocoding_level": 3,
      "phone": "0595-21-0615",
      "license_no": "賀2511-0007",
      "license_date": null,
      "expire_date": null
    },
    {
      "name": "吉村　得夫",
      "name_kana": "",
      "business_type": "飲食店営業",
      "address": "伊賀市小田町１３９６－３２",
      "lat": 34.774187,
      "lng": 136.119149,
      "geocoding_level": 3,
      "phone": "0595-23-6667",
      "license_no": "賀2301-0145",
      "license_date": null,
      "expire_date": null
    },
    {
      "name": "株式会社メナードランド",
      "name_kana": "",
      "business_type": "飲食店営業（旧）",
      "address": "伊賀市霧生２３５６",
      "lat": 34.607034,
      "lng": 136.229793,
      "geocoding_level": 3,
      "phone": "0595-54-1311",
      "license_no": "伊賀 保第 58-7701-0868 号",
      "license_date": null,
      "expire_date": null
    },
    {
      "name": "中川久男",
      "name_kana": "",
      "business_type": "飲食店営業",
      "address": "伊賀市上野丸之内２３ 映劇ビル１Ｆ",
      "lat": 34.769566,
      "lng": 136.128784,
      "geocoding_level": 3,
      "phone": "0595-24-0718",
      "license_no": "賀2401-0332",
      "license_date": null,
      "expire_date": null
    },