{
  "meta": {
    "updated": 1783906731,
    "sources": [
      {
        "source": "長野県食品営業許可施設",
        "license": "要確認"
      },
      {
        "source": "厚生労働省 食品衛生申請等システム（オープンデータ）",
        "license": "公共データ利用規約（第1.0版, PDL1.0）"
      }
    ]
  },
  "data": [
    {
      "name": "豊上製菓株式会社",
      "name_kana": "",
      "business_type": "菓子製造業",
      "address": "上田市下之郷１５２５－１",
      "lat": 36.366431,
      "lng": 138.233251,
      "geocoding_level": 3,
      "phone": "",
      "license_no": "第03259727号",
      "license_date": "2019-04-08",
      "expire_date": "2026-12-31"
    },
    {
      "name": "麦の笑",
      "name_kana": "",
      "business_type": "飲食店営業",
      "address": "上田市保野２９２－２",
      "lat": 36.37487,
      "lng": 138.19613100000004,
      "geocoding_level": 3,
      "phone": "",
      "license_no": "第03260398号",
      "license_date": "2019-07-08",
      "expire_date": "2026-05-31"
    },
    {
      "name": "真田くの一温泉",
      "name_kana": "",
      "business_type": "飲食店営業",
      "address": "上田市菅平高原１２７８番地９３５、３１４",
      "lat": 36.523527,
      "lng": 138.33082,
      "geocoding_level": 3,
      "phone": "",
      "license_no": "第03260836号",
      "license_date": "2019-08-12",
      "expire_date": "2026-07-31"
    },
    {
      "name": "ロッヂトータス",
      "name_kana": "",
      "business_type": "飲食店営業",
      "address": "上田市菅平高原１２２３－イ－７２",
      "lat": 36.523527,
      "lng": 138.33082,
      "geocoding_level": 3,
      "phone": "",
      "license_no": "第03042692号",
      "license_date": "2019-07-31",
      "expire_date": "2026-07-31"
    },
    {
      "name": "菅平スイスホテル",
      "name_kana": "",
      "business_type": "飲食店営業",
      "address": "上田市菅平高原１２２３－４６２９",
      "lat": 36.523527,
      "lng": 138.33082,
      "geocoding_level": 3,
      "phone": "",
      "license_no": "第03116501号",
      "license_date": "2019-07-31",
      "expire_date": "2026-07-31"
    },
    {
      "name": "菅平プラザホテル",
      "name_kana": "",
      "business_type": "飲食店営業",
      "address": "上田市菅平高原１２２３－３２４４",
      "lat": 36.523527,
      "lng": 138.33082,
      "geocoding_level": 3,
      "phone": "",
      "license_no": "第03119134号",
      "license_date": "2019-07-31",
      "expire_date": "2026-07-31"
    },
    {
      "name": "ホテル　第一館",
      "name_kana": "",
      "business_type": "飲食店営業",
      "address": "上田市菅平高原１２６５",
      "lat": 36.523527,
      "lng": 138.33082,
      "geocoding_level": 3,
      "phone": "",
      "license_no": "第03150091号",
      "license_date": "2019-07-31",
      "expire_date": "2026-07-31"
    },
    {
      "name": "レストラン　グッティ",
      "name_kana": "",
      "business_type": "飲食店営業",
      "address": "上田市菅平高原１２２３－７５６",
      "lat": 36.523527,
      "lng": 138.33082,
      "geocoding_level": 3,
      "phone": "",
      "license_no": "第03150521号",
      "license_date": "2019-07-31",
      "expire_date": "2026-07-31"
    },
    {
      "name": "ホテル亀屋",
      "name_kana": "",
      "business_type": "飲食店営業",
      "address": "上田市菅平高原１２２３－２２５４",
      "lat": 36.523527,
      "lng": 138.33082,
      "geocoding_level": 3,
      "phone": "",
      "license_no": "第03152669号",
      "license_date": "2019-07-31",
      "expire_date": "2026-07-31"
    },
    {
      "name": "ペンション　フルール",
      "name_kana": "",
      "business_type": "飲食店営業",
      "address": "上田市菅平高原１２２３－３７５０",
      "lat": 36.523527,
      "lng": 138.33082,
      "geocoding_level": 3,
      "phone": "",
      "license_no": "第03261361号",
      "license_date": "2019-09-27",
      "expire_date": "2026-07-31"
    },
    {
      "name": "峯村山荘",
      "name_kana": "",
      "business_type": "飲食店営業",
      "address": "上田市菅平高原１２２３－２５８１",
      "lat": 36.523527,
      "lng": 138.33082,
      "geocoding_level": 3,
      "phone": "",
      "license_no": "第03261728号",
      "license_date": "2019-10-28",
      "expire_date": "2026-07-31"
    },
    {
      "name": "餃子のギョウちゃん",
      "name_kana": "",
      "business_type": "飲食店営業",
      "address": "上田市中央４－６－１４",
      "lat": 36.405000925,
      "lng": 138.251218919,
      "geocoding_level": 8,
      "phone": "",
      "license_no": "第03261817号",
      "license_date": "2019-11-18",
      "expire_date": "2026-10-31"
    },
    {
      "name": "割烹京や",
      "name_kana": "",
      "business_type": "飲食店営業",
      "address": "上田市中央３－１１－１２",
      "lat": 36.400388256,
      "lng": 138.255870183,
      "geocoding_level": 8,
      "phone": "",
      "license_no": "第03261960号",
      "license_date": "2019-12-09",
      "expire_date": "2026-10-31"
    },
    {
      "name": "真田醤油保存会",
      "name_kana": "",
      "business_type": "醤油製造業",
      "address": "上田市真田町長４４３７－１",
      "lat": 36.449187656,
      "lng": 138.329960926,
      "geocoding_level": 8,
      "phone": "",
      "license_no": "第03261621号",
      "license_date": "2019-10-21",
      "expire_date": "2026-07-31"
    },
    {
      "name": "日の出ロッヂ ＴＨＥ ＭＡＩＮ ＳＴＲＥＥＴ ＢＡＲ ｆｏｏｔ",
      "name_kana": "",
      "business_type": "飲食店営業",
      "address": "上田市菅平高原１２２４",
      "lat": 36.523527,
      "lng": 138.33082,
      "geocoding_level": 3,
      "phone": "",
      "license_no": "第03262011号",
      "license_date": "2019-12-16",
      "expire_date": "2026-07-31"
    },
    {
      "name": "豊上富士山製菓（株）",
      "name_kana": "",
      "business_type": "菓子製造業",
      "address": "上田市富士山２４１６－３５",
      "lat": 36.341773,
      "lng": 138.238494,
      "geocoding_level": 3,
      "phone": "",
      "license_no": "第03234098号",
      "license_date": "2019-12-27",
      "expire_date": "2026-12-31"
    },
    {
      "name": "新井館",
      "name_kana": "",
      "business_type": "飲食店営業",
      "address": "上田市菅平高原１２２３－１０２１",
      "lat": 36.523527,
      "lng": 138.33082,
      "geocoding_level": 3,
      "phone": "",
      "license_no": "第03041291号",
      "license_date": "2020-01-31",
      "expire_date": "2027-01-31"
    },
    {
      "name": "山嶺食堂",
      "name_kana": "",
      "business_type": "飲食店営業",
      "address": "上田市菅平高原１２２３－４３６０",
      "lat": 36.523527,
      "lng": 138.33082,
      "geocoding_level": 3,
      "phone": "",
      "license_no": "第03117885号",
      "license_date": "2020-01-31",
      "expire_date": "2027-01-31"
    },
    {
      "name": "レストハウス　アイランド",
      "name_kana": "",
      "business_type": "飲食店営業",
      "address": "上田市菅平高原１２２３－４５１２",
      "lat": 36.523527,
      "lng": 138.33082,
      "geocoding_level": 3,
      "phone": "",
      "license_no": "第03120414号",
      "license_date": "2020-01-31",
      "expire_date": "2027-01-31"
    },
    {
      "name": "麺屋たち花",
      "name_kana": "",
      "business_type": "飲食店営業",
      "address": "上田市秋和３８６－１黒崎テナント",
      "lat": 36.419796,
      "lng": 138.229906,
      "geocoding_level": 3,
      "phone": "",
      "license_no": "第03262545号",
      "license_date": "2020-04-01",
      "expire_date": "2026-11-30"
    },
    {
      "name": "にの屋",
      "name_kana": "",
      "business_type": "飲食店営業",
      "address": "上田市中央３－７－３３",
      "lat": 36.4025881,
      "lng": 138.253865314,
      "geocoding_level": 8,
      "phone": "",
      "license_no": "第03262577号",
      "license_date": "2020-04-20",
      "expire_date": "2027-01-31"
    },
    {
      "name": "草笛山荘",
      "name_kana": "",
      "business_type": "飲食店営業",
      "address": "上田市菅平高原１２２３－４９０５",
      "lat": 36.523527,
      "lng": 138.33082,
      "geocoding_level": 3,
      "phone": "",
      "license_no": "第03262602号",
      "license_date": "2020-04-27",
      "expire_date": "2026-07-31"
    },
    {
      "name": "Ｃｒａｚｙ　Ｃｒｅｐｅｓ",
      "name_kana": "",
      "business_type": "飲食店営業",
      "address": "上田市常田２－１２－１８ イオンスタイル上田１F",
      "lat": 36.392489892,
      "lng": 138.258428481,
      "geocoding_level": 8,
      "phone": "",
      "license_no": "第03262627号",
      "license_date": "2020-04-27",
      "expire_date": "2026-12-31"
    },
    {
      "name": "Ｃｒａｚｙ　Ｃｒｅｐｅｓ",
      "name_kana": "",
      "business_type": "菓子製造業",
      "address": "上田市常田２－１２－１８ イオンスタイル上田１F",
      "lat": 36.392489892,
      "lng": 138.258428481,
      "geocoding_level": 8,
      "phone": "",
      "license_no": "第03262610号",
      "license_date": "2020-04-27",
      "expire_date": "2026-12-31"
    },
    {
      "name": "Ｔａｐｉｌａｂ",
      "name_kana": "",
      "business_type": "飲食店営業",
      "address": "上田市中央１－２－２３",
      "lat": 36.398767644,
      "lng": 138.250785242,
      "geocoding_level": 8,
      "phone": "",
      "license_no": "第03262634号",
      "license_date": "2020-04-27",
      "expire_date": "2026-10-31"
    },
    {
      "name": "Ｔａｐｉｌａｂ",
      "name_kana": "",
      "business_type": "菓子製造業",
      "address": "上田市中央１－２－２３",
      "lat": 36.398767644,
      "lng": 138.250785242,
      "geocoding_level": 8,
      "phone": "",
      "license_no": "第03262641号",
      "license_date": "2020-04-27",
      "expire_date": "2026-10-31"
    },
    {
      "name": "信越明星（株）",
      "name_kana": "",
      "business_type": "麺類製造業",
      "address": "上田市秋和９４２",
      "lat": 36.419796,
      "lng": 138.229906,
      "geocoding_level": 3,
      "phone": "",
      "license_no": "第03138791号",
      "license_date": "2020-04-30",
      "expire_date": "2027-04-30"
    },
    {
      "name": "スナック　ＲＯＵＴＥ５６",
      "name_kana": "",
      "business_type": "飲食店営業",
      "address": "上田市中央３－１３－３ 池田ビル１Ｆ",
      "lat": 36.401418564,
      "lng": 138.254771239,
      "geocoding_level": 8,
      "phone": "",
      "license_no": "第03262851号",
      "license_date": "2020-05-29",
      "expire_date": "2026-10-31"
    },
    {
      "name": "華龍　火鍋店",
      "name_kana": "",
      "business_type": "飲食店営業",
      "address": "上田市中之条３８９－１",
      "lat": 36.397612,
      "lng": 138.227603,
      "geocoding_level": 3,
      "phone": "",
      "license_no": "第03262965号",
      "license_date": "2020-06-09",
      "expire_date": "2027-02-28"
    },
    {
      "name": "千州庵",
      "name_kana": "",
      "business_type": "飲食店営業",
      "address": "上田市岩下２２７",
      "lat": 36.372526,
      "lng": 138.283355,
      "geocoding_level": 3,
      "phone": "",
      "license_no": "第03029613号",
      "license_date": "2020-05-29",
      "expire_date": "2026-05-31"
    },
    {
      "name": "南條旅館",
      "name_kana": "",
      "business_type": "飲食店営業",
      "address": "上田市別所温泉西大湯２１２，２９３－１，２９３",
      "lat": 36.347558,
      "lng": 138.146506,
      "geocoding_level": 3,
      "phone": "",
      "license_no": "第03137172号",
      "license_date": "2020-05-29",
      "expire_date": "2027-05-31"
    },
    {
      "name": "（有）なかざわ商店",
      "name_kana": "",
      "business_type": "飲食店営業",
      "address": "上田市小島８４４－２",
      "lat": 36.375143,
      "lng": 138.207158,
      "geocoding_level": 3,
      "phone": "",
      "license_no": "第03148674号",
      "license_date": "2020-05-29",
      "expire_date": "2026-05-31"
    },
    {
      "name": "英（はなぶさ）",
      "name_kana": "",
      "business_type": "飲食店営業",
      "address": "上田市本郷７５８－４",
      "lat": 36.366781,
      "lng": 138.202194,
      "geocoding_level": 3,
      "phone": "",
      "license_no": "第03161807号",
      "license_date": "2020-05-29",
      "expire_date": "2026-05-31"
    },
    {
      "name": "手打百藝おお西別所支店",
      "name_kana": "",
      "business_type": "飲食店営業",
      "address": "上田市別所温泉１３９４",
      "lat": 36.347558,
      "lng": 138.146506,
      "geocoding_level": 3,
      "phone": "",
      "license_no": "第03205641号",
      "license_date": "2020-05-29",
      "expire_date": "2027-05-31"
    },
    {
      "name": "上田いちゃりＢａｒ・Ｎｏｍａｄｏ",
      "name_kana": "",
      "business_type": "飲食店営業",
      "address": "上田市中央２－１３－１９",
      "lat": 36.398295431,
      "lng": 138.254512817,
      "geocoding_level": 8,
      "phone": "",
      "license_no": "第03216844号",
      "license_date": "2020-05-29",
      "expire_date": "2026-05-31"
    },
    {
      "name": "Ｒｅｘ",
      "name_kana": "",
      "business_type": "飲食店営業",
      "address": "上田市中央３－１０－１０ 武蔵野ビル２０２号",
      "lat": 36.400965842,
      "lng": 138.254965386,
      "geocoding_level": 8,
      "phone": "",
      "license_no": "第03263056号",
      "license_date": "2020-06-12",
      "expire_date": "2027-01-31"
    },
    {
      "name": "四季のあじわい　松籟亭",
      "name_kana": "",
      "business_type": "そうざい製造業",
      "address": "上田市別所温泉１６７４－１",
      "lat": 36.347558,
      "lng": 138.146506,
      "geocoding_level": 3,
      "phone": "",
      "license_no": "第03263088号",
      "license_date": "2020-06-19",
      "expire_date": "2027-05-31"
    },
    {
      "name": "四季のあじわい　松籟亭",
      "name_kana": "",
      "business_type": "食品の冷凍または冷蔵業",
      "address": "上田市別所温泉１６７４－１",
      "lat": 36.347558,
      "lng": 138.146506,
      "geocoding_level": 3,
      "phone": "",
      "license_no": "第03263095号",
      "license_date": "2020-06-19",
      "expire_date": "2027-05-31"
    },
    {
      "name": "ＴＯＭＯ",
      "name_kana": "",
      "business_type": "飲食店営業",
      "address": "上田市芳田１３８０－２",
      "lat": 36.391356,
      "lng": 138.30925800000003,
      "geocoding_level": 3,
      "phone": "",
      "license_no": "第03262997号",
      "license_date": "2020-06-12",
      "expire_date": "2026-12-31"
    },
    {
      "name": "居酒屋　いなよ",
      "name_kana": "",
      "business_type": "飲食店営業",
      "address": "上田市岡１３７０",
      "lat": 36.382548,
      "lng": 138.171206,
      "geocoding_level": 3,
      "phone": "",
      "license_no": "第03185733号",
      "license_date": "2020-06-30",
      "expire_date": "2026-06-30"
    },
    {
      "name": "Ｂａｎｎｏｃｋ",
      "name_kana": "",
      "business_type": "菓子製造業",
      "address": "上田市緑が丘３丁目２１－１３",
      "lat": 36.414384756,
      "lng": 138.240712119,
      "geocoding_level": 8,
      "phone": "",
      "license_no": "第03263259号",
      "license_date": "2020-07-13",
      "expire_date": "2026-11-30"
    },
    {
      "name": "Ｂａｎｎｏｃｋ",
      "name_kana": "",
      "business_type": "喫茶店営業",
      "address": "上田市緑が丘３丁目２１－１３",
      "lat": 36.414384756,
      "lng": 138.240712119,
      "geocoding_level": 8,
      "phone": "",
      "license_no": "第03263266号",
      "license_date": "2020-07-13",
      "expire_date": "2026-11-30"
    },
    {
      "name": "きすけどーる",
      "name_kana": "",
      "business_type": "菓子製造業",
      "address": "上田市神畑８１９－４",
      "lat": 36.382536,
      "lng": 138.216234,
      "geocoding_level": 3,
      "phone": "",
      "license_no": "第03263394号",
      "license_date": "2020-07-29",
      "expire_date": "2027-04-30"
    },
    {
      "name": "スナックあけみ",
      "name_kana": "",
      "business_type": "飲食店営業",
      "address": "上田市中央３－１１－７ 七賢人テナントビル２階",
      "lat": 36.400735675,
      "lng": 138.255344833,
      "geocoding_level": 8,
      "phone": "",
      "license_no": "第03263437号",
      "license_date": "2020-07-31",
      "expire_date": "2027-01-31"
    },
    {
      "name": "アート金属工業株式会社　厚生棟",
      "name_kana": "",
      "business_type": "飲食店営業",
      "address": "上田市常磐城２－２－４３",
      "lat": 36.404732239,
      "lng": 138.240046392,
      "geocoding_level": 8,
      "phone": "",
      "license_no": "第03263476号",
      "license_date": "2020-08-07",
      "expire_date": "2026-11-30"
    },
    {
      "name": "ヴェルデ",
      "name_kana": "",
      "business_type": "飲食店営業",
      "address": "上田市菅平高原菅平１２２３－４３６５",
      "lat": 36.523527,
      "lng": 138.33082,
      "geocoding_level": 3,
      "phone": "",
      "license_no": "第03126431号",
      "license_date": "2020-07-31",
      "expire_date": "2026-07-31"
    },
    {
      "name": "レストラン　メルス",
      "name_kana": "",
      "business_type": "飲食店営業",
      "address": "上田市菅平高原１２２３－６０８８",
      "lat": 36.523527,
      "lng": 138.33082,
      "geocoding_level": 3,
      "phone": "",
      "license_no": "第03128530号",
      "license_date": "2020-07-31",
      "expire_date": "2026-07-31"
    },
    {
      "name": "レストラン　アリエスカ",
      "name_kana": "",
      "business_type": "飲食店営業",
      "address": "上田市菅平高原菅平１２２３",
      "lat": 36.523527,
      "lng": 138.33082,
      "geocoding_level": 3,
      "phone": "",
      "license_no": "第03128629号",
      "license_date": "2020-07-31",
      "expire_date": "2026-07-31"
    },
    {
      "name": "エーデルホテル",
      "name_kana": "",
      "business_type": "飲食店営業",
      "address": "上田市菅平高原１２２３－１５４８",
      "lat": 36.523527,
      "lng": 138.33082,
      "geocoding_level": 3,
      "phone": "",
      "license_no": "第03137390号",
      "license_date": "2020-07-31",
      "expire_date": "2026-07-31"
    },
    {
      "name": "菅平プリンスホテル",
      "name_kana": "",
      "business_type": "飲食店営業",
      "address": "上田市菅平高原１２２３－３７３５",
      "lat": 36.523527,
      "lng": 138.33082,
      "geocoding_level": 3,
      "phone": "",
      "license_no": "第03138744号",
      "license_date": "2020-07-31",
      "expire_date": "2027-07-31"
    },
    {
      "name": "ダック・菅池",
      "name_kana": "",
      "business_type": "飲食店営業",
      "address": "上田市菅平高原１２７８",
      "lat": 36.523527,
      "lng": 138.33082,
      "geocoding_level": 3,
      "phone": "",
      "license_no": "第03153072号",
      "license_date": "2020-07-31",
      "expire_date": "2026-07-31"
    },
    {
      "name": "向井館",
      "name_kana": "",
      "business_type": "飲食店営業",
      "address": "上田市菅平高原１２２３－８８７",
      "lat": 36.523527,
      "lng": 138.33082,
      "geocoding_level": 3,
      "phone": "",
      "license_no": "第03162492号",
      "license_date": "2020-07-31",
      "expire_date": "2026-07-31"
    },
    {
      "name": "（有）金井屋",
      "name_kana": "",
      "business_type": "飲食店営業",
      "address": "上田市菅平高原１２４０",
      "lat": 36.523527,
      "lng": 138.33082,
      "geocoding_level": 3,
      "phone": "",
      "license_no": "第03162511号",
      "license_date": "2020-07-31",
      "expire_date": "2026-07-31"
    },
    {
      "name": "レストラン　マッキンレー",
      "name_kana": "",
      "business_type": "飲食店営業",
      "address": "上田市菅平高原１２２３－６２２１",
      "lat": 36.523527,
      "lng": 138.33082,
      "geocoding_level": 3,
      "phone": "",
      "license_no": "第03172166号",
      "license_date": "2020-07-31",
      "expire_date": "2027-07-31"
    },
    {
      "name": "ロッヂ　ありす",
      "name_kana": "",
      "business_type": "飲食店営業",
      "address": "上田市菅平高原１２２３－５４１７",
      "lat": 36.523527,
      "lng": 138.33082,
      "geocoding_level": 3,
      "phone": "",
      "license_no": "第03215606号",
      "license_date": "2020-07-31",
      "expire_date": "2026-07-31"
    },
    {
      "name": "地蔵温泉　十福の湯",
      "name_kana": "",
      "business_type": "飲食店営業",
      "address": "上田市真田町傍陽９０９７－７０",
      "lat": 36.48862700000001,
      "lng": 138.281541,
      "geocoding_level": 3,
      "phone": "",
      "license_no": "第03215702号",
      "license_date": "2020-07-31",
      "expire_date": "2026-07-31"
    },
    {
      "name": "雅（みやび）",
      "name_kana": "",
      "business_type": "飲食店営業",
      "address": "上田市真田町本原１０６２－１",
      "lat": 36.434900191,
      "lng": 138.300392237,
      "geocoding_level": 8,
      "phone": "",
      "license_no": "第03216117号",
      "license_date": "2020-07-31",
      "expire_date": "2026-07-31"
    },
    {
      "name": "上田菅平高原グランヴィリオゴルフ倶楽部",
      "name_kana": "",
      "business_type": "飲食店営業",
      "address": "上田市菅平高原１２２３－３３０７",
      "lat": 36.523527,
      "lng": 138.33082,
      "geocoding_level": 3,
      "phone": "",
      "license_no": "第03216794号",
      "license_date": "2020-07-31",
      "expire_date": "2026-07-31"
    },
    {
      "name": "四阿屋旅館",
      "name_kana": "",
      "business_type": "飲食店営業",
      "address": "上田市菅平高原１２４５",
      "lat": 36.523527,
      "lng": 138.33082,
      "geocoding_level": 3,
      "phone": "",
      "license_no": "第03218172号",
      "license_date": "2020-07-31",
      "expire_date": "2026-07-31"
    },
    {
      "name": "ＡＧハウス",
      "name_kana": "",
      "business_type": "飲食店営業",
      "address": "上田市菅平高原１２２３－１４３",
      "lat": 36.523527,
      "lng": 138.33082,
      "geocoding_level": 3,
      "phone": "",
      "license_no": "第03218180号",
      "license_date": "2020-07-31",
      "expire_date": "2026-07-31"
    },
    {
      "name": "キャビンＧ（グリーンパーク）",
      "name_kana": "",
      "business_type": "飲食店営業",
      "address": "上田市菅平高原１２７８－２５１",
      "lat": 36.523527,
      "lng": 138.33082,
      "geocoding_level": 3,
      "phone": "",
      "license_no": "第03218197号",
      "license_date": "2020-07-31",
      "expire_date": "2026-07-31"
    },
    {
      "name": "つばくら館（株）",
      "name_kana": "",
      "business_type": "飲食店営業",
      "address": "上田市菅平高原１２２３－２９１０",
      "lat": 36.523527,
      "lng": 138.33082,
      "geocoding_level": 3,
      "phone": "",
      "license_no": "第03218207号",
      "license_date": "2020-07-31",
      "expire_date": "2026-07-31"
    },
    {
      "name": "ホテル城山館",
      "name_kana": "",
      "business_type": "飲食店営業",
      "address": "上田市菅平高原１２２３－１１４１",
      "lat": 36.523527,
      "lng": 138.33082,
      "geocoding_level": 3,
      "phone": "",
      "license_no": "第03240592号",
      "license_date": "2020-07-31",
      "expire_date": "2026-07-31"
    },
    {
      "name": "インド料理　シュワルツ",
      "name_kana": "",
      "business_type": "飲食店営業",
      "address": "上田市菅平高原１２２３－１１４１",
      "lat": 36.523527,
      "lng": 138.33082,
      "geocoding_level": 3,
      "phone": "",
      "license_no": "第03240602号",
      "license_date": "2020-07-31",
      "expire_date": "2026-07-31"
    },
    {
      "name": "城山館別館　シュワルツ",
      "name_kana": "",
      "business_type": "飲食店営業",
      "address": "上田市菅平高原１２２３－１１４１",
      "lat": 36.523527,
      "lng": 138.33082,
      "geocoding_level": 3,
      "phone": "",
      "license_no": "第03240610号",
      "license_date": "2020-07-31",
      "expire_date": "2026-07-31"
    },
    {
      "name": "真琉家",
      "name_kana": "",
      "business_type": "飲食店営業",
      "address": "上田市真田町本原１５３－４",
      "lat": 36.42249937,
      "lng": 138.30276199000002,
      "geocoding_level": 8,
      "phone": "",
      "license_no": "第03242287号",
      "license_date": "2020-07-31",
      "expire_date": "2026-07-31"
    },
    {
      "name": "有限会社　荻原食品",
      "name_kana": "",
      "business_type": "飲食店営業",
      "address": "上田市長瀬２８８９－１",
      "lat": 36.350333,
      "lng": 138.285794,
      "geocoding_level": 3,
      "phone": "",
      "license_no": "第03263541号",
      "license_date": "2020-08-21",
      "expire_date": "2027-08-31"
    },
    {
      "name": "栄食堂",
      "name_kana": "",
      "business_type": "飲食店営業",
      "address": "上田市塩川１４８１－８",
      "lat": 36.349106,
      "lng": 138.30608,
      "geocoding_level": 3,
      "phone": "",
      "license_no": "第03263608号",
      "license_date": "2020-09-01",
      "expire_date": "2026-08-31"
    },
    {
      "name": "ＡＯＩ",
      "name_kana": "",
      "business_type": "飲食店営業",
      "address": "上田市中央３丁目１３－７",
      "lat": 36.401119514,
      "lng": 138.25491315,
      "geocoding_level": 8,
      "phone": "",
      "license_no": "第03263622号",
      "license_date": "2020-09-01",
      "expire_date": "2026-10-31"
    },
    {
      "name": "中山精肉店",
      "name_kana": "",
      "business_type": "食肉販売業",
      "address": "上田市上丸子１０５５",
      "lat": 36.319171,
      "lng": 138.277385,
      "geocoding_level": 3,
      "phone": "",
      "license_no": "第03018271号",
      "license_date": "2020-08-31",
      "expire_date": "2026-08-31"
    },
    {
      "name": "山印醸造丸子工場",
      "name_kana": "",
      "business_type": "みそ製造業",
      "address": "上田市腰越１５４４",
      "lat": 36.30203100000001,
      "lng": 138.26903,
      "geocoding_level": 3,
      "phone": "",
      "license_no": "第03019971号",
      "license_date": "2020-08-31",
      "expire_date": "2026-08-31"
    },
    {
      "name": "信州銘醸（株）",
      "name_kana": "",
      "business_type": "酒類製造業",
      "address": "上田市長瀬２９９９－１",
      "lat": 36.350333,
      "lng": 138.285794,
      "geocoding_level": 3,
      "phone": "",
      "license_no": "第03020201号",
      "license_date": "2020-08-31",
      "expire_date": "2026-08-31"
    },
    {
      "name": "藤屋旅館",
      "name_kana": "",
      "business_type": "飲食店営業",
      "address": "上田市鹿教湯温泉１３７３－３",
      "lat": 36.283624,
      "lng": 138.101095,
      "geocoding_level": 3,
      "phone": "",
      "license_no": "第03038295号",
      "license_date": "2020-08-31",
      "expire_date": "2026-08-31"
    },
    {
      "name": "ＫＯＫＵＲＡ",
      "name_kana": "",
      "business_type": "飲食店営業",
      "address": "上田市中丸子１４２９－１",
      "lat": 36.330527,
      "lng": 138.280893,
      "geocoding_level": 3,
      "phone": "",
      "license_no": "第03109019号",
      "license_date": "2020-08-31",
      "expire_date": "2026-08-31"
    },
    {
      "name": "（有）旭館",
      "name_kana": "",
      "business_type": "飲食店営業",
      "address": "上田市西内７６９－２",
      "lat": 36.310012,
      "lng": 138.120652,
      "geocoding_level": 3,
      "phone": "",
      "license_no": "第03128497号",
      "license_date": "2020-08-31",
      "expire_date": "2026-08-31"
    },
    {
      "name": "居酒屋かっぽう",
      "name_kana": "",
      "business_type": "飲食店営業",
      "address": "上田市上丸子１５８８－２４",
      "lat": 36.319171,
      "lng": 138.277385,
      "geocoding_level": 3,
      "phone": "",
      "license_no": "第03140356号",
      "license_date": "2020-08-31",
      "expire_date": "2026-08-31"
    },
    {
      "name": "長野計器製作所丸子工場社員食堂",
      "name_kana": "",
      "business_type": "飲食店営業",
      "address": "上田市御嶽堂２４８０",
      "lat": 36.335672,
      "lng": 138.25713,
      "geocoding_level": 3,
      "phone": "",
      "license_no": "第03163045号",
      "license_date": "2020-08-31",
      "expire_date": "2026-08-31"
    },
    {
      "name": "旅館　遊楽",
      "name_kana": "",
      "business_type": "飲食店営業",
      "address": "上田市平井字唐沢口２５４０－１５",
      "lat": 36.297107,
      "lng": 138.17549,
      "geocoding_level": 3,
      "phone": "",
      "license_no": "第03215596号",
      "license_date": "2020-08-31",
      "expire_date": "2026-08-31"
    },
    {
      "name": "（株）タジマ社員食堂",
      "name_kana": "",
      "business_type": "飲食店営業",
      "address": "上田市藤原田６７－１９",
      "lat": 36.329066000000005,
      "lng": 138.305517,
      "geocoding_level": 3,
      "phone": "",
      "license_no": "第03215895号",
      "license_date": "2020-08-31",
      "expire_date": "2026-08-31"
    },
    {
      "name": "上田丸子グランヴィリオゴルフ倶楽部",
      "name_kana": "",
      "business_type": "飲食店営業",
      "address": "上田市藤原田１０３８－１",
      "lat": 36.329066000000005,
      "lng": 138.305517,
      "geocoding_level": 3,
      "phone": "",
      "license_no": "第03216521号",
      "license_date": "2020-08-31",
      "expire_date": "2026-08-31"
    },
    {
      "name": "スナック花の木",
      "name_kana": "",
      "business_type": "飲食店営業",
      "address": "上田市中丸子１４３０ひかりてなんとビル３号",
      "lat": 36.330527,
      "lng": 138.280893,
      "geocoding_level": 3,
      "phone": "",
      "license_no": "第03218261号",
      "license_date": "2020-08-31",
      "expire_date": "2026-08-31"
    },
    {
      "name": "上田市上丸子デイサービスセンター",
      "name_kana": "",
      "business_type": "飲食店営業",
      "address": "上田市上丸子１６００－１",
      "lat": 36.319171,
      "lng": 138.277385,
      "geocoding_level": 3,
      "phone": "",
      "license_no": "第03243511号",
      "license_date": "2020-08-31",
      "expire_date": "2026-08-31"
    },
    {
      "name": "大吉フードシステム",
      "name_kana": "",
      "business_type": "飲食店営業",
      "address": "上田市住吉１０４番地５",
      "lat": 36.421353,
      "lng": 138.280062,
      "geocoding_level": 3,
      "phone": "",
      "license_no": "第03263693号",
      "license_date": "2020-09-11",
      "expire_date": "2027-01-31"
    },
    {
      "name": "ライフデリ　上田店",
      "name_kana": "",
      "business_type": "そうざい製造業",
      "address": "上田市小泉４６９－１",
      "lat": 36.398463,
      "lng": 138.188185,
      "geocoding_level": 3,
      "phone": "",
      "license_no": "第03263751号",
      "license_date": "2020-09-18",
      "expire_date": "2027-06-30"
    },
    {
      "name": "特定非営利活動法人リベルテ　スタジオライト",
      "name_kana": "",
      "business_type": "菓子製造業",
      "address": "上田市中央４丁目８－１４",
      "lat": 36.406037969,
      "lng": 138.253271322,
      "geocoding_level": 8,
      "phone": "",
      "license_no": "第03263782号",
      "license_date": "2020-09-28",
      "expire_date": "2026-10-31"
    },
    {
      "name": "Ｍａｊｕ　Ｓａｌｇａｄｏｓ　クロケット",
      "name_kana": "",
      "business_type": "そうざい製造業",
      "address": "上田市上田１７１３－１３",
      "lat": 36.423229,
      "lng": 138.259451,
      "geocoding_level": 3,
      "phone": "",
      "license_no": "第03263801号",
      "license_date": "2020-10-02",
      "expire_date": "2027-02-28"
    },
    {
      "name": "ピザカリフォルニア大学前店",
      "name_kana": "",
      "business_type": "飲食店営業",
      "address": "上田市下之郷乙２８８－１ テナント手塚",
      "lat": 36.366431,
      "lng": 138.233251,
      "geocoding_level": 3,
      "phone": "",
      "license_no": "第03263825号",
      "license_date": "2020-10-02",
      "expire_date": "2027-05-31"
    },
    {
      "name": "ＳＥＫＩＤＯ錆作所",
      "name_kana": "",
      "business_type": "飲食店営業",
      "address": "上田市常磐城４丁目１６５７－１",
      "lat": 36.410818000000006,
      "lng": 138.236708,
      "geocoding_level": 3,
      "phone": "",
      "license_no": "第03263953号",
      "license_date": "2020-10-16",
      "expire_date": "2026-11-30"
    },
    {
      "name": "Ｌｕｎｃｈ　Ｂａｒ　桜華",
      "name_kana": "",
      "business_type": "飲食店営業",
      "address": "上田市中央３－１４－１７ ｅａｇｌｅ１Ｆ",
      "lat": 36.401494378,
      "lng": 138.255465842,
      "geocoding_level": 8,
      "phone": "",
      "license_no": "第03264005号",
      "license_date": "2020-10-23",
      "expire_date": "2026-11-30"
    },
    {
      "name": "台湾料理　美味館",
      "name_kana": "",
      "business_type": "飲食店営業",
      "address": "上田市中之条１２６８－９１",
      "lat": 36.397612,
      "lng": 138.227603,
      "geocoding_level": 3,
      "phone": "",
      "license_no": "第03264126号",
      "license_date": "2020-11-10",
      "expire_date": "2027-02-28"
    },
    {
      "name": "（資）内山食料品店",
      "name_kana": "",
      "business_type": "魚介類販売業",
      "address": "上田市中央２丁目１４－１",
      "lat": 36.39784985,
      "lng": 138.254258481,
      "geocoding_level": 8,
      "phone": "",
      "license_no": "第03003091号",
      "license_date": "2020-10-30",
      "expire_date": "2026-10-31"
    },
    {
      "name": "クラブエルエム",
      "name_kana": "",
      "business_type": "飲食店営業",
      "address": "上田市中央３丁目１０－１１",
      "lat": 36.400850597,
      "lng": 138.25487501700002,
      "geocoding_level": 8,
      "phone": "",
      "license_no": "第03025180号",
      "license_date": "2020-10-30",
      "expire_date": "2026-10-31"
    },
    {
      "name": "茶々",
      "name_kana": "",
      "business_type": "飲食店営業",
      "address": "上田市中央３－８－２０",
      "lat": 36.402273867,
      "lng": 138.254696589,
      "geocoding_level": 8,
      "phone": "",
      "license_no": "第03140609号",
      "license_date": "2020-10-30",
      "expire_date": "2026-10-31"
    },
    {
      "name": "（有）かぶらや",
      "name_kana": "",
      "business_type": "飲食店営業",
      "address": "上田市中央４－１８－２２",
      "lat": 36.40698046100001,
      "lng": 138.250612094,
      "geocoding_level": 8,
      "phone": "",
      "license_no": "第03175657号",
      "license_date": "2020-10-30",
      "expire_date": "2027-10-31"
    },
    {
      "name": "ＺＯＯ",
      "name_kana": "",
      "business_type": "飲食店営業",
      "address": "上田市中央３－１１－１　宝来ビル１Ｆ",
      "lat": 36.400566281,
      "lng": 138.254720108,
      "geocoding_level": 8,
      "phone": "",
      "license_no": "第03188245号",
      "license_date": "2020-10-30",
      "expire_date": "2026-10-31"
    },
    {
      "name": "ゴジラ",
      "name_kana": "",
      "business_type": "飲食店営業",
      "address": "上田市中央６－１－２アクセスビル２０４号",
      "lat": 36.40127745,
      "lng": 138.25548084200003,
      "geocoding_level": 8,
      "phone": "",
      "license_no": "第03218749号",
      "license_date": "2020-10-30",
      "expire_date": "2026-10-31"
    },
    {
      "name": "ここから",
      "name_kana": "",
      "business_type": "飲食店営業",
      "address": "上田市天神１－２－３３",
      "lat": 36.397455586,
      "lng": 138.249459447,
      "geocoding_level": 8,
      "phone": "",
      "license_no": "第03244134号",
      "license_date": "2020-10-30",
      "expire_date": "2026-10-31"
    },
    {
      "name": "ＣＲＥＭＯＳＳＯ＋　ＢＫＧ－ＮＨＳ８５ＡＮ",
      "name_kana": "",
      "business_type": "飲食店営業",
      "address": "上田市富士山２４１６－２２",
      "lat": 36.341773,
      "lng": 138.238494,
      "geocoding_level": 3,
      "phone": "",
      "license_no": "第03264172号",
      "license_date": "2020-11-13",
      "expire_date": "2026-05-31"
    },
    {
      "name": "ＣＲＥＭＯＳＳＯ＋　ＢＫＧ－ＮＨＳ８５ＡＮ",
      "name_kana": "",
      "business_type": "アイスクリーム類製造業",
      "address": "上田市富士山２４１６－２２",
      "lat": 36.341773,
      "lng": 138.238494,
      "geocoding_level": 3,
      "phone": "",
      "license_no": "第03264180号",
      "license_date": "2020-11-13",
      "expire_date": "2026-05-31"
    },
    {
      "name": "ロッジ松の実",
      "name_kana": "",
      "business_type": "飲食店営業",
      "address": "上田市菅平高原１２２３－５９３３",
      "lat": 36.523527,
      "lng": 138.33082,
      "geocoding_level": 3,
      "phone": "",
      "license_no": "第03264208号",
      "license_date": "2020-11-25",
      "expire_date": "2027-07-31"
    },
    {
      "name": "そば屋　草酒庵",
      "name_kana": "",
      "business_type": "飲食店営業",
      "address": "上田市中丸子１２５２－１",
      "lat": 36.330527,
      "lng": 138.280893,
      "geocoding_level": 3,
      "phone": "",
      "license_no": "第03264215号",
      "license_date": "2020-11-25",
      "expire_date": "2027-08-31"
    },
    {
      "name": "ｍａのかまど",
      "name_kana": "",
      "business_type": "飲食店営業",
      "address": "上田市中央１－３－１",
      "lat": 36.398639606,
      "lng": 138.250934136,
      "geocoding_level": 8,
      "phone": "",
      "license_no": "第03264261号",
      "license_date": "2020-11-25",
      "expire_date": "2026-12-31"
    },
    {
      "name": "ル　ポタジェ",
      "name_kana": "",
      "business_type": "そうざい製造業",
      "address": "上田市生田２１４７－５",
      "lat": 36.362652821,
      "lng": 138.277385433,
      "geocoding_level": 8,
      "phone": "",
      "license_no": "第03264304号",
      "license_date": "2020-11-27",
      "expire_date": "2027-08-31"
    },
    {
      "name": "ｈａｎａｔｏｋｉ",
      "name_kana": "",
      "business_type": "飲食店営業",
      "address": "上田市別所温泉１７１７－５",
      "lat": 36.347558,
      "lng": 138.146506,
      "geocoding_level": 3,
      "phone": "",
      "license_no": "第03264382号",
      "license_date": "2020-12-04",
      "expire_date": "2027-05-31"
    },
    {
      "name": "ｈａｎａｔｏｋｉ",
      "name_kana": "",
      "business_type": "菓子製造業",
      "address": "上田市別所温泉１７１７－５",
      "lat": 36.347558,
      "lng": 138.146506,
      "geocoding_level": 3,
      "phone": "",
      "license_no": "第03264390号",
      "license_date": "2020-12-04",
      "expire_date": "2027-05-31"
    },
    {
      "name": "やさしえよしだ２",
      "name_kana": "",
      "business_type": "飲食店営業",
      "address": "上田市芳田１４３０－１",
      "lat": 36.391356,
      "lng": 138.30925800000003,
      "geocoding_level": 3,
      "phone": "",
      "license_no": "第03264418号",
      "license_date": "2020-12-04",
      "expire_date": "2027-02-28"
    },
    {
      "name": "ホテル　バニラ",
      "name_kana": "",
      "business_type": "飲食店営業",
      "address": "上田市中央２－１８－１１",
      "lat": 36.399604422,
      "lng": 138.257573775,
      "geocoding_level": 8,
      "phone": "",
      "license_no": "第03111155号",
      "license_date": "2020-11-30",
      "expire_date": "2026-11-30"
    },
    {
      "name": "小料理ほりの",
      "name_kana": "",
      "business_type": "飲食店営業",
      "address": "上田市中央２－６－１４",
      "lat": 36.399499858,
      "lng": 138.25242535800004,
      "geocoding_level": 8,
      "phone": "",
      "license_no": "第03112143号",
      "license_date": "2020-11-30",
      "expire_date": "2026-11-30"
    },
    {
      "name": "あかいし食堂",
      "name_kana": "",
      "business_type": "飲食店営業",
      "address": "上田市常田３－５－５６",
      "lat": 36.394301164,
      "lng": 138.265084908,
      "geocoding_level": 8,
      "phone": "",
      "license_no": "第03112175号",
      "license_date": "2020-11-30",
      "expire_date": "2026-11-30"
    },
    {
      "name": "水野旅館",
      "name_kana": "",
      "business_type": "飲食店営業",
      "address": "上田市中央４－１８－２３",
      "lat": 36.406970906,
      "lng": 138.250776778,
      "geocoding_level": 8,
      "phone": "",
      "license_no": "第03165201号",
      "license_date": "2020-11-30",
      "expire_date": "2026-11-30"
    },
    {
      "name": "情熱屋ラーメン",
      "name_kana": "",
      "business_type": "飲食店営業",
      "address": "上田市芳田１５１３－１",
      "lat": 36.391356,
      "lng": 138.30925800000003,
      "geocoding_level": 3,
      "phone": "",
      "license_no": "第03186881号",
      "license_date": "2020-11-30",
      "expire_date": "2026-11-30"
    },
    {
      "name": "食酒屋　るり家",
      "name_kana": "",
      "business_type": "飲食店営業",
      "address": "上田市中央２－４－２",
      "lat": 36.401166919,
      "lng": 138.2526124,
      "geocoding_level": 8,
      "phone": "",
      "license_no": "第03219484号",
      "license_date": "2020-11-30",
      "expire_date": "2026-11-30"
    },
    {
      "name": "スナック　さとみ",
      "name_kana": "",
      "business_type": "飲食店営業",
      "address": "上田市芳田１３３３－５田中テナントビル１Ｆ",
      "lat": 36.391356,
      "lng": 138.30925800000003,
      "geocoding_level": 3,
      "phone": "",
      "license_no": "第03217615号",
      "license_date": "2020-11-30",
      "expire_date": "2026-11-30"
    },
    {
      "name": "やまま",
      "name_kana": "",
      "business_type": "飲食店営業",
      "address": "上田市国分１７８０－１",
      "lat": 36.381919,
      "lng": 138.274084,
      "geocoding_level": 3,
      "phone": "",
      "license_no": "第03241405号",
      "license_date": "2020-11-30",
      "expire_date": "2026-11-30"
    },
    {
      "name": "お休み処＆セルフショップ「しゅうぷろ」",
      "name_kana": "",
      "business_type": "飲食店営業",
      "address": "上田市別所温泉１６６１",
      "lat": 36.347558,
      "lng": 138.146506,
      "geocoding_level": 3,
      "phone": "",
      "license_no": "第03264425号",
      "license_date": "2020-12-14",
      "expire_date": "2027-05-31"
    },
    {
      "name": "東京特殊電線社員食堂",
      "name_kana": "",
      "business_type": "飲食店営業",
      "address": "上田市大屋３００",
      "lat": 36.371961,
      "lng": 138.293643,
      "geocoding_level": 3,
      "phone": "",
      "license_no": "第03264457号",
      "license_date": "2020-12-14",
      "expire_date": "2027-11-30"
    },
    {
      "name": "鎌原まんぢゅう",
      "name_kana": "",
      "business_type": "飲食店営業",
      "address": "上田市別所温泉１８１－２",
      "lat": 36.347558,
      "lng": 138.146506,
      "geocoding_level": 3,
      "phone": "",
      "license_no": "第03264375号",
      "license_date": "2020-12-04",
      "expire_date": "2027-05-31"
    },
    {
      "name": "ｃｈａｔｏｎ　ｎｏｉｒ",
      "name_kana": "",
      "business_type": "飲食店営業",
      "address": "上田市中央３－８－３５",
      "lat": 36.401350036,
      "lng": 138.253097664,
      "geocoding_level": 8,
      "phone": "",
      "license_no": "第03264546号",
      "license_date": "2021-01-12",
      "expire_date": "2027-04-30"
    },
    {
      "name": "こはまや酒蔵",
      "name_kana": "",
      "business_type": "飲食店営業",
      "address": "上田市中央２丁目１２－２５",
      "lat": 36.398969289,
      "lng": 138.254348511,
      "geocoding_level": 8,
      "phone": "",
      "license_no": "第03027691号",
      "license_date": "2020-12-28",
      "expire_date": "2026-12-31"
    },
    {
      "name": "食堂レストラン志津香",
      "name_kana": "",
      "business_type": "飲食店営業",
      "address": "上田市中央４丁目１３－２６",
      "lat": 36.4077954,
      "lng": 138.252010369,
      "geocoding_level": 8,
      "phone": "",
      "license_no": "第03028358号",
      "license_date": "2020-12-28",
      "expire_date": "2026-12-31"
    },
    {
      "name": "栄食堂",
      "name_kana": "",
      "business_type": "飲食店営業",
      "address": "上田市中央西１－１０－１２",
      "lat": 36.407321344,
      "lng": 138.246653522,
      "geocoding_level": 8,
      "phone": "",
      "license_no": "第03140948号",
      "license_date": "2020-12-28",
      "expire_date": "2026-12-31"
    },
    {
      "name": "明治屋",
      "name_kana": "",
      "business_type": "飲食店営業",
      "address": "上田市天神１－２－３４",
      "lat": 36.3973694,
      "lng": 138.249619322,
      "geocoding_level": 8,
      "phone": "",
      "license_no": "第03142065号",
      "license_date": "2020-12-28",
      "expire_date": "2026-12-31"
    },
    {
      "name": "インド料理　ジャイプール",
      "name_kana": "",
      "business_type": "飲食店営業",
      "address": "上田市中央１－９－２０",
      "lat": 36.397081806,
      "lng": 138.253484592,
      "geocoding_level": 8,
      "phone": "",
      "license_no": "第03151712号",
      "license_date": "2020-12-28",
      "expire_date": "2026-12-31"
    },
    {
      "name": "玉喜屋",
      "name_kana": "",
      "business_type": "菓子製造業",
      "address": "上田市中央３－８－１９",
      "lat": 36.402411411,
      "lng": 138.254732097,
      "geocoding_level": 8,
      "phone": "",
      "license_no": "第03154231号",
      "license_date": "2020-12-28",
      "expire_date": "2026-12-31"
    },
    {
      "name": "アップルツリ－洋菓子店",
      "name_kana": "",
      "business_type": "菓子製造業",
      "address": "上田市上田原１３５０－５",
      "lat": 36.389149,
      "lng": 138.22331400000002,
      "geocoding_level": 3,
      "phone": "",
      "license_no": "第03167183号",
      "license_date": "2020-12-28",
      "expire_date": "2026-12-31"
    },
    {
      "name": "美・酒・工房　倉升",
      "name_kana": "",
      "business_type": "飲食店営業",
      "address": "上田市中央１－６－２６",
      "lat": 36.397848408,
      "lng": 138.252139989,
      "geocoding_level": 8,
      "phone": "",
      "license_no": "第03188829号",
      "license_date": "2020-12-28",
      "expire_date": "2026-12-31"
    },
    {
      "name": "海鮮居酒屋　鮮の花壱",
      "name_kana": "",
      "business_type": "飲食店営業",
      "address": "上田市中央２－１３－４",
      "lat": 36.399106258,
      "lng": 138.253334097,
      "geocoding_level": 8,
      "phone": "",
      "license_no": "第03189443号",
      "license_date": "2020-12-28",
      "expire_date": "2026-12-31"
    },
    {
      "name": "ｃｌｏｖｅｒ－ｃｌｏｖｅｒ",
      "name_kana": "",
      "business_type": "菓子製造業",
      "address": "上田市大手１－８－１２",
      "lat": 36.401093325,
      "lng": 138.251634019,
      "geocoding_level": 8,
      "phone": "",
      "license_no": "第03218440号",
      "license_date": "2020-12-28",
      "expire_date": "2026-12-31"
    },
    {
      "name": "ｃｌｏｖｅｒ－ｃｌｏｖｅｒ",
      "name_kana": "",
      "business_type": "喫茶店営業",
      "address": "上田市大手１－８－１２",
      "lat": 36.401093325,
      "lng": 138.251634019,
      "geocoding_level": 8,
      "phone": "",
      "license_no": "第03218457号",
      "license_date": "2020-12-28",
      "expire_date": "2026-12-31"
    },
    {
      "name": "よし味食堂",
      "name_kana": "",
      "business_type": "飲食店営業",
      "address": "上田市緑が丘１－２－４",
      "lat": 36.410843367,
      "lng": 138.249516314,
      "geocoding_level": 8,
      "phone": "",
      "license_no": "第03219872号",
      "license_date": "2020-12-28",
      "expire_date": "2026-12-31"
    },
    {
      "name": "カフェ・ド・グランピア",
      "name_kana": "",
      "business_type": "飲食店営業",
      "address": "上田市常田３－２－２５",
      "lat": 36.397143578,
      "lng": 138.261604697,
      "geocoding_level": 8,
      "phone": "",
      "license_no": "第03243955号",
      "license_date": "2020-12-28",
      "expire_date": "2026-12-31"
    },
    {
      "name": "CM　INTERNATIONALFOOD　SHOP株式会社",
      "name_kana": "",
      "business_type": "食肉販売業",
      "address": "上田市材木町２丁目１２番６号",
      "lat": 36.395027039,
      "lng": 138.266077378,
      "geocoding_level": 8,
      "phone": "",
      "license_no": "第03264611号",
      "license_date": "2021-01-22",
      "expire_date": "2027-04-30"
    },
    {
      "name": "喜三郎",
      "name_kana": "",
      "business_type": "飲食店営業",
      "address": "上田市古里１５４０番地３",
      "lat": 36.394406,
      "lng": 138.280547,
      "geocoding_level": 3,
      "phone": "",
      "license_no": "第03264667号",
      "license_date": "2021-01-28",
      "expire_date": "2027-01-31"
    },
    {
      "name": "スーパーマーケットサニーライフ",
      "name_kana": "",
      "business_type": "飲食店営業",
      "address": "上田市中央西２丁目３－７",
      "lat": 36.408463922,
      "lng": 138.245502258,
      "geocoding_level": 8,
      "phone": "",
      "license_no": "第03000297号",
      "license_date": "2021-01-29",
      "expire_date": "2027-01-31"
    },
    {
      "name": "スーパーマーケットサニーライフ",
      "name_kana": "",
      "business_type": "魚介類販売業",
      "address": "上田市中央西２丁目３－７",
      "lat": 36.408463922,
      "lng": 138.245502258,
      "geocoding_level": 8,
      "phone": "",
      "license_no": "第03003464号",
      "license_date": "2021-01-29",
      "expire_date": "2027-01-31"
    },
    {
      "name": "スーパーマーケットサニーライフ",
      "name_kana": "",
      "business_type": "食肉販売業",
      "address": "上田市中央西２丁目３－７",
      "lat": 36.408463922,
      "lng": 138.245502258,
      "geocoding_level": 8,
      "phone": "",
      "license_no": "第03016594号",
      "license_date": "2021-01-29",
      "expire_date": "2027-01-31"
    },
    {
      "name": "（資）内山食料品店",
      "name_kana": "",
      "business_type": "飲食店営業",
      "address": "上田市中央２丁目１４－１",
      "lat": 36.39784985,
      "lng": 138.254258481,
      "geocoding_level": 8,
      "phone": "",
      "license_no": "第03024930号",
      "license_date": "2021-01-29",
      "expire_date": "2027-01-31"
    },
    {
      "name": "（有）但馬軒",
      "name_kana": "",
      "business_type": "食肉販売業",
      "address": "上田市中央２丁目６－２",
      "lat": 36.399644992,
      "lng": 138.251629386,
      "geocoding_level": 8,
      "phone": "",
      "license_no": "第03016951号",
      "license_date": "2021-01-29",
      "expire_date": "2027-01-31"
    },
    {
      "name": "栄屋",
      "name_kana": "",
      "business_type": "飲食店営業",
      "address": "上田市菅平高原１２２４",
      "lat": 36.523527,
      "lng": 138.33082,
      "geocoding_level": 3,
      "phone": "",
      "license_no": "第03041842号",
      "license_date": "2021-01-29",
      "expire_date": "2027-01-31"
    },
    {
      "name": "村田山荘",
      "name_kana": "",
      "business_type": "飲食店営業",
      "address": "上田市菅平高原１２２３－３８１１",
      "lat": 36.523527,
      "lng": 138.33082,
      "geocoding_level": 3,
      "phone": "",
      "license_no": "第03043277号",
      "license_date": "2021-01-29",
      "expire_date": "2027-01-31"
    },
    {
      "name": "八幡屋",
      "name_kana": "",
      "business_type": "飲食店営業",
      "address": "上田市菅平高原１２２３",
      "lat": 36.523527,
      "lng": 138.33082,
      "geocoding_level": 3,
      "phone": "",
      "license_no": "第03043423号",
      "license_date": "2021-01-29",
      "expire_date": "2027-01-31"
    },
    {
      "name": "千鳥屋",
      "name_kana": "",
      "business_type": "魚介類販売業",
      "address": "上田市中央西１－１４－２２",
      "lat": 36.408276844,
      "lng": 138.245721653,
      "geocoding_level": 8,
      "phone": "",
      "license_no": "第03114639号",
      "license_date": "2021-01-29",
      "expire_date": "2027-01-31"
    },
    {
      "name": "千鳥屋",
      "name_kana": "",
      "business_type": "そうざい製造業",
      "address": "上田市中央西１－１４－２２",
      "lat": 36.408276844,
      "lng": 138.245721653,
      "geocoding_level": 8,
      "phone": "",
      "license_no": "第03114646号",
      "license_date": "2021-01-29",
      "expire_date": "2027-01-31"
    },
    {
      "name": "やおふく秋和店",
      "name_kana": "",
      "business_type": "食肉販売業",
      "address": "上田市常磐城４－７－１８",
      "lat": 36.411084686,
      "lng": 138.235005164,
      "geocoding_level": 8,
      "phone": "",
      "license_no": "第03125840号",
      "license_date": "2021-01-29",
      "expire_date": "2027-01-31"
    },
    {
      "name": "やおふく秋和店",
      "name_kana": "",
      "business_type": "魚介類販売業",
      "address": "上田市常磐城４－７－１８",
      "lat": 36.411084686,
      "lng": 138.235005164,
      "geocoding_level": 8,
      "phone": "",
      "license_no": "第03125832号",
      "license_date": "2021-01-29",
      "expire_date": "2027-01-31"
    },
    {
      "name": "ダンケ",
      "name_kana": "",
      "business_type": "飲食店営業",
      "address": "上田市秋和５１０－２",
      "lat": 36.419796,
      "lng": 138.229906,
      "geocoding_level": 3,
      "phone": "",
      "license_no": "第03139950号",
      "license_date": "2021-01-29",
      "expire_date": "2027-01-31"
    },
    {
      "name": "味な店　名月",
      "name_kana": "",
      "business_type": "飲食店営業",
      "address": "上田市中央３－１４－１６　実のりビル１Ｆ",
      "lat": 36.401604617,
      "lng": 138.255530486,
      "geocoding_level": 8,
      "phone": "",
      "license_no": "第03168011号",
      "license_date": "2021-01-29",
      "expire_date": "2027-01-31"
    },
    {
      "name": "奥ダボスレストラン",
      "name_kana": "",
      "business_type": "飲食店営業",
      "address": "上田市菅平高原１２２３－３３０７",
      "lat": 36.523527,
      "lng": 138.33082,
      "geocoding_level": 3,
      "phone": "",
      "license_no": "第03219954号",
      "license_date": "2021-01-29",
      "expire_date": "2027-01-31"
    },
    {
      "name": "スターＩＩ",
      "name_kana": "",
      "business_type": "飲食店営業",
      "address": "上田市中央３－１１－２",
      "lat": 36.400679522,
      "lng": 138.254803914,
      "geocoding_level": 8,
      "phone": "",
      "license_no": "第03219071号",
      "license_date": "2021-01-29",
      "expire_date": "2027-01-31"
    },
    {
      "name": "Ｇ７",
      "name_kana": "",
      "business_type": "飲食店営業",
      "address": "上田市中央３－１１－７七賢人ビル２Ｆ",
      "lat": 36.400735675,
      "lng": 138.255344833,
      "geocoding_level": 8,
      "phone": "",
      "license_no": "第03219573号",
      "license_date": "2021-01-29",
      "expire_date": "2027-01-31"
    },
    {
      "name": "ＤＡＲＵＭＡＮ　ＳＴＲＥＥＴ　ＦＯＯＤＳ",
      "name_kana": "",
      "business_type": "飲食店営業",
      "address": "上田市中央２丁目２－１４ 甲州屋ビル１０２",
      "lat": 36.400876658,
      "lng": 138.25223741400004,
      "geocoding_level": 8,
      "phone": "",
      "license_no": "第03264700号",
      "license_date": "2021-02-10",
      "expire_date": "2027-04-30"
    },
    {
      "name": "食事処しんりん",
      "name_kana": "",
      "business_type": "飲食店営業",
      "address": "上田市真田町本原５７３－１",
      "lat": 36.423069892,
      "lng": 138.299627357,
      "geocoding_level": 8,
      "phone": "",
      "license_no": "第03141006号",
      "license_date": "2020-07-31",
      "expire_date": "2027-07-31"
    },
    {
      "name": "ｆｕｌｌ．ｍ",
      "name_kana": "",
      "business_type": "喫茶店営業",
      "address": "上田市真田町傍陽１１４６７",
      "lat": 36.48862700000001,
      "lng": 138.281541,
      "geocoding_level": 3,
      "phone": "",
      "license_no": "第03264717号",
      "license_date": "2021-02-19",
      "expire_date": "2026-07-31"
    },
    {
      "name": "山人",
      "name_kana": "",
      "business_type": "菓子製造業",
      "address": "上田市菅平高原１２３８",
      "lat": 36.523527,
      "lng": 138.33082,
      "geocoding_level": 3,
      "phone": "",
      "license_no": "第03264771号",
      "license_date": "2021-02-24",
      "expire_date": "2026-07-31"
    },
    {
      "name": "俺ジナル　居酒屋　我むしゃら",
      "name_kana": "",
      "business_type": "飲食店営業",
      "address": "上田市中央１－６－１４ 常盤ビル１Ｆ",
      "lat": 36.398580297,
      "lng": 138.253189175,
      "geocoding_level": 8,
      "phone": "",
      "license_no": "第03264806号",
      "license_date": "2021-03-01",
      "expire_date": "2027-02-28"
    },
    {
      "name": "ちょこっと温泉かふぇ　対冨館",
      "name_kana": "",
      "business_type": "飲食店営業",
      "address": "上田市西内７６９－７",
      "lat": 36.310012,
      "lng": 138.120652,
      "geocoding_level": 3,
      "phone": "",
      "license_no": "第03264845号",
      "license_date": "2021-03-05",
      "expire_date": "2027-08-31"
    },
    {
      "name": "トムヤンクン",
      "name_kana": "",
      "business_type": "飲食店営業",
      "address": "上田市中央１丁目２－１８",
      "lat": 36.399342875,
      "lng": 138.251191747,
      "geocoding_level": 8,
      "phone": "",
      "license_no": "第03264368号",
      "license_date": "2020-12-04",
      "expire_date": "2027-01-31"
    },
    {
      "name": "夢ハウス　あずさ号",
      "name_kana": "",
      "business_type": "飲食店営業",
      "address": "上田市小牧１２０４－１、１２０３－２",
      "lat": 36.37853,
      "lng": 138.25595,
      "geocoding_level": 3,
      "phone": "",
      "license_no": "第03167191号",
      "license_date": "2021-02-26",
      "expire_date": "2027-02-28"
    },
    {
      "name": "穀蔵",
      "name_kana": "",
      "business_type": "飲食店営業",
      "address": "上田市上野２３３８",
      "lat": 36.423052,
      "lng": 138.293933,
      "geocoding_level": 3,
      "phone": "",
      "license_no": "第03219527号",
      "license_date": "2021-02-26",
      "expire_date": "2027-02-28"
    },
    {
      "name": "やすらぎ",
      "name_kana": "",
      "business_type": "飲食店営業",
      "address": "上田市上田１６０－２",
      "lat": 36.423229,
      "lng": 138.259451,
      "geocoding_level": 3,
      "phone": "",
      "license_no": "第03187660号",
      "license_date": "2021-02-26",
      "expire_date": "2027-02-28"
    },
    {
      "name": "美づ乃江",
      "name_kana": "",
      "business_type": "飲食店営業",
      "address": "上田市中之条５３２－２",
      "lat": 36.397612,
      "lng": 138.227603,
      "geocoding_level": 3,
      "phone": "",
      "license_no": "第03188836号",
      "license_date": "2021-02-26",
      "expire_date": "2027-02-28"
    },
    {
      "name": "鳥花",
      "name_kana": "",
      "business_type": "飲食店営業",
      "address": "上田市諏訪形９７３－７",
      "lat": 36.380535,
      "lng": 138.239824,
      "geocoding_level": 3,
      "phone": "",
      "license_no": "第03218717号",
      "license_date": "2021-02-26",
      "expire_date": "2027-02-28"
    },
    {
      "name": "居酒や　一八",
      "name_kana": "",
      "business_type": "飲食店営業",
      "address": "上田市中央西２－１０－２５",
      "lat": 36.40906935,
      "lng": 138.247782692,
      "geocoding_level": 8,
      "phone": "",
      "license_no": "第03220215号",
      "license_date": "2021-02-26",
      "expire_date": "2027-02-28"
    },
    {
      "name": "アイ・マート秋和店　立喰そば屋",
      "name_kana": "",
      "business_type": "飲食店営業",
      "address": "上田市秋和宿在家１９４－９",
      "lat": 36.419796,
      "lng": 138.229906,
      "geocoding_level": 3,
      "phone": "",
      "license_no": "第03220222号",
      "license_date": "2021-02-26",
      "expire_date": "2027-02-28"
    },
    {
      "name": "雷ラーメン",
      "name_kana": "",
      "business_type": "飲食店営業",
      "address": "上田市古里２００７－４",
      "lat": 36.394406,
      "lng": 138.280547,
      "geocoding_level": 3,
      "phone": "",
      "license_no": "第03220553号",
      "license_date": "2021-02-26",
      "expire_date": "2027-02-28"
    },
    {
      "name": "三六家",
      "name_kana": "",
      "business_type": "飲食店営業",
      "address": "上田市中之条３０７－１",
      "lat": 36.397612,
      "lng": 138.227603,
      "geocoding_level": 3,
      "phone": "",
      "license_no": "第03242928号",
      "license_date": "2021-02-26",
      "expire_date": "2028-01-31"
    },
    {
      "name": "茶屋草木万里野",
      "name_kana": "",
      "business_type": "飲食店営業",
      "address": "上田市住吉道前２９１－１、２９１－１５",
      "lat": 36.421353,
      "lng": 138.280062,
      "geocoding_level": 3,
      "phone": "",
      "license_no": "第03243161号",
      "license_date": "2021-02-26",
      "expire_date": "2027-02-28"
    },
    {
      "name": "サービス付き高齢者向け住宅　やさしえよしだ",
      "name_kana": "",
      "business_type": "飲食店営業",
      "address": "上田市芳田１４６３－１２",
      "lat": 36.391356,
      "lng": 138.30925800000003,
      "geocoding_level": 3,
      "phone": "",
      "license_no": "第03243364号",
      "license_date": "2021-02-26",
      "expire_date": "2027-02-28"
    },
    {
      "name": "魚の海宝丸",
      "name_kana": "",
      "business_type": "魚介類販売業",
      "address": "上田市中之条３９０－２ダイレックス中之条店内",
      "lat": 36.397612,
      "lng": 138.227603,
      "geocoding_level": 3,
      "phone": "",
      "license_no": "第03245081号",
      "license_date": "2021-02-26",
      "expire_date": "2027-02-28"
    },
    {
      "name": "魚の海宝丸",
      "name_kana": "",
      "business_type": "飲食店営業",
      "address": "上田市中之条３９０－２ダイレックス中之条店内",
      "lat": 36.397612,
      "lng": 138.227603,
      "geocoding_level": 3,
      "phone": "",
      "license_no": "第03245073号",
      "license_date": "2021-02-26",
      "expire_date": "2027-02-28"
    },
    {
      "name": "真田庵",
      "name_kana": "",
      "business_type": "飲食店営業",
      "address": "上田市真田町本原２９８４－１",
      "lat": 36.431430661,
      "lng": 138.318548845,
      "geocoding_level": 8,
      "phone": "",
      "license_no": "第03263451号",
      "license_date": "2020-07-31",
      "expire_date": "2026-07-31"
    },
    {
      "name": "すし割烹　浜勢",
      "name_kana": "",
      "business_type": "飲食店営業",
      "address": "上田市武石沖６６９－２",
      "lat": 36.300744318,
      "lng": 138.24966477,
      "geocoding_level": 8,
      "phone": "",
      "license_no": "第03264910号",
      "license_date": "2021-03-12",
      "expire_date": "2027-05-31"
    },
    {
      "name": "ＭＯＳＣＯ（モスコ）",
      "name_kana": "",
      "business_type": "飲食店営業",
      "address": "上田市中央２－８－１０　水野ビル２Ｆ",
      "lat": 36.400197811,
      "lng": 138.253705647,
      "geocoding_level": 8,
      "phone": "",
      "license_no": "第03220012号",
      "license_date": "2021-02-26",
      "expire_date": "2027-02-28"
    },
    {
      "name": "ＴＱ",
      "name_kana": "",
      "business_type": "飲食店営業",
      "address": "上田市中央１－９－４",
      "lat": 36.397456344,
      "lng": 138.253827986,
      "geocoding_level": 8,
      "phone": "",
      "license_no": "第03263686号",
      "license_date": "2020-09-11",
      "expire_date": "2026-12-31"
    },
    {
      "name": "中華料理夢園",
      "name_kana": "",
      "business_type": "飲食店営業",
      "address": "上田市平井４００－１",
      "lat": 36.297107,
      "lng": 138.17549,
      "geocoding_level": 3,
      "phone": "",
      "license_no": "第03264959号",
      "license_date": "2021-03-19",
      "expire_date": "2027-08-31"
    },
    {
      "name": "世界のからあげ研究所",
      "name_kana": "",
      "business_type": "食肉販売業",
      "address": "上田市古安曽３３４３－３",
      "lat": 36.335579,
      "lng": 138.213636,
      "geocoding_level": 3,
      "phone": "",
      "license_no": "第03265018号",
      "license_date": "2021-03-19",
      "expire_date": "2027-05-31"
    },
    {
      "name": "ワルンジュン",
      "name_kana": "",
      "business_type": "飲食店営業",
      "address": "上田市菅平高原１２３８",
      "lat": 36.523527,
      "lng": 138.33082,
      "geocoding_level": 3,
      "phone": "",
      "license_no": "第03215685号",
      "license_date": "2020-07-31",
      "expire_date": "2026-07-31"
    },
    {
      "name": "ポムの樹　アリオ上田店",
      "name_kana": "",
      "business_type": "飲食店営業",
      "address": "上田市天神３－５－１ アリオ上田１Ｆ",
      "lat": 36.400319,
      "lng": 138.241204,
      "geocoding_level": 3,
      "phone": "",
      "license_no": "第03265071号",
      "license_date": "2021-03-26",
      "expire_date": "2027-12-31"
    },
    {
      "name": "スナック　ねぶた",
      "name_kana": "",
      "business_type": "飲食店営業",
      "address": "上田市天神１－６－３",
      "lat": 36.397520097,
      "lng": 138.249450364,
      "geocoding_level": 8,
      "phone": "",
      "license_no": "第03265096号",
      "license_date": "2021-03-26",
      "expire_date": "2027-05-31"
    },
    {
      "name": "信州上田医療センター売店",
      "name_kana": "",
      "business_type": "飲食店営業",
      "address": "上田市 緑ヶ丘１－２７－２１",
      "lat": 36.41270445,
      "lng": 138.249992236,
      "geocoding_level": 8,
      "phone": "",
      "license_no": "第03265146号",
      "license_date": "2021-03-31",
      "expire_date": "2026-05-31"
    },
    {
      "name": "喫茶キミック",
      "name_kana": "",
      "business_type": "飲食店営業",
      "address": "上田市真田町本原１１３７",
      "lat": 36.428513,
      "lng": 138.340888,
      "geocoding_level": 3,
      "phone": "",
      "license_no": "第03265267号",
      "license_date": "2021-04-05",
      "expire_date": "2026-07-31"
    },
    {
      "name": "スナック　チューリップ",
      "name_kana": "",
      "business_type": "飲食店営業",
      "address": "上田市中央３－１１－７ 七賢人ビル２Ｆ",
      "lat": 36.400735675,
      "lng": 138.255344833,
      "geocoding_level": 8,
      "phone": "",
      "license_no": "第03265250号",
      "license_date": "2021-04-01",
      "expire_date": "2027-01-31"
    },
    {
      "name": "カフェ　エピス",
      "name_kana": "",
      "business_type": "飲食店営業",
      "address": "上田市古安曽２０３７",
      "lat": 36.335579,
      "lng": 138.213636,
      "geocoding_level": 3,
      "phone": "",
      "license_no": "第03265299号",
      "license_date": "2021-04-09",
      "expire_date": "2027-05-31"
    },
    {
      "name": "さあん",
      "name_kana": "",
      "business_type": "飲食店営業",
      "address": "上田市真田町長７１４１－１",
      "lat": 36.443376568,
      "lng": 138.305933509,
      "geocoding_level": 8,
      "phone": "",
      "license_no": "第03265421号",
      "license_date": "2021-04-26",
      "expire_date": "2027-07-31"
    },
    {
      "name": "やさしん",
      "name_kana": "",
      "business_type": "飲食店営業",
      "address": "上田市常田２丁目２７－３２",
      "lat": 36.395460756,
      "lng": 138.259120575,
      "geocoding_level": 8,
      "phone": "",
      "license_no": "第03265510号",
      "license_date": "2021-04-30",
      "expire_date": "2027-05-31"
    },
    {
      "name": "喜三郎",
      "name_kana": "",
      "business_type": "飲食店営業",
      "address": "上田市本郷９２４－１",
      "lat": 36.366781,
      "lng": 138.202194,
      "geocoding_level": 3,
      "phone": "",
      "license_no": "第03265566号",
      "license_date": "2021-05-14",
      "expire_date": "2028-01-31"
    },
    {
      "name": "ヤマザキショップ　上田市役所店",
      "name_kana": "",
      "business_type": "喫茶店営業",
      "address": "上田市大手一丁目１１－１６",
      "lat": 36.402195481,
      "lng": 138.249172244,
      "geocoding_level": 8,
      "phone": "",
      "license_no": "第03265581号",
      "license_date": "2021-05-14",
      "expire_date": "2026-05-31"
    },
    {
      "name": "信越明星（株）",
      "name_kana": "",
      "business_type": "食品の冷凍または冷蔵業",
      "address": "上田市秋和９４２",
      "lat": 36.419796,
      "lng": 138.229906,
      "geocoding_level": 3,
      "phone": "",
      "license_no": "第03156404号",
      "license_date": "2021-04-30",
      "expire_date": "2028-04-30"
    },
    {
      "name": "ムーバス",
      "name_kana": "",
      "business_type": "飲食店営業",
      "address": "上田市神畑１４２－１",
      "lat": 36.382536,
      "lng": 138.216234,
      "geocoding_level": 3,
      "phone": "",
      "license_no": "第03187232号",
      "license_date": "2021-04-30",
      "expire_date": "2027-04-30"
    },
    {
      "name": "わらじや",
      "name_kana": "",
      "business_type": "飲食店営業",
      "address": "上田市上田原８５５－１",
      "lat": 36.389149,
      "lng": 138.22331400000002,
      "geocoding_level": 3,
      "phone": "",
      "license_no": "第03189490号",
      "license_date": "2021-04-30",
      "expire_date": "2027-04-30"
    },
    {
      "name": "Ｒ（あーる）",
      "name_kana": "",
      "business_type": "飲食店営業",
      "address": "上田市中央３－１３－４新柳ビル１Ｆ",
      "lat": 36.401335739,
      "lng": 138.254892925,
      "geocoding_level": 8,
      "phone": "",
      "license_no": "第03219687号",
      "license_date": "2021-04-30",
      "expire_date": "2027-04-30"
    },
    {
      "name": "お食事処　味のバビ亭",
      "name_kana": "",
      "business_type": "飲食店営業",
      "address": "上田市神畑２２５－２",
      "lat": 36.382536,
      "lng": 138.216234,
      "geocoding_level": 3,
      "phone": "",
      "license_no": "第03219783号",
      "license_date": "2021-04-30",
      "expire_date": "2027-04-30"
    },
    {
      "name": "そばの蔵　にのくち",
      "name_kana": "",
      "business_type": "飲食店営業",
      "address": "上田市上田原８５４－６",
      "lat": 36.389149,
      "lng": 138.22331400000002,
      "geocoding_level": 3,
      "phone": "",
      "license_no": "第03219961号",
      "license_date": "2021-04-30",
      "expire_date": "2027-04-30"
    },
    {
      "name": "寿司の味よし",
      "name_kana": "",
      "business_type": "飲食店営業",
      "address": "上田市中之条５８１－１",
      "lat": 36.397612,
      "lng": 138.227603,
      "geocoding_level": 3,
      "phone": "",
      "license_no": "第03220005号",
      "license_date": "2021-04-30",
      "expire_date": "2027-04-30"
    },
    {
      "name": "自家製麺　寿分（じゅぷん）",
      "name_kana": "",
      "business_type": "飲食店営業",
      "address": "上田市吉田２６６－１ウエスタンビル１０２",
      "lat": 36.384902,
      "lng": 138.198189,
      "geocoding_level": 3,
      "phone": "",
      "license_no": "第03220329号",
      "license_date": "2021-04-30",
      "expire_date": "2027-04-30"
    },
    {
      "name": "丸木屋",
      "name_kana": "",
      "business_type": "飲食店営業",
      "address": "上田市上田原五反田７４２－７",
      "lat": 36.389149,
      "lng": 138.22331400000002,
      "geocoding_level": 3,
      "phone": "",
      "license_no": "第03220578号",
      "license_date": "2021-04-30",
      "expire_date": "2027-04-30"
    },
    {
      "name": "菅平高原ホテル柄澤",
      "name_kana": "",
      "business_type": "飲食店営業",
      "address": "上田市菅平高原１２７８",
      "lat": 36.523527,
      "lng": 138.33082,
      "geocoding_level": 3,
      "phone": "",
      "license_no": "第03042307号",
      "license_date": "2019-07-31",
      "expire_date": "2026-07-31"
    },
    {
      "name": "信州上田医療センター",
      "name_kana": "",
      "business_type": "飲食店営業",
      "address": "上田市緑が丘１－２７－２１",
      "lat": 36.41270445,
      "lng": 138.249992236,
      "geocoding_level": 8,
      "phone": "",
      "license_no": "第03265623号",
      "license_date": "2021-05-28",
      "expire_date": "2027-05-31"
    },
    {
      "name": "酒　栄屋　別所店",
      "name_kana": "",
      "business_type": "飲食店営業",
      "address": "上田市別所温泉１６２４－２",
      "lat": 36.347558,
      "lng": 138.146506,
      "geocoding_level": 3,
      "phone": "",
      "license_no": "第03265648号",
      "license_date": "2021-05-28",
      "expire_date": "2027-05-31"
    },
    {
      "name": "望山亭　ことぶき",
      "name_kana": "",
      "business_type": "飲食店営業",
      "address": "上田市鹿教湯温泉１４４７",
      "lat": 36.283624,
      "lng": 138.101095,
      "geocoding_level": 3,
      "phone": "",
      "license_no": "第03151452号",
      "license_date": "2020-08-31",
      "expire_date": "2026-08-31"
    },
    {
      "name": "常楽寺　梅楽苑",
      "name_kana": "",
      "business_type": "飲食店営業",
      "address": "上田市別所温泉２３４７",
      "lat": 36.347558,
      "lng": 138.146506,
      "geocoding_level": 3,
      "phone": "",
      "license_no": "第03155875号",
      "license_date": "2021-05-31",
      "expire_date": "2026-05-31"
    },
    {
      "name": "ツルヤ塩田店",
      "name_kana": "",
      "business_type": "食肉販売業",
      "address": "上田市保野７５１－２",
      "lat": 36.37487,
      "lng": 138.19613100000004,
      "geocoding_level": 3,
      "phone": "",
      "license_no": "第03165403号",
      "license_date": "2021-05-31",
      "expire_date": "2027-05-31"
    },
    {
      "name": "イルボスキーノ",
      "name_kana": "",
      "business_type": "飲食店営業",
      "address": "上田市上野１３０８－２",
      "lat": 36.423052,
      "lng": 138.293933,
      "geocoding_level": 3,
      "phone": "",
      "license_no": "第03189361号",
      "license_date": "2021-05-31",
      "expire_date": "2027-05-31"
    },
    {
      "name": "酒場　壱福",
      "name_kana": "",
      "business_type": "飲食店営業",
      "address": "上田市別所温泉１５０",
      "lat": 36.347558,
      "lng": 138.146506,
      "geocoding_level": 3,
      "phone": "",
      "license_no": "第03217782号",
      "license_date": "2021-05-31",
      "expire_date": "2027-05-31"
    },
    {
      "name": "小幸酒彩　しん",
      "name_kana": "",
      "business_type": "飲食店営業",
      "address": "上田市中央２－４－１２　１Ｆ",
      "lat": 36.400836744,
      "lng": 138.252792197,
      "geocoding_level": 8,
      "phone": "",
      "license_no": "第03246232号",
      "license_date": "2021-05-31",
      "expire_date": "2027-05-31"
    },
    {
      "name": "コナコナ",
      "name_kana": "",
      "business_type": "菓子製造業",
      "address": "上田市緑が丘１－２１－２３",
      "lat": 36.413003825,
      "lng": 138.248026986,
      "geocoding_level": 8,
      "phone": "",
      "license_no": "第03246887号",
      "license_date": "2021-05-31",
      "expire_date": "2027-05-31"
    },
    {
      "name": "西塩田地区営農活性化推進組合　女性部",
      "name_kana": "",
      "business_type": "麺類製造業",
      "address": "上田市新町１４４－１",
      "lat": 36.353414,
      "lng": 138.187292,
      "geocoding_level": 3,
      "phone": "",
      "license_no": "第03247124号",
      "license_date": "2021-05-31",
      "expire_date": "2027-05-31"
    },
    {
      "name": "吉野家　１８号線上田国分店",
      "name_kana": "",
      "business_type": "飲食店営業",
      "address": "上田市国分１丁目９６２－１",
      "lat": 36.385082,
      "lng": 138.264734,
      "geocoding_level": 3,
      "phone": "",
      "license_no": "第03242561号",
      "license_date": "2020-11-30",
      "expire_date": "2026-11-30"
    },
    {
      "name": "（有）シナノテック　シュクルリール洋菓子店",
      "name_kana": "",
      "business_type": "菓子製造業",
      "address": "上田市吉田３２８番地１９",
      "lat": 36.384902,
      "lng": 138.198189,
      "geocoding_level": 3,
      "phone": "",
      "license_no": "第03265064号",
      "license_date": "2021-03-26",
      "expire_date": "2027-04-30"
    },
    {
      "name": "橋本屋食堂",
      "name_kana": "",
      "business_type": "飲食店営業",
      "address": "上田市別所温泉１７２１",
      "lat": 36.347558,
      "lng": 138.146506,
      "geocoding_level": 3,
      "phone": "",
      "license_no": "第03188124号",
      "license_date": "2021-05-31",
      "expire_date": "2027-05-31"
    },
    {
      "name": "山蕗",
      "name_kana": "",
      "business_type": "飲食店営業",
      "address": "上田市越戸３１８",
      "lat": 36.364394,
      "lng": 138.157935,
      "geocoding_level": 3,
      "phone": "",
      "license_no": "第03150497号",
      "license_date": "2020-06-30",
      "expire_date": "2026-06-30"
    },
    {
      "name": "牛角　国分店",
      "name_kana": "",
      "business_type": "飲食店営業",
      "address": "上田市国分１２４８－５",
      "lat": 36.381919,
      "lng": 138.274084,
      "geocoding_level": 3,
      "phone": "",
      "license_no": "第03264158号",
      "license_date": "2020-11-13",
      "expire_date": "2026-11-30"
    },
    {
      "name": "株式会社　ずくだせ農場",
      "name_kana": "",
      "business_type": "清涼飲料水製造業",
      "address": "上田市富士山３２３２",
      "lat": 36.341773,
      "lng": 138.238494,
      "geocoding_level": 3,
      "phone": "",
      "license_no": "第03249311号",
      "license_date": "2021-05-31",
      "expire_date": "2026-05-31"
    },
    {
      "name": "株式会社　ずくだせ農場",
      "name_kana": "",
      "business_type": "菓子製造業",
      "address": "上田市富士山３２３２",
      "lat": 36.341773,
      "lng": 138.238494,
      "geocoding_level": 3,
      "phone": "",
      "license_no": "第03249328号",
      "license_date": "2021-05-31",
      "expire_date": "2026-05-31"
    },
    {
      "name": "長寿園食堂",
      "name_kana": "",
      "business_type": "飲食店営業",
      "address": "上田市別所温泉１８２８－２",
      "lat": 36.347558,
      "lng": 138.146506,
      "geocoding_level": 3,
      "phone": "",
      "license_no": "第03185174号",
      "license_date": "2020-05-29",
      "expire_date": "2026-05-31"
    },
    {
      "name": "パーラー　バビデ　上田西店",
      "name_kana": "",
      "business_type": "喫茶店営業",
      "address": "上田市神畑２２５－２",
      "lat": 36.382536,
      "lng": 138.216234,
      "geocoding_level": 3,
      "phone": "",
      "license_no": "第03265300号",
      "license_date": "2021-04-09",
      "expire_date": "2026-06-30"
    },
    {
      "name": "パブ　メダム",
      "name_kana": "",
      "business_type": "飲食店営業",
      "address": "上田市上丸子１７０６－１",
      "lat": 36.319171,
      "lng": 138.277385,
      "geocoding_level": 3,
      "phone": "",
      "license_no": "第03125686号",
      "license_date": "2020-08-31",
      "expire_date": "2026-08-31"
    },
    {
      "name": "Ｓｕｐｅｒ　Ｐｉｇ",
      "name_kana": "",
      "business_type": "飲食店営業",
      "address": "上田市中央２丁目１１の９ 新新ビル１Ｆ",
      "lat": 36.400116383,
      "lng": 138.255173022,
      "geocoding_level": 8,
      "phone": "",
      "license_no": "第03263387号",
      "license_date": "2020-07-29",
      "expire_date": "2026-10-31"
    },
    {
      "name": "香青軒",
      "name_kana": "",
      "business_type": "飲食店営業",
      "address": "上田市中央３丁目１２－１",
      "lat": 36.400989372,
      "lng": 138.255040647,
      "geocoding_level": 8,
      "phone": "",
      "license_no": "第03027262号",
      "license_date": "2019-10-31",
      "expire_date": "2027-01-31"
    },
    {
      "name": "真田ＫＯＡ株式会社　真田の郷社員レストラン",
      "name_kana": "",
      "business_type": "飲食店営業",
      "address": "上田市真田町長５６６８－６",
      "lat": 36.492018,
      "lng": 138.374519,
      "geocoding_level": 3,
      "phone": "",
      "license_no": "第03240709号",
      "license_date": "2020-07-31",
      "expire_date": "2026-07-31"
    },
    {
      "name": "クラブハウス　サングリーン",
      "name_kana": "",
      "business_type": "飲食店営業",
      "address": "上田市菅平高原１２４４－５",
      "lat": 36.523527,
      "lng": 138.33082,
      "geocoding_level": 3,
      "phone": "",
      "license_no": "第03151784号",
      "license_date": "2020-07-31",
      "expire_date": "2026-07-31"
    },
    {
      "name": "Ｄｉｎｉｎｇ　Ｂａｒ　ＬＩＡＲ",
      "name_kana": "",
      "business_type": "飲食店営業",
      "address": "上田市中央３－１１－１ 宝来ビル２F",
      "lat": 36.400566281,
      "lng": 138.254720108,
      "geocoding_level": 8,
      "phone": "",
      "license_no": "第03265534号",
      "license_date": "2021-05-14",
      "expire_date": "2027-10-31"
    },
    {
      "name": "CM　INTERNATIONALFOOD　SHOP株式会社",
      "name_kana": "",
      "business_type": "飲食店営業",
      "address": "上田市材木町２丁目１２番６号",
      "lat": 36.395027039,
      "lng": 138.266077378,
      "geocoding_level": 8,
      "phone": "",
      "license_no": "第03264628号",
      "license_date": "2021-01-22",
      "expire_date": "2027-04-30"
    },
    {
      "name": "ヴェルソア",
      "name_kana": "",
      "business_type": "飲食店営業",
      "address": "上田市菅平高原１２７８－４５８",
      "lat": 36.523527,
      "lng": 138.33082,
      "geocoding_level": 3,
      "phone": "",
      "license_no": "第03043409号",
      "license_date": "2019-07-31",
      "expire_date": "2026-07-31"
    },
    {
      "name": "パン工房パリッシュ",
      "name_kana": "",
      "business_type": "菓子製造業",
      "address": "上田市中央西１－３－３３",
      "lat": 36.405760083,
      "lng": 138.247656597,
      "geocoding_level": 8,
      "phone": "",
      "license_no": "第03186696号",
      "license_date": "2020-12-28",
      "expire_date": "2026-12-31"
    },
    {
      "name": "パン工房パリッシュ",
      "name_kana": "",
      "business_type": "飲食店営業",
      "address": "上田市中央西１－３－３３",
      "lat": 36.405760083,
      "lng": 138.247656597,
      "geocoding_level": 8,
      "phone": "",
      "license_no": "第03186689号",
      "license_date": "2020-12-28",
      "expire_date": "2026-12-31"
    },
    {
      "name": "焼きたて屋　ＡＢＦ－ＳＫＰ２ＴＮ",
      "name_kana": "",
      "business_type": "菓子製造業",
      "address": "上田市国分８０",
      "lat": 36.381919,
      "lng": 138.274084,
      "geocoding_level": 3,
      "phone": "",
      "license_no": "第03263985号",
      "license_date": "2020-10-16",
      "expire_date": "2026-05-31"
    },
    {
      "name": "上田温泉　祥園　寿久庵",
      "name_kana": "",
      "business_type": "飲食店営業",
      "address": "上田市大手１－１－８４",
      "lat": 36.399002469,
      "lng": 138.24992655800003,
      "geocoding_level": 8,
      "phone": "",
      "license_no": "第03217840号",
      "license_date": "2020-11-30",
      "expire_date": "2026-11-30"
    },
    {
      "name": "川東セレモニー　虹のホール",
      "name_kana": "",
      "business_type": "飲食店営業",
      "address": "上田市古里４７－２",
      "lat": 36.394406,
      "lng": 138.280547,
      "geocoding_level": 3,
      "phone": "",
      "license_no": "第03175372号",
      "license_date": "2021-02-26",
      "expire_date": "2028-02-29"
    },
    {
      "name": "御菓子司　青柳菓子舗",
      "name_kana": "",
      "business_type": "菓子製造業",
      "address": "上田市藤原田６１２－１０",
      "lat": 36.330093016,
      "lng": 138.301254125,
      "geocoding_level": 8,
      "phone": "",
      "license_no": "第03187474号",
      "license_date": "2020-08-31",
      "expire_date": "2026-08-31"
    },
    {
      "name": "七草の湯",
      "name_kana": "",
      "business_type": "飲食店営業",
      "address": "上田市別所温泉１６２１",
      "lat": 36.347558,
      "lng": 138.146506,
      "geocoding_level": 3,
      "phone": "",
      "license_no": "第03173791号",
      "license_date": "2020-05-29",
      "expire_date": "2027-05-31"
    },
    {
      "name": "七草の湯",
      "name_kana": "",
      "business_type": "飲食店営業",
      "address": "上田市別所温泉１６２１",
      "lat": 36.347558,
      "lng": 138.146506,
      "geocoding_level": 3,
      "phone": "",
      "license_no": "第03173784号",
      "license_date": "2020-05-29",
      "expire_date": "2027-05-31"
    },
    {
      "name": "スナックレインボー",
      "name_kana": "",
      "business_type": "飲食店営業",
      "address": "上田市中央３－１１－３ 田中ビル３Ｆ",
      "lat": 36.400790111,
      "lng": 138.25488855,
      "geocoding_level": 8,
      "phone": "",
      "license_no": "第03263871号",
      "license_date": "2020-10-09",
      "expire_date": "2026-10-31"
    },
    {
      "name": "菅平高原温泉ホテル",
      "name_kana": "",
      "business_type": "飲食店営業",
      "address": "上田市菅平高原１２２３－１９６９",
      "lat": 36.523527,
      "lng": 138.33082,
      "geocoding_level": 3,
      "phone": "",
      "license_no": "第03115812号",
      "license_date": "2019-07-31",
      "expire_date": "2026-07-31"
    },
    {
      "name": "（有）ピエール",
      "name_kana": "",
      "business_type": "菓子製造業",
      "address": "上田市常田３－１－２０",
      "lat": 36.398084539,
      "lng": 138.259610808,
      "geocoding_level": 8,
      "phone": "",
      "license_no": "第03125055号",
      "license_date": "2020-12-28",
      "expire_date": "2026-12-31"
    },
    {
      "name": "花結び",
      "name_kana": "",
      "business_type": "飲食店営業",
      "address": "上田市別所温泉１６９番地",
      "lat": 36.347558,
      "lng": 138.146506,
      "geocoding_level": 3,
      "phone": "",
      "license_no": "第03264592号",
      "license_date": "2021-01-20",
      "expire_date": "2027-05-31"
    },
    {
      "name": "千本桜",
      "name_kana": "",
      "business_type": "飲食店営業",
      "address": "上田市大手２－８－４",
      "lat": 36.402810431,
      "lng": 138.247136247,
      "geocoding_level": 8,
      "phone": "",
      "license_no": "第03265089号",
      "license_date": "2021-03-26",
      "expire_date": "2027-05-31"
    },
    {
      "name": "メフォス東日本　１０４７４　号店",
      "name_kana": "",
      "business_type": "飲食店営業",
      "address": "上田市住吉１４１８－６",
      "lat": 36.421353,
      "lng": 138.280062,
      "geocoding_level": 3,
      "phone": "",
      "license_no": "第03262513号",
      "license_date": "2020-03-30",
      "expire_date": "2027-02-28"
    },
    {
      "name": "１．２．３",
      "name_kana": "",
      "business_type": "飲食店営業",
      "address": "上田市中央３－１３－３－３Ｆ",
      "lat": 36.402401,
      "lng": 138.2541,
      "geocoding_level": 3,
      "phone": "",
      "license_no": "第03217144号",
      "license_date": "2020-10-30",
      "expire_date": "2026-10-31"
    },
    {
      "name": "快活ＣＬＵＢ上田バイパス店",
      "name_kana": "",
      "business_type": "飲食店営業",
      "address": "上田市住吉２４２－１",
      "lat": 36.421353,
      "lng": 138.280062,
      "geocoding_level": 3,
      "phone": "",
      "license_no": "第03218642号",
      "license_date": "2021-02-26",
      "expire_date": "2027-02-28"
    },
    {
      "name": "信越明星株式会社　下塩尻工場　第二工場",
      "name_kana": "",
      "business_type": "麺類製造業",
      "address": "上田市下塩尻１６８９－３",
      "lat": 36.418269,
      "lng": 138.20172,
      "geocoding_level": 3,
      "phone": "",
      "license_no": "第03258244号",
      "license_date": "2018-09-07",
      "expire_date": "2026-11-30"
    },
    {
      "name": "信越明星（株）下塩尻工場",
      "name_kana": "",
      "business_type": "麺類製造業",
      "address": "上田市下塩尻１６８９－３",
      "lat": 36.418269,
      "lng": 138.20172,
      "geocoding_level": 3,
      "phone": "",
      "license_no": "第03244719号",
      "license_date": "2020-11-30",
      "expire_date": "2026-11-30"
    },
    {
      "name": "信越明星（株）下塩尻工場",
      "name_kana": "",
      "business_type": "食品の冷凍または冷蔵業",
      "address": "上田市下塩尻１６８９－３",
      "lat": 36.418269,
      "lng": 138.20172,
      "geocoding_level": 3,
      "phone": "",
      "license_no": "第03244726号",
      "license_date": "2020-11-30",
      "expire_date": "2026-11-30"
    },
    {
      "name": "信越明星株式会社　下塩尻工場　第二工場",
      "name_kana": "",
      "business_type": "そうざい製造業",
      "address": "上田市下塩尻１６８９－３",
      "lat": 36.418269,
      "lng": 138.20172,
      "geocoding_level": 3,
      "phone": "",
      "license_no": "第03258269号",
      "license_date": "2018-09-07",
      "expire_date": "2026-11-30"
    },
    {
      "name": "信越明星株式会社　下塩尻工場　第二工場",
      "name_kana": "",
      "business_type": "食品の冷凍または冷蔵業",
      "address": "上田市下塩尻１６８９－３",
      "lat": 36.418269,
      "lng": 138.20172,
      "geocoding_level": 3,
      "phone": "",
      "license_no": "第03258251号",
      "license_date": "2018-09-07",
      "expire_date": "2026-11-30"
    },
    {
      "name": "すき家　１８号上田材木店",
      "name_kana": "",
      "business_type": "飲食店営業",
      "address": "上田市材木町１－９－１６",
      "lat": 36.3989314,
      "lng": 138.264171314,
      "geocoding_level": 8,
      "phone": "",
      "license_no": "第03221089号",
      "license_date": "2021-04-30",
      "expire_date": "2027-04-30"
    },
    {
      "name": "マドレ　ミヤ",
      "name_kana": "",
      "business_type": "飲食店営業",
      "address": "上田市天神１－２－１",
      "lat": 36.396985483,
      "lng": 138.249434125,
      "geocoding_level": 8,
      "phone": "",
      "license_no": "第03264860号",
      "license_date": "2021-03-12",
      "expire_date": "2028-01-31"
    },
    {
      "name": "Ｋｉｔｃｈｅｎ　Ｃｒａｆｔ",
      "name_kana": "",
      "business_type": "飲食店営業",
      "address": "上田市仁古田５９１",
      "lat": 36.374012,
      "lng": 138.175419,
      "geocoding_level": 3,
      "phone": "",
      "license_no": "第03263615号",
      "license_date": "2020-09-01",
      "expire_date": "2027-06-30"
    },
    {
      "name": "（有）鳥元",
      "name_kana": "",
      "business_type": "飲食店営業",
      "address": "上田市御所１０６－１",
      "lat": 36.389806,
      "lng": 138.235462,
      "geocoding_level": 3,
      "phone": "",
      "license_no": "第03164640号",
      "license_date": "2021-02-26",
      "expire_date": "2027-02-28"
    },
    {
      "name": "ツルヤ塩田店",
      "name_kana": "",
      "business_type": "魚介類販売業",
      "address": "上田市保野７５１－２",
      "lat": 36.37487,
      "lng": 138.19613100000004,
      "geocoding_level": 3,
      "phone": "",
      "license_no": "第03165392号",
      "license_date": "2021-05-31",
      "expire_date": "2027-05-31"
    },
    {
      "name": "ツルヤ神畑店",
      "name_kana": "",
      "business_type": "魚介類販売業",
      "address": "上田市神畑７００－１",
      "lat": 36.382536,
      "lng": 138.216234,
      "geocoding_level": 3,
      "phone": "",
      "license_no": "第03243713号",
      "license_date": "2021-04-30",
      "expire_date": "2027-04-30"
    },
    {
      "name": "ツルヤ神畑店",
      "name_kana": "",
      "business_type": "飲食店営業",
      "address": "上田市神畑７００－１",
      "lat": 36.382536,
      "lng": 138.216234,
      "geocoding_level": 3,
      "phone": "",
      "license_no": "第03243695号",
      "license_date": "2021-04-30",
      "expire_date": "2027-04-30"
    },
    {
      "name": "ツルヤ神畑店",
      "name_kana": "",
      "business_type": "飲食店営業",
      "address": "上田市神畑７００－１",
      "lat": 36.382536,
      "lng": 138.216234,
      "geocoding_level": 3,
      "phone": "",
      "license_no": "第03243706号",
      "license_date": "2021-04-30",
      "expire_date": "2027-04-30"
    },
    {
      "name": "ツルヤ神畑店",
      "name_kana": "",
      "business_type": "菓子製造業",
      "address": "上田市神畑７００－１",
      "lat": 36.382536,
      "lng": 138.216234,
      "geocoding_level": 3,
      "phone": "",
      "license_no": "第03243738号",
      "license_date": "2021-04-30",
      "expire_date": "2027-04-30"
    },
    {
      "name": "中部フーズ秋和店",
      "name_kana": "",
      "business_type": "そうざい製造業",
      "address": "上田市上塩尻１６１－１",
      "lat": 36.41887400000001,
      "lng": 138.215827,
      "geocoding_level": 3,
      "phone": "",
      "license_no": "第03263469号",
      "license_date": "2020-07-31",
      "expire_date": "2026-11-30"
    },
    {
      "name": "１８０　ＣＯＦＦＥＥ　ＳＴＡＮＤ",
      "name_kana": "",
      "business_type": "飲食店営業",
      "address": "上田市新町１８２－８",
      "lat": 36.353414,
      "lng": 138.187292,
      "geocoding_level": 3,
      "phone": "",
      "license_no": "第03264279号",
      "license_date": "2020-11-27",
      "expire_date": "2027-05-31"
    },
    {
      "name": "Ａ・コープコアしおだ店",
      "name_kana": "",
      "business_type": "魚介類販売業",
      "address": "上田市中野６４－１",
      "lat": 36.363408,
      "lng": 138.194128,
      "geocoding_level": 3,
      "phone": "",
      "license_no": "第03246442号",
      "license_date": "2021-05-31",
      "expire_date": "2027-05-31"
    },
    {
      "name": "マクドナルド　上田バイパス店",
      "name_kana": "",
      "business_type": "飲食店営業",
      "address": "上田市上田馬飼免１８４０－１",
      "lat": 36.423229,
      "lng": 138.259451,
      "geocoding_level": 3,
      "phone": "",
      "license_no": "第03219281号",
      "license_date": "2021-02-26",
      "expire_date": "2027-02-28"
    },
    {
      "name": "マクドナルド　上田バイパス店",
      "name_kana": "",
      "business_type": "アイスクリーム類製造業",
      "address": "上田市上田馬飼免１８４０－１",
      "lat": 36.423229,
      "lng": 138.259451,
      "geocoding_level": 3,
      "phone": "",
      "license_no": "第03219317号",
      "license_date": "2021-02-26",
      "expire_date": "2027-02-28"
    },
    {
      "name": "マクドナルド　上田バイパス店",
      "name_kana": "",
      "business_type": "菓子製造業",
      "address": "上田市上田馬飼免１８４０－１",
      "lat": 36.423229,
      "lng": 138.259451,
      "geocoding_level": 3,
      "phone": "",
      "license_no": "第03219299号",
      "license_date": "2021-02-26",
      "expire_date": "2027-02-28"
    },
    {
      "name": "ＨＡＲＡＤＡ・ＳＨＯＴＥＮ　合同会社",
      "name_kana": "",
      "business_type": "菓子製造業",
      "address": "上田市下之条４２ （株）科の木内",
      "lat": 36.402084,
      "lng": 138.214971,
      "geocoding_level": 3,
      "phone": "",
      "license_no": "第03265573号",
      "license_date": "2021-05-14",
      "expire_date": "2028-04-30"
    },
    {
      "name": "（株）やおふく　古里店",
      "name_kana": "",
      "business_type": "飲食店営業",
      "address": "上田市古里９６－１",
      "lat": 36.394406,
      "lng": 138.280547,
      "geocoding_level": 3,
      "phone": "",
      "license_no": "第03171210号",
      "license_date": "2020-01-31",
      "expire_date": "2027-01-31"
    },
    {
      "name": "（株）やおふく　古里店",
      "name_kana": "",
      "business_type": "飲食店営業",
      "address": "上田市古里９６－１",
      "lat": 36.394406,
      "lng": 138.280547,
      "geocoding_level": 3,
      "phone": "",
      "license_no": "第03171227号",
      "license_date": "2020-01-31",
      "expire_date": "2027-01-31"
    },
    {
      "name": "（株）やおふく　古里店",
      "name_kana": "",
      "business_type": "魚介類販売業",
      "address": "上田市古里９６－１",
      "lat": 36.394406,
      "lng": 138.280547,
      "geocoding_level": 3,
      "phone": "",
      "license_no": "第03171241号",
      "license_date": "2020-01-31",
      "expire_date": "2027-01-31"
    },
    {
      "name": "（株）やおふく　古里店",
      "name_kana": "",
      "business_type": "食肉販売業",
      "address": "上田市古里９６－１",
      "lat": 36.394406,
      "lng": 138.280547,
      "geocoding_level": 3,
      "phone": "",
      "license_no": "第03171234号",
      "license_date": "2020-01-31",
      "expire_date": "2027-01-31"
    },
    {
      "name": "ツルヤ山口店",
      "name_kana": "",
      "business_type": "喫茶店営業",
      "address": "上田市上田１２２１－１",
      "lat": 36.423229,
      "lng": 138.259451,
      "geocoding_level": 3,
      "phone": "",
      "license_no": "第03265356号",
      "license_date": "2021-04-16",
      "expire_date": "2027-02-28"
    },
    {
      "name": "タリーズコーヒー　上田大屋店",
      "name_kana": "",
      "business_type": "飲食店営業",
      "address": "上田市大屋２１９－５",
      "lat": 36.371961,
      "lng": 138.293643,
      "geocoding_level": 3,
      "phone": "",
      "license_no": "第03242343号",
      "license_date": "2020-11-30",
      "expire_date": "2026-11-30"
    },
    {
      "name": "仁古田食堂",
      "name_kana": "",
      "business_type": "飲食店営業",
      "address": "上田市仁古田６０２－１",
      "lat": 36.374012,
      "lng": 138.175419,
      "geocoding_level": 3,
      "phone": "",
      "license_no": "第03263355号",
      "license_date": "2020-07-20",
      "expire_date": "2027-06-30"
    },
    {
      "name": "重澤珈琲",
      "name_kana": "",
      "business_type": "飲食店営業",
      "address": "上田市中央２－１２－３０",
      "lat": 36.399324933,
      "lng": 138.253632219,
      "geocoding_level": 8,
      "phone": "",
      "license_no": "第03263978号",
      "license_date": "2020-10-16",
      "expire_date": "2026-10-31"
    },
    {
      "name": "エベレスト",
      "name_kana": "",
      "business_type": "飲食店営業",
      "address": "上田市上田原８９８－２",
      "lat": 36.389149,
      "lng": 138.22331400000002,
      "geocoding_level": 3,
      "phone": "",
      "license_no": "第03243881号",
      "license_date": "2021-02-26",
      "expire_date": "2027-02-28"
    },
    {
      "name": "まごころ弁当　上田店",
      "name_kana": "",
      "business_type": "飲食店営業",
      "address": "上田市上田原１２８２－１５",
      "lat": 36.389149,
      "lng": 138.22331400000002,
      "geocoding_level": 3,
      "phone": "",
      "license_no": "第03264286号",
      "license_date": "2020-11-27",
      "expire_date": "2027-02-28"
    },
    {
      "name": "遊民",
      "name_kana": "",
      "business_type": "飲食店営業",
      "address": "上田市中央３－１１－２１ 中村ビル１F",
      "lat": 36.400314656,
      "lng": 138.25506452200003,
      "geocoding_level": 8,
      "phone": "",
      "license_no": "第03265527号",
      "license_date": "2021-05-07",
      "expire_date": "2027-01-31"
    },
    {
      "name": "ツルヤ塩田店",
      "name_kana": "",
      "business_type": "飲食店営業",
      "address": "上田市保野７５１－２",
      "lat": 36.37487,
      "lng": 138.19613100000004,
      "geocoding_level": 3,
      "phone": "",
      "license_no": "第03263138号",
      "license_date": "2020-06-24",
      "expire_date": "2027-05-31"
    },
    {
      "name": "ツルヤ塩田店",
      "name_kana": "",
      "business_type": "菓子製造業",
      "address": "上田市保野７５１－２",
      "lat": 36.37487,
      "lng": 138.19613100000004,
      "geocoding_level": 3,
      "phone": "",
      "license_no": "第03263152号",
      "license_date": "2020-06-24",
      "expire_date": "2027-05-31"
    },
    {
      "name": "炭火焼肉　縁",
      "name_kana": "",
      "business_type": "飲食店営業",
      "address": "上田市中之条１２６８－３４ 利幸第３ビル",
      "lat": 36.397612,
      "lng": 138.227603,
      "geocoding_level": 3,
      "phone": "",
      "license_no": "第03253959号",
      "license_date": "2024-02-29",
      "expire_date": "2030-02-28"
    },
    {
      "name": "豆ｃａｆｅ　ｅｎｊｙｕ",
      "name_kana": "",
      "business_type": "飲食店営業",
      "address": "上田市前山３００",
      "lat": 36.332434,
      "lng": 138.190245,
      "geocoding_level": 3,
      "phone": "",
      "license_no": "第03263191号",
      "license_date": "2020-06-26",
      "expire_date": "2027-05-31"
    },
    {
      "name": "ヘルシー焼肉（ｓａｉ菜）",
      "name_kana": "",
      "business_type": "飲食店営業",
      "address": "上田市中央２－２－１７",
      "lat": 36.400525444,
      "lng": 138.252038842,
      "geocoding_level": 8,
      "phone": "",
      "license_no": "第03246710号",
      "license_date": "2021-04-30",
      "expire_date": "2027-04-30"
    },
    {
      "name": "居酒屋　やっちゃば．こお",
      "name_kana": "",
      "business_type": "飲食店営業",
      "address": "上田市常入１－３－２",
      "lat": 36.394127033,
      "lng": 138.267347811,
      "geocoding_level": 8,
      "phone": "",
      "license_no": "第03217322号",
      "license_date": "2021-01-29",
      "expire_date": "2027-01-31"
    },
    {
      "name": "ライフステージかりがね　厨房",
      "name_kana": "",
      "business_type": "飲食店営業",
      "address": "上田市真田町長６４３０番地１",
      "lat": 36.442546196,
      "lng": 138.297256421,
      "geocoding_level": 8,
      "phone": "",
      "license_no": "第03261393号",
      "license_date": "2019-10-01",
      "expire_date": "2026-07-31"
    },
    {
      "name": "第三上田ひもろ木園事業所厨房",
      "name_kana": "",
      "business_type": "飲食店営業",
      "address": "上田市保野５６６番地",
      "lat": 36.37487,
      "lng": 138.19613100000004,
      "geocoding_level": 3,
      "phone": "",
      "license_no": "第03265609号",
      "license_date": "2021-05-25",
      "expire_date": "2027-05-31"
    },
    {
      "name": "Ａ・コープコアしおだ店",
      "name_kana": "",
      "business_type": "食肉販売業",
      "address": "上田市中野６４－１",
      "lat": 36.363408,
      "lng": 138.194128,
      "geocoding_level": 3,
      "phone": "",
      "license_no": "第03246467号",
      "license_date": "2021-05-31",
      "expire_date": "2027-05-31"
    },
    {
      "name": "Ａ・コープコアしおだ店",
      "name_kana": "",
      "business_type": "飲食店営業",
      "address": "上田市中野６４－１",
      "lat": 36.363408,
      "lng": 138.194128,
      "geocoding_level": 3,
      "phone": "",
      "license_no": "第03246435号",
      "license_date": "2021-05-31",
      "expire_date": "2027-05-31"
    },
    {
      "name": "ヴィラ　十ノ原",
      "name_kana": "",
      "business_type": "飲食店営業",
      "address": "上田市菅平高原１２２３－３７３０　４７７９",
      "lat": 36.523527,
      "lng": 138.33082,
      "geocoding_level": 3,
      "phone": "",
      "license_no": "第03126286号",
      "license_date": "2020-07-31",
      "expire_date": "2026-07-31"
    },
    {
      "name": "ちゃーしゅうや武蔵上田原店",
      "name_kana": "",
      "business_type": "飲食店営業",
      "address": "上田市神畑２２６－２",
      "lat": 36.382536,
      "lng": 138.216234,
      "geocoding_level": 3,
      "phone": "",
      "license_no": "第03245041号",
      "license_date": "2021-04-30",
      "expire_date": "2027-04-30"
    },
    {
      "name": "ツルヤ山口店",
      "name_kana": "",
      "business_type": "菓子製造業",
      "address": "上田市上田１２２１－１",
      "lat": 36.423229,
      "lng": 138.259451,
      "geocoding_level": 3,
      "phone": "",
      "license_no": "第03265349号",
      "license_date": "2021-04-16",
      "expire_date": "2028-02-29"
    },
    {
      "name": "ツルヤ山口店",
      "name_kana": "",
      "business_type": "飲食店営業",
      "address": "上田市上田１２２１－１",
      "lat": 36.423229,
      "lng": 138.259451,
      "geocoding_level": 3,
      "phone": "",
      "license_no": "第03265331号",
      "license_date": "2021-04-16",
      "expire_date": "2028-02-29"
    },
    {
      "name": "料亭　緒環（おだまき）",
      "name_kana": "",
      "business_type": "飲食店営業",
      "address": "上田市長瀬２８７８－１",
      "lat": 36.350333,
      "lng": 138.285794,
      "geocoding_level": 3,
      "phone": "",
      "license_no": "第03218464号",
      "license_date": "2020-08-31",
      "expire_date": "2026-08-31"
    },
    {
      "name": "安藤病院",
      "name_kana": "",
      "business_type": "飲食店営業",
      "address": "上田市中央西１－１－２０",
      "lat": 36.405514425,
      "lng": 138.249320378,
      "geocoding_level": 8,
      "phone": "",
      "license_no": "第03265559号",
      "license_date": "2021-05-14",
      "expire_date": "2027-05-31"
    },
    {
      "name": "Ｓａｎｔａｆｅ",
      "name_kana": "",
      "business_type": "飲食店営業",
      "address": "上田市天神１丁目２－２８ クッキービル２Ｆ",
      "lat": 36.397856247,
      "lng": 138.248664117,
      "geocoding_level": 8,
      "phone": "",
      "license_no": "第03264141号",
      "license_date": "2020-11-13",
      "expire_date": "2027-01-31"
    },
    {
      "name": "ツルヤ神畑店",
      "name_kana": "",
      "business_type": "食肉販売業",
      "address": "上田市神畑７００－１",
      "lat": 36.382536,
      "lng": 138.216234,
      "geocoding_level": 3,
      "phone": "",
      "license_no": "第03243721号",
      "license_date": "2021-04-30",
      "expire_date": "2027-04-30"
    },
    {
      "name": "上田プラザホテル　レストラン名称「旬菜食堂―ｋｕｒｉ―」",
      "name_kana": "",
      "business_type": "飲食店営業",
      "address": "上田市中央１－１－１８",
      "lat": 36.398429594,
      "lng": 138.250547325,
      "geocoding_level": 8,
      "phone": "",
      "license_no": "第03262488号",
      "license_date": "2020-03-30",
      "expire_date": "2026-11-30"
    },
    {
      "name": "室賀の里",
      "name_kana": "",
      "business_type": "飲食店営業",
      "address": "上田市下室賀２８２６",
      "lat": 36.401858,
      "lng": 138.169839,
      "geocoding_level": 3,
      "phone": "",
      "license_no": "第03238449号",
      "license_date": "2020-06-30",
      "expire_date": "2027-06-30"
    },
    {
      "name": "大三ミート中之条店",
      "name_kana": "",
      "business_type": "食肉販売業",
      "address": "上田市中之条３９０－２ダイレックス中之条店",
      "lat": 36.397612,
      "lng": 138.227603,
      "geocoding_level": 3,
      "phone": "",
      "license_no": "第03245098号",
      "license_date": "2021-02-26",
      "expire_date": "2027-02-28"
    },
    {
      "name": "かどや旅館",
      "name_kana": "",
      "business_type": "飲食店営業",
      "address": "上田市菅平高原１２２３－１６４０",
      "lat": 36.523527,
      "lng": 138.33082,
      "geocoding_level": 3,
      "phone": "",
      "license_no": "第03041601号",
      "license_date": "2020-07-31",
      "expire_date": "2026-07-31"
    },
    {
      "name": "大原菅平ビガークラブ",
      "name_kana": "",
      "business_type": "飲食店営業",
      "address": "上田市菅平高原１２２３－２６９１",
      "lat": 36.523527,
      "lng": 138.33082,
      "geocoding_level": 3,
      "phone": "",
      "license_no": "第03238043号",
      "license_date": "2020-07-31",
      "expire_date": "2027-07-31"
    },
    {
      "name": "イオン上田店",
      "name_kana": "",
      "business_type": "飲食店営業",
      "address": "上田市常田２丁目１２－１８",
      "lat": 36.392489892,
      "lng": 138.258428481,
      "geocoding_level": 8,
      "phone": "",
      "license_no": "第03263370号",
      "license_date": "2020-07-22",
      "expire_date": "2026-11-30"
    },
    {
      "name": "デリシア丸子店",
      "name_kana": "",
      "business_type": "そうざい製造業",
      "address": "上田市長瀬２８４３－４",
      "lat": 36.350333,
      "lng": 138.285794,
      "geocoding_level": 3,
      "phone": "",
      "license_no": "第03264681号",
      "license_date": "2021-02-09",
      "expire_date": "2027-08-31"
    },
    {
      "name": "タリーズコーヒー上田駅店",
      "name_kana": "",
      "business_type": "飲食店営業",
      "address": "上田市天神１－１８８７－１７",
      "lat": 36.397002,
      "lng": 138.250006,
      "geocoding_level": 3,
      "phone": "",
      "license_no": "第03265388号",
      "license_date": "2021-04-23",
      "expire_date": "2026-12-31"
    },
    {
      "name": "デリシア上丸子店",
      "name_kana": "",
      "business_type": "そうざい製造業",
      "address": "上田市上丸子３３１－３",
      "lat": 36.319171,
      "lng": 138.277385,
      "geocoding_level": 3,
      "phone": "",
      "license_no": "第03264973号",
      "license_date": "2021-03-19",
      "expire_date": "2027-08-31"
    },
    {
      "name": "大祭",
      "name_kana": "",
      "business_type": "飲食店営業",
      "address": "上田市中央２－７－１８",
      "lat": 36.398754469,
      "lng": 138.253018536,
      "geocoding_level": 8,
      "phone": "",
      "license_no": "第03218771号",
      "license_date": "2020-10-30",
      "expire_date": "2026-10-31"
    },
    {
      "name": "メルシャン株式会社シャトー・メルシャン　椀子ワイナリー",
      "name_kana": "",
      "business_type": "酒類製造業",
      "address": "上田市長瀬１４６－２",
      "lat": 36.350333,
      "lng": 138.285794,
      "geocoding_level": 3,
      "phone": "",
      "license_no": "第03261048号",
      "license_date": "2019-08-27",
      "expire_date": "2026-08-31"
    },