{
  "meta": {
    "updated": 1783906731,
    "sources": [
      {
        "source": "三重県 食品営業許可施設",
        "license": "Creative Commons Attribution 4.0 International"
      },
      {
        "source": "厚生労働省 食品衛生申請等システム（オープンデータ）",
        "license": "公共データ利用規約（第1.0版, PDL1.0）"
      }
    ]
  },
  "data": [
    {
      "name": "株式会社地主共和商会",
      "name_kana": "",
      "business_type": "飲食店営業",
      "address": "多気郡多気町丹生４４０９",
      "lat": 34.473504,
      "lng": 136.49629,
      "geocoding_level": 3,
      "phone": "0598-49-3517",
      "license_no": "松2501-0118",
      "license_date": null,
      "expire_date": null
    },
    {
      "name": "羽根　英樹",
      "name_kana": "",
      "business_type": "菓子製造業",
      "address": "多気郡多気町仁田６４５－１",
      "lat": 34.487368,
      "lng": 136.544239,
      "geocoding_level": 3,
      "phone": "0598-39-6131",
      "license_no": "松2411-0008",
      "license_date": null,
      "expire_date": null
    },
    {
      "name": "株式会社トモ",
      "name_kana": "",
      "business_type": "飲食店営業",
      "address": "多気郡多気町四疋田５８０",
      "lat": 34.494747,
      "lng": 136.530398,
      "geocoding_level": 3,
      "phone": "",
      "license_no": "松2501-0117",
      "license_date": null,
      "expire_date": null
    },
    {
      "name": "株式会社トモ",
      "name_kana": "",
      "business_type": "飲食店営業",
      "address": "多気郡多気町五佐奈１１７７－１　シャープ技術センタービル内",
      "lat": 34.497366,
      "lng": 136.562948,
      "geocoding_level": 3,
      "phone": "0598-38-1166",
      "license_no": "松2301-0767",
      "license_date": null,
      "expire_date": null
    },
    {
      "name": "株式会社地主共和商会",
      "name_kana": "",
      "business_type": "菓子製造業（旧）",
      "address": "多気郡多気町丹生４４０９",
      "lat": 34.473504,
      "lng": 136.49629,
      "geocoding_level": 3,
      "phone": "0598-49-3517",
      "license_no": "松 保第 56-0303-0001 号",
      "license_date": null,
      "expire_date": null
    },
    {
      "name": "刀根正勝",
      "name_kana": "",
      "business_type": "飲食店営業",
      "address": "多気郡多気町波多瀬５１",
      "lat": 34.477808614,
      "lng": 136.440416961,
      "geocoding_level": 8,
      "phone": "0598-49-4880",
      "license_no": "松2401-0613",
      "license_date": null,
      "expire_date": null
    },
    {
      "name": "土山泰道",
      "name_kana": "",
      "business_type": "飲食店営業",
      "address": "多気郡多気町古江８４０－１",
      "lat": 34.458304516,
      "lng": 136.4803785,
      "geocoding_level": 8,
      "phone": "0598-49-4341",
      "license_no": "松2401-0508",
      "license_date": null,
      "expire_date": null
    },
    {
      "name": "株式会社トモ",
      "name_kana": "",
      "business_type": "飲食店営業",
      "address": "多気郡多気町五佐奈４３２－４８",
      "lat": 34.497366,
      "lng": 136.562948,
      "geocoding_level": 3,
      "phone": "0598-37-3522",
      "license_no": "松2401-0691",
      "license_date": null,
      "expire_date": null
    },
    {
      "name": "森　義夫",
      "name_kana": "",
      "business_type": "飲食店営業",
      "address": "多気郡多気町相可１０６６－７",
      "lat": 34.49761800000001,
      "lng": 136.541041,
      "geocoding_level": 3,
      "phone": "0598-38-2600",
      "license_no": "松2501-0130",
      "license_date": null,
      "expire_date": null
    },
    {
      "name": "長﨑一朗",
      "name_kana": "",
      "business_type": "飲食店営業",
      "address": "多気郡多気町丹生４４２３－１１",
      "lat": 34.473504,
      "lng": 136.49629,
      "geocoding_level": 3,
      "phone": "0598-49-3625",
      "license_no": "松2501-0707",
      "license_date": null,
      "expire_date": null
    },
    {
      "name": "マックスバリュ東海株式会社",
      "name_kana": "",
      "business_type": "飲食店営業（旧）",
      "address": "多気郡多気町仁田７５０",
      "lat": 34.487368,
      "lng": 136.544239,
      "geocoding_level": 3,
      "phone": "0598-38-3611",
      "license_no": "松 保第 56-0801-0140 号",
      "license_date": null,
      "expire_date": null
    },
    {
      "name": "マックスバリュ東海株式会社",
      "name_kana": "",
      "business_type": "飲食店営業（旧）",
      "address": "多気郡多気町仁田７５０",
      "lat": 34.487368,
      "lng": 136.544239,
      "geocoding_level": 3,
      "phone": "0598-38-3611",
      "license_no": "松 保第 56-0801-0141 号",
      "license_date": null,
      "expire_date": null
    },
    {
      "name": "マックスバリュ東海株式会社",
      "name_kana": "",
      "business_type": "飲食店営業（旧）",
      "address": "多気郡多気町仁田７５０",
      "lat": 34.487368,
      "lng": 136.544239,
      "geocoding_level": 3,
      "phone": "0598-38-3611",
      "license_no": "松 保第 56-0801-0142 号",
      "license_date": null,
      "expire_date": null
    },
    {
      "name": "マックスバリュ東海株式会社",
      "name_kana": "",
      "business_type": "飲食店営業（旧）",
      "address": "多気郡多気町仁田７５０",
      "lat": 34.487368,
      "lng": 136.544239,
      "geocoding_level": 3,
      "phone": "0598-38-3611",
      "license_no": "松 保第 56-0801-0143 号",
      "license_date": null,
      "expire_date": null
    },
    {
      "name": "マックスバリュ東海株式会社",
      "name_kana": "",
      "business_type": "飲食店営業（旧）",
      "address": "多気郡多気町仁田７５０",
      "lat": 34.487368,
      "lng": 136.544239,
      "geocoding_level": 3,
      "phone": "0598-38-3611",
      "license_no": "松 保第 56-0801-0144 号",
      "license_date": null,
      "expire_date": null
    },
    {
      "name": "マックスバリュ東海株式会社",
      "name_kana": "",
      "business_type": "菓子製造業（旧）",
      "address": "多気郡多気町仁田７５０",
      "lat": 34.487368,
      "lng": 136.544239,
      "geocoding_level": 3,
      "phone": "0598-38-3611",
      "license_no": "松 保第 56-0803-0010 号",
      "license_date": null,
      "expire_date": null
    },
    {
      "name": "河合　重人",
      "name_kana": "",
      "business_type": "菓子製造業",
      "address": "多気郡多気町五桂１６０",
      "lat": 34.469845,
      "lng": 136.546347,
      "geocoding_level": 3,
      "phone": "",
      "license_no": "松2311-0019",
      "license_date": null,
      "expire_date": null
    },
    {
      "name": "マックスバリュ東海株式会社",
      "name_kana": "",
      "business_type": "食肉販売業（旧）",
      "address": "多気郡多気町仁田７５０",
      "lat": 34.487368,
      "lng": 136.544239,
      "geocoding_level": 3,
      "phone": "0598-38-3611",
      "license_no": "松 保第 56-0808-0010 号",
      "license_date": null,
      "expire_date": null
    },
    {
      "name": "マックスバリュ東海株式会社",
      "name_kana": "",
      "business_type": "魚介類販売業（旧）",
      "address": "多気郡多気町仁田７５０",
      "lat": 34.487368,
      "lng": 136.544239,
      "geocoding_level": 3,
      "phone": "0598-38-3611",
      "license_no": "松 保第 56-0809-0008 号",
      "license_date": null,
      "expire_date": null
    },
    {
      "name": "八重嶋敏弘",
      "name_kana": "",
      "business_type": "飲食店営業（旧）",
      "address": "多気郡多気町仁田７３７－５　サンシャインⅡ",
      "lat": 34.487368,
      "lng": 136.544239,
      "geocoding_level": 3,
      "phone": "0598-37-3008",
      "license_no": "松 保第 56-0901-0076 号",
      "license_date": null,
      "expire_date": null
    },
    {
      "name": "スガキコシステムズ株式会社",
      "name_kana": "",
      "business_type": "飲食店営業",
      "address": "多気郡多気町仁田７５０　 多気クリスタルタウン１階",
      "lat": 34.487368,
      "lng": 136.544239,
      "geocoding_level": 3,
      "phone": "080-6993-9464",
      "license_no": "松2301-0034",
      "license_date": null,
      "expire_date": null
    },
    {
      "name": "三重県",
      "name_kana": "",
      "business_type": "飲食店営業",
      "address": "多気郡多気町相可５０",
      "lat": 34.49761800000001,
      "lng": 136.541041,
      "geocoding_level": 3,
      "phone": "0598-38-2811",
      "license_no": "松2501-0172",
      "license_date": null,
      "expire_date": null
    },
    {
      "name": "三重県",
      "name_kana": "",
      "business_type": "菓子製造業",
      "address": "多気郡多気町相可５０",
      "lat": 34.49761800000001,
      "lng": 136.541041,
      "geocoding_level": 3,
      "phone": "0598-38-2811",
      "license_no": "松2511-0035",
      "license_date": null,
      "expire_date": null
    },
    {
      "name": "株式会社宝芋園",
      "name_kana": "",
      "business_type": "冷凍食品製造業",
      "address": "多気郡多気町四神田４１０",
      "lat": 34.479395,
      "lng": 136.56297,
      "geocoding_level": 3,
      "phone": "0598-37-2840",
      "license_no": "松2527-0001",
      "license_date": null,
      "expire_date": null
    },
    {
      "name": "株式会社川原製茶",
      "name_kana": "",
      "business_type": "飲食店営業",
      "address": "多気郡多気町丹生４８９４",
      "lat": 34.473504,
      "lng": 136.49629,
      "geocoding_level": 3,
      "phone": "0598-49-4005",
      "license_no": "松2401-0078",
      "license_date": null,
      "expire_date": null
    },
    {
      "name": "株式会社やなぎ",
      "name_kana": "",
      "business_type": "飲食店営業",
      "address": "多気郡多気町丹生４４２１－１１",
      "lat": 34.473504,
      "lng": 136.49629,
      "geocoding_level": 3,
      "phone": "0598-49-7700",
      "license_no": "松2401-0139",
      "license_date": null,
      "expire_date": null
    },
    {
      "name": "株式会社おきん茶屋",
      "name_kana": "",
      "business_type": "飲食店営業",
      "address": "多気郡多気町丹生４４８８－４０",
      "lat": 34.473504,
      "lng": 136.49629,
      "geocoding_level": 3,
      "phone": "0598-49-2101",
      "license_no": "松2401-0178",
      "license_date": null,
      "expire_date": null
    },
    {
      "name": "永野美和子",
      "name_kana": "",
      "business_type": "飲食店営業",
      "address": "多気郡多気町五佐奈６００",
      "lat": 34.497366,
      "lng": 136.562948,
      "geocoding_level": 3,
      "phone": "0598-39-3550",
      "license_no": "松2401-0340",
      "license_date": null,
      "expire_date": null
    },
    {
      "name": "株式会社玉城",
      "name_kana": "",
      "business_type": "食肉販売業",
      "address": "多気郡多気町相可１０５７－１",
      "lat": 34.49761800000001,
      "lng": 136.541041,
      "geocoding_level": 3,
      "phone": "0598-38-710",
      "license_no": "松2403-0004",
      "license_date": null,
      "expire_date": null
    },
    {
      "name": "有限会社松本畜産",
      "name_kana": "",
      "business_type": "食肉販売業",
      "address": "多気郡多気町前村１８０８",
      "lat": 34.465688,
      "lng": 136.522875,
      "geocoding_level": 3,
      "phone": "0598-39-3368",
      "license_no": "松2403-0013",
      "license_date": null,
      "expire_date": null
    },
    {
      "name": "有限会社松本畜産",
      "name_kana": "",
      "business_type": "そうざい製造業",
      "address": "多気郡多気町前村１８０８",
      "lat": 34.465688,
      "lng": 136.522875,
      "geocoding_level": 3,
      "phone": "0598-39-3368",
      "license_no": "松2425-0010",
      "license_date": null,
      "expire_date": null
    },
    {
      "name": "株式会社玉城",
      "name_kana": "",
      "business_type": "食肉処理業",
      "address": "多気郡多気町相可１０５７－１",
      "lat": 34.49761800000001,
      "lng": 136.541041,
      "geocoding_level": 3,
      "phone": "0598-38-7110",
      "license_no": "松2409-0005",
      "license_date": null,
      "expire_date": null
    },
    {
      "name": "有限会社松本畜産",
      "name_kana": "",
      "business_type": "飲食店営業",
      "address": "多気郡多気町前村１８０８",
      "lat": 34.465688,
      "lng": 136.522875,
      "geocoding_level": 3,
      "phone": "0598-39-3368",
      "license_no": "松2501-0137",
      "license_date": null,
      "expire_date": null
    },
    {
      "name": "株式会社Ｍａｅｓｔｒｏ",
      "name_kana": "",
      "business_type": "飲食店営業",
      "address": "多気郡多気町五佐奈４３２－２",
      "lat": 34.497366,
      "lng": 136.562948,
      "geocoding_level": 3,
      "phone": "0598-67-5000",
      "license_no": "松2501-0216",
      "license_date": null,
      "expire_date": null
    },
    {
      "name": "芳森剛",
      "name_kana": "",
      "business_type": "飲食店営業（旧）",
      "address": "多気郡多気町相可１３６５-１　アドバンスタウンテナント１号",
      "lat": 34.49761800000001,
      "lng": 136.541041,
      "geocoding_level": 3,
      "phone": "",
      "license_no": "松 保第 56-1401-0110 号",
      "license_date": null,
      "expire_date": null
    },
    {
      "name": "植西美貴",
      "name_kana": "",
      "business_type": "飲食店営業（旧）",
      "address": "多気郡多気町片野３８３-４",
      "lat": 34.473484605,
      "lng": 136.451391075,
      "geocoding_level": 8,
      "phone": "090-6798-9076",
      "license_no": "松 保第 56-1401-0160 号",
      "license_date": null,
      "expire_date": null
    },
    {
      "name": "中村賢治",
      "name_kana": "",
      "business_type": "飲食店営業（旧）",
      "address": "多気郡多気町色太５５８-１",
      "lat": 34.455652492,
      "lng": 136.489065582,
      "geocoding_level": 8,
      "phone": "",
      "license_no": "松 保第 56-1401-0243 号",
      "license_date": null,
      "expire_date": null
    },
    {
      "name": "小西純一",
      "name_kana": "",
      "business_type": "飲食店営業（旧）",
      "address": "多気郡多気町相可１３６５-１",
      "lat": 34.49761800000001,
      "lng": 136.541041,
      "geocoding_level": 3,
      "phone": "0598-38-1177",
      "license_no": "松 保第 56-1401-0245 号",
      "license_date": null,
      "expire_date": null
    },
    {
      "name": "植西美貴",
      "name_kana": "",
      "business_type": "菓子製造業（旧）",
      "address": "多気郡多気町片野３８３-４",
      "lat": 34.473484605,
      "lng": 136.451391075,
      "geocoding_level": 8,
      "phone": "090-6798-9076",
      "license_no": "松 保第 56-1403-0008 号",
      "license_date": null,
      "expire_date": null
    },
    {
      "name": "有限会社魚友",
      "name_kana": "",
      "business_type": "魚介類販売業",
      "address": "多気郡多気町五桂３４－１",
      "lat": 34.469845,
      "lng": 136.546347,
      "geocoding_level": 3,
      "phone": "0598-37-2107",
      "license_no": "松2404-0009",
      "license_date": null,
      "expire_date": null
    },
    {
      "name": "大田恭子",
      "name_kana": "",
      "business_type": "飲食店営業（旧）",
      "address": "多気郡多気町相可１３７１－１１　泉ビル１Ｆ",
      "lat": 34.49761800000001,
      "lng": 136.541041,
      "geocoding_level": 3,
      "phone": "0598-38-4800",
      "license_no": "松 保第 56-1501-0057 号",
      "license_date": null,
      "expire_date": null
    },
    {
      "name": "中谷明弘",
      "name_kana": "",
      "business_type": "飲食店営業（旧）",
      "address": "多気郡多気町仁田７３７－５",
      "lat": 34.487368,
      "lng": 136.544239,
      "geocoding_level": 3,
      "phone": "0598-37-3510",
      "license_no": "松 保第 56-1501-0109 号",
      "license_date": null,
      "expire_date": null
    },
    {
      "name": "髙梨清",
      "name_kana": "",
      "business_type": "飲食店営業",
      "address": "多気郡多気町古江１２８２",
      "lat": 34.461167224,
      "lng": 136.472472785,
      "geocoding_level": 8,
      "phone": "0598-49-4667",
      "license_no": "松2501-0325",
      "license_date": null,
      "expire_date": null
    },
    {
      "name": "志村和浩",
      "name_kana": "",
      "business_type": "飲食店営業",
      "address": "多気郡多気町丹生１７３５",
      "lat": 34.473504,
      "lng": 136.49629,
      "geocoding_level": 3,
      "phone": "0598-49-2315",
      "license_no": "松2501-0639",
      "license_date": null,
      "expire_date": null
    },
    {
      "name": "三井靖子",
      "name_kana": "",
      "business_type": "飲食店営業",
      "address": "多気郡多気町片野１２１３",
      "lat": 34.47199411,
      "lng": 136.458377628,
      "geocoding_level": 8,
      "phone": "0598-49-2812",
      "license_no": "松2501-0642",
      "license_date": null,
      "expire_date": null
    },
    {
      "name": "寺澤智子",
      "name_kana": "",
      "business_type": "菓子製造業",
      "address": "多気郡多気町波多瀬１３２２－２",
      "lat": 34.482226292,
      "lng": 136.434449242,
      "geocoding_level": 8,
      "phone": "080-2037-2543",
      "license_no": "松2411-0065",
      "license_date": null,
      "expire_date": null
    },
    {
      "name": "南　真紀",
      "name_kana": "",
      "business_type": "菓子製造業",
      "address": "多気郡多気町車川３１２",
      "lat": 34.440659291,
      "lng": 136.441814065,
      "geocoding_level": 8,
      "phone": "",
      "license_no": "松2411-0068",
      "license_date": null,
      "expire_date": null
    },
    {
      "name": "今井　信一",
      "name_kana": "",
      "business_type": "飲食店営業",
      "address": "多気郡多気町相可１３６５－１",
      "lat": 34.49761800000001,
      "lng": 136.541041,
      "geocoding_level": 3,
      "phone": "0598-38-1011",
      "license_no": "松2201-0416",
      "license_date": null,
      "expire_date": null
    },
    {
      "name": "農事組合法人元丈の里営農組合",
      "name_kana": "",
      "business_type": "菓子製造業",
      "address": "多気郡多気町波多瀬６８１－５",
      "lat": 34.475575419,
      "lng": 136.432395548,
      "geocoding_level": 8,
      "phone": "0598-49-3348",
      "license_no": "松2311-0012",
      "license_date": null,
      "expire_date": null
    },
    {
      "name": "株式会社玉城",
      "name_kana": "",
      "business_type": "魚介類販売業",
      "address": "多気郡多気町相可１０５７－１",
      "lat": 34.49761800000001,
      "lng": 136.541041,
      "geocoding_level": 3,
      "phone": "0598-38-7110",
      "license_no": "松2304-0001",
      "license_date": null,
      "expire_date": null
    },
    {
      "name": "水谷　清治",
      "name_kana": "",
      "business_type": "飲食店営業",
      "address": "多気郡多気町相可１５１７－１",
      "lat": 34.49761800000001,
      "lng": 136.541041,
      "geocoding_level": 3,
      "phone": "0598-38-3788",
      "license_no": "松2301-0731",
      "license_date": null,
      "expire_date": null
    },
    {
      "name": "河合　重人",
      "name_kana": "",
      "business_type": "飲食店営業",
      "address": "多気郡多気町油夫８８９",
      "lat": 34.473428,
      "lng": 136.558643,
      "geocoding_level": 3,
      "phone": "080-1116-3715",
      "license_no": "松2301-0768",
      "license_date": null,
      "expire_date": null
    },
    {
      "name": "西村　尚美",
      "name_kana": "",
      "business_type": "飲食店営業",
      "address": "多気郡多気町平谷３６１",
      "lat": 34.477381,
      "lng": 136.537506,
      "geocoding_level": 3,
      "phone": "0598-37-2931",
      "license_no": "松2401-0117",
      "license_date": null,
      "expire_date": null
    },
    {
      "name": "株式会社やなぎ",
      "name_kana": "",
      "business_type": "飲食店営業",
      "address": "多気郡多気町仁田６７０－３",
      "lat": 34.487368,
      "lng": 136.544239,
      "geocoding_level": 3,
      "phone": "0598-39-7900",
      "license_no": "松2301-0132",
      "license_date": null,
      "expire_date": null
    },
    {
      "name": "株式会社トモ",
      "name_kana": "",
      "business_type": "飲食店営業",
      "address": "多気郡多気町笠木１３３８",
      "lat": 34.490369,
      "lng": 136.580094,
      "geocoding_level": 3,
      "phone": "",
      "license_no": "松2401-0520",
      "license_date": null,
      "expire_date": null
    },
    {
      "name": "馬場正典",
      "name_kana": "",
      "business_type": "飲食店営業",
      "address": "多気郡多気町四神田３０１－１",
      "lat": 34.479395,
      "lng": 136.56297,
      "geocoding_level": 3,
      "phone": "0598-37-3363",
      "license_no": "松2401-0587",
      "license_date": null,
      "expire_date": null
    },
    {
      "name": "平尾 由紀子",
      "name_kana": "",
      "business_type": "菓子製造業",
      "address": "多気郡多気町丹生１３３０",
      "lat": 34.473504,
      "lng": 136.49629,
      "geocoding_level": 3,
      "phone": "0598-49-4578",
      "license_no": "松2311-0027",
      "license_date": null,
      "expire_date": null
    },
    {
      "name": "松本　拓弥",
      "name_kana": "",
      "business_type": "飲食店営業",
      "address": "多気郡多気町相可１２７",
      "lat": 34.49761800000001,
      "lng": 136.541041,
      "geocoding_level": 3,
      "phone": "0598-38-2477",
      "license_no": "松2301-0673",
      "license_date": null,
      "expire_date": null
    },
    {
      "name": "アポロスペースフラワー合同会社",
      "name_kana": "",
      "business_type": "飲食店営業",
      "address": "多気郡多気町波多瀬４１２－２",
      "lat": 34.476758623,
      "lng": 136.434193081,
      "geocoding_level": 8,
      "phone": "0598-49-3933",
      "license_no": "松2301-0709",
      "license_date": null,
      "expire_date": null
    },
    {
      "name": "松本拓弥",
      "name_kana": "",
      "business_type": "菓子製造業",
      "address": "多気郡多気町相可１２７",
      "lat": 34.49761800000001,
      "lng": 136.541041,
      "geocoding_level": 3,
      "phone": "0598-38-2477",
      "license_no": "松2411-0057",
      "license_date": null,
      "expire_date": null
    },
    {
      "name": "アポロスペースフラワー合同会社",
      "name_kana": "",
      "business_type": "菓子製造業",
      "address": "多気郡多気町波多瀬４１２－２",
      "lat": 34.476758623,
      "lng": 136.434193081,
      "geocoding_level": 8,
      "phone": "0598-49-3933",
      "license_no": "松2311-0059",
      "license_date": null,
      "expire_date": null
    },
    {
      "name": "森川昌洋",
      "name_kana": "",
      "business_type": "魚介類販売業",
      "address": "多気郡多気町森荘３８２－１",
      "lat": 34.482674,
      "lng": 136.57826,
      "geocoding_level": 3,
      "phone": "",
      "license_no": "松2304-0014",
      "license_date": null,
      "expire_date": null
    },
    {
      "name": "東　信行",
      "name_kana": "",
      "business_type": "飲食店営業",
      "address": "多気郡多気町前村１１１３－６",
      "lat": 34.465688,
      "lng": 136.522875,
      "geocoding_level": 3,
      "phone": "05983-9-3662",
      "license_no": "松2501-0403",
      "license_date": null,
      "expire_date": null
    },
    {
      "name": "井本尚秀",
      "name_kana": "",
      "business_type": "飲食店営業",
      "address": "多気郡多気町上出江４０６－３",
      "lat": 34.468514496,
      "lng": 136.465142109,
      "geocoding_level": 8,
      "phone": "059849-2170",
      "license_no": "松2401-0507",
      "license_date": null,
      "expire_date": null
    },
    {
      "name": "青木正美",
      "name_kana": "",
      "business_type": "菓子製造業",
      "address": "多気郡多気町相可４５８",
      "lat": 34.49761800000001,
      "lng": 136.541041,
      "geocoding_level": 3,
      "phone": "05983-8-2108",
      "license_no": "松2511-0037",
      "license_date": null,
      "expire_date": null
    },
    {
      "name": "西村てる",
      "name_kana": "",
      "business_type": "麺類製造業",
      "address": "多気郡多気町片野４３７",
      "lat": 34.474593964,
      "lng": 136.455974023,
      "geocoding_level": 8,
      "phone": "0598-49-2022",
      "license_no": "松2524-0120",
      "license_date": null,
      "expire_date": null
    },
    {
      "name": "中西勝久",
      "name_kana": "",
      "business_type": "飲食店営業",
      "address": "多気郡多気町丹生９８１",
      "lat": 34.473504,
      "lng": 136.49629,
      "geocoding_level": 3,
      "phone": "059849-3011",
      "license_no": "松2401-0745",
      "license_date": null,
      "expire_date": null
    },
    {
      "name": "水谷典弘",
      "name_kana": "",
      "business_type": "飲食店営業（旧）",
      "address": "多気郡多気町相可３２７",
      "lat": 34.49761800000001,
      "lng": 136.541041,
      "geocoding_level": 3,
      "phone": "05983-8-3836",
      "license_no": "松 保第 56-8501-0204 号",
      "license_date": null,
      "expire_date": null
    },
    {
      "name": "中西勝久",
      "name_kana": "",
      "business_type": "魚介類販売業",
      "address": "多気郡多気町丹生９８１",
      "lat": 34.473504,
      "lng": 136.49629,
      "geocoding_level": 3,
      "phone": "059849-3011",
      "license_no": "松2504-0024",
      "license_date": null,
      "expire_date": null
    },
    {
      "name": "逵井　多恵子",
      "name_kana": "",
      "business_type": "飲食店営業",
      "address": "多気郡多気町平谷２０－１",
      "lat": 34.477381,
      "lng": 136.537506,
      "geocoding_level": 3,
      "phone": "0598-39-3853",
      "license_no": "松2301-0033",
      "license_date": null,
      "expire_date": null
    },
    {
      "name": "中西　宏志",
      "name_kana": "",
      "business_type": "菓子製造業",
      "address": "多気郡多気町相可１５５０－２１",
      "lat": 34.49761800000001,
      "lng": 136.541041,
      "geocoding_level": 3,
      "phone": "0598-38-2274",
      "license_no": "松2311-0035",
      "license_date": null,
      "expire_date": null
    },
    {
      "name": "多気郡農業協同組合",
      "name_kana": "",
      "business_type": "みそ又はしょうゆ製造業",
      "address": "多気郡多気町四神田３４０－２",
      "lat": 34.479395,
      "lng": 136.56297,
      "geocoding_level": 3,
      "phone": "0598-39-6170",
      "license_no": "松2320-0001",
      "license_date": null,
      "expire_date": null
    },
    {
      "name": "佐場和江",
      "name_kana": "",
      "business_type": "菓子製造業",
      "address": "多気郡多気町丹生１５３８",
      "lat": 34.473504,
      "lng": 136.49629,
      "geocoding_level": 3,
      "phone": "059849-2385",
      "license_no": "松2411-0067",
      "license_date": null,
      "expire_date": null
    },
    {
      "name": "久保　公親",
      "name_kana": "",
      "business_type": "飲食店営業",
      "address": "多気郡多気町平谷５８３",
      "lat": 34.477381,
      "lng": 136.537506,
      "geocoding_level": 3,
      "phone": "0598-37-2902",
      "license_no": "松2301-0632",
      "license_date": null,
      "expire_date": null
    },
    {
      "name": "森川昌洋",
      "name_kana": "",
      "business_type": "飲食店営業",
      "address": "多気郡多気町森荘３８２－１",
      "lat": 34.482674,
      "lng": 136.57826,
      "geocoding_level": 3,
      "phone": "0598-37-2507",
      "license_no": "松2401-0417",
      "license_date": null,
      "expire_date": null
    },
    {
      "name": "栗谷幸子",
      "name_kana": "",
      "business_type": "菓子製造業",
      "address": "多気郡多気町丹生１７８０",
      "lat": 34.473504,
      "lng": 136.49629,
      "geocoding_level": 3,
      "phone": "0598-49-3015",
      "license_no": "松2511-0003",
      "license_date": null,
      "expire_date": null
    },
    {
      "name": "林治彦",
      "name_kana": "",
      "business_type": "飲食店営業",
      "address": "多気郡多気町丹生４４３５－１",
      "lat": 34.473504,
      "lng": 136.49629,
      "geocoding_level": 3,
      "phone": "0598-49-3965",
      "license_no": "松2401-0558",
      "license_date": null,
      "expire_date": null
    },
    {
      "name": "坂川かづ子",
      "name_kana": "",
      "business_type": "飲食店営業",
      "address": "多気郡多気町相可１９４－２",
      "lat": 34.49761800000001,
      "lng": 136.541041,
      "geocoding_level": 3,
      "phone": "0598-38-3965",
      "license_no": "松2501-0773",
      "license_date": null,
      "expire_date": null
    },
    {
      "name": "一般社団法人医食同源みえ",
      "name_kana": "",
      "business_type": "飲食店営業",
      "address": "多気郡多気町五桂９５６",
      "lat": 34.469845,
      "lng": 136.546347,
      "geocoding_level": 3,
      "phone": "0598-39-3860",
      "license_no": "松2501-0094",
      "license_date": null,
      "expire_date": null
    },
    {
      "name": "伊勢ＭＬＳ合同会社",
      "name_kana": "",
      "business_type": "飲食店営業",
      "address": "多気郡多気町丹生４５００－５",
      "lat": 34.473504,
      "lng": 136.49629,
      "geocoding_level": 3,
      "phone": "0598-49-3113",
      "license_no": "松2501-0128",
      "license_date": null,
      "expire_date": null
    },
    {
      "name": "株式会社トモ",
      "name_kana": "",
      "business_type": "飲食店営業",
      "address": "多気郡多気町笠木１３２９",
      "lat": 34.490369,
      "lng": 136.580094,
      "geocoding_level": 3,
      "phone": "070-6423-4021",
      "license_no": "松2501-0310",
      "license_date": null,
      "expire_date": null
    },
    {
      "name": "村岡伸祐",
      "name_kana": "",
      "business_type": "菓子製造業",
      "address": "多気郡多気町相可５６４",
      "lat": 34.49761800000001,
      "lng": 136.541041,
      "geocoding_level": 3,
      "phone": "0598-38-2018",
      "license_no": "松2411-0046",
      "license_date": null,
      "expire_date": null
    },
    {
      "name": "村岡伸祐",
      "name_kana": "",
      "business_type": "飲食店営業",
      "address": "多気郡多気町相可５６４",
      "lat": 34.49761800000001,
      "lng": 136.541041,
      "geocoding_level": 3,
      "phone": "0598-38-2018",
      "license_no": "松2401-0538",
      "license_date": null,
      "expire_date": null
    },
    {
      "name": "宮川直敏",
      "name_kana": "",
      "business_type": "飲食店営業",
      "address": "多気郡多気町片野２４－６",
      "lat": 34.475435449,
      "lng": 136.447166086,
      "geocoding_level": 8,
      "phone": "0598-67-9668",
      "license_no": "松2401-0596",
      "license_date": null,
      "expire_date": null
    },
    {
      "name": "横山雄一",
      "name_kana": "",
      "business_type": "そうざい製造業",
      "address": "多気郡多気町相可１００２－１",
      "lat": 34.49761800000001,
      "lng": 136.541041,
      "geocoding_level": 3,
      "phone": "05983-8-3174",
      "license_no": "松2425-0015",
      "license_date": null,
      "expire_date": null
    },
    {
      "name": "金川幸雄",
      "name_kana": "",
      "business_type": "飲食店営業",
      "address": "多気郡多気町丹生１６１８",
      "lat": 34.473504,
      "lng": 136.49629,
      "geocoding_level": 3,
      "phone": "090-6026-1149",
      "license_no": "松2501-0757",
      "license_date": null,
      "expire_date": null
    },
    {
      "name": "一般社団法人医食同源みえ",
      "name_kana": "",
      "business_type": "飲食店営業（旧）",
      "address": "多気郡多気町五桂９５６",
      "lat": 34.469845,
      "lng": 136.546347,
      "geocoding_level": 3,
      "phone": "0598-39-3860",
      "license_no": "松 保第 56-2001-0116 号",
      "license_date": null,
      "expire_date": null
    },
    {
      "name": "株式会社クラタカンパニー",
      "name_kana": "",
      "business_type": "菓子製造業（旧）",
      "address": "多気郡多気町相可１３７１－１１",
      "lat": 34.49761800000001,
      "lng": 136.541041,
      "geocoding_level": 3,
      "phone": "0598-30-8898",
      "license_no": "松 保第 56-2003-0016 号",
      "license_date": null,
      "expire_date": null
    },
    {
      "name": "山本　裕",
      "name_kana": "",
      "business_type": "飲食店営業（旧）",
      "address": "多気郡多気町仁田６８７－１",
      "lat": 34.487368,
      "lng": 136.544239,
      "geocoding_level": 3,
      "phone": "0598-39-3006",
      "license_no": "松 保第 56-2001-0174 号",
      "license_date": null,
      "expire_date": null
    },
    {
      "name": "逵　理",
      "name_kana": "",
      "business_type": "飲食店営業（旧）",
      "address": "多気郡多気町相可１３６５－５",
      "lat": 34.49761800000001,
      "lng": 136.541041,
      "geocoding_level": 3,
      "phone": "0598-38-2815",
      "license_no": "松 保第 56-2001-0217 号",
      "license_date": null,
      "expire_date": null
    },
    {
      "name": "井村屋株式会社",
      "name_kana": "",
      "business_type": "飲食店営業（旧）",
      "address": "多気郡多気町ヴィソン６７２－１",
      "lat": 34.496156,
      "lng": 136.546149,
      "geocoding_level": 2,
      "phone": "",
      "license_no": "松 保第 56-2101-0043 号",
      "license_date": null,
      "expire_date": null
    },
    {
      "name": "井村屋株式会社",
      "name_kana": "",
      "business_type": "酒類製造業（旧）",
      "address": "多気郡多気町ヴィソン６７２－１",
      "lat": 34.496156,
      "lng": 136.546149,
      "geocoding_level": 2,
      "phone": "",
      "license_no": "松 保第 56-2132-0001 号",
      "license_date": null,
      "expire_date": null
    },
    {
      "name": "有限会社竹内牧場",
      "name_kana": "",
      "business_type": "食肉販売業（旧）",
      "address": "多気郡多気町ヴィソン６７２－１　マルシェ１８",
      "lat": 34.496156,
      "lng": 136.546149,
      "geocoding_level": 2,
      "phone": "0598-67-6099",
      "license_no": "松 保第 56-2108-0010 号",
      "license_date": null,
      "expire_date": null
    },
    {
      "name": "石倉一子",
      "name_kana": "",
      "business_type": "飲食店営業（旧）",
      "address": "多気郡多気町ヴィソン６７２－１　マルシェ２",
      "lat": 34.496156,
      "lng": 136.546149,
      "geocoding_level": 2,
      "phone": "0598-67-2874",
      "license_no": "松 保第 56-2101-0059 号",
      "license_date": null,
      "expire_date": null
    },
    {
      "name": "石倉一子",
      "name_kana": "",
      "business_type": "魚介類販売業（旧）",
      "address": "多気郡多気町ヴィソン６７２－１　マルシェ２",
      "lat": 34.496156,
      "lng": 136.546149,
      "geocoding_level": 2,
      "phone": "0598-67-2874",
      "license_no": "松 保第 56-2109-0005 号",
      "license_date": null,
      "expire_date": null
    },
    {
      "name": "株式会社なか川",
      "name_kana": "",
      "business_type": "飲食店営業（旧）",
      "address": "多気郡多気町ヴィソン６７２－１　マルシェ６",
      "lat": 34.496156,
      "lng": 136.546149,
      "geocoding_level": 2,
      "phone": "",
      "license_no": "松 保第 56-2101-0062 号",
      "license_date": null,
      "expire_date": null
    },
    {
      "name": "株式会社なか川",
      "name_kana": "",
      "business_type": "魚介類販売業（旧）",
      "address": "多気郡多気町ヴィソン６７２－１",
      "lat": 34.496156,
      "lng": 136.546149,
      "geocoding_level": 2,
      "phone": "",
      "license_no": "松 保第 56-2109-0008 号",
      "license_date": null,
      "expire_date": null
    },
    {
      "name": "米田直子",
      "name_kana": "",
      "business_type": "飲食店営業",
      "address": "多気郡多気町下出江３８－２",
      "lat": 34.474159,
      "lng": 136.474385,
      "geocoding_level": 3,
      "phone": "",
      "license_no": "松2501-0771",
      "license_date": null,
      "expire_date": null
    },
    {
      "name": "ヴィソン多気株式会社",
      "name_kana": "",
      "business_type": "飲食店営業（旧）",
      "address": "多気郡多気町ヴィソン６７２－１　スウィーツ４",
      "lat": 34.496156,
      "lng": 136.546149,
      "geocoding_level": 2,
      "phone": "0598-67-0810",
      "license_no": "松 保第 56-2101-0071 号",
      "license_date": null,
      "expire_date": null
    },
    {
      "name": "ヴィソン多気株式会社",
      "name_kana": "",
      "business_type": "菓子製造業（旧）",
      "address": "多気郡多気町ヴィソン６７２－１　スウィーツ４",
      "lat": 34.496156,
      "lng": 136.546149,
      "geocoding_level": 2,
      "phone": "0598-67-0810",
      "license_no": "松 保第 56-2103-0008 号",
      "license_date": null,
      "expire_date": null
    },
    {
      "name": "ヴィソン多気株式会社",
      "name_kana": "",
      "business_type": "飲食店営業（旧）",
      "address": "多気郡多気町ヴィソン６７２－１　スウィーツ２",
      "lat": 34.496156,
      "lng": 136.546149,
      "geocoding_level": 2,
      "phone": "0598-67-0810",
      "license_no": "松 保第 56-2101-0070 号",
      "license_date": null,
      "expire_date": null
    },
    {
      "name": "ヴィソン多気株式会社",
      "name_kana": "",
      "business_type": "菓子製造業（旧）",
      "address": "多気郡多気町ヴィソン６７２－１　スウィーツ２",
      "lat": 34.496156,
      "lng": 136.546149,
      "geocoding_level": 2,
      "phone": "0598-67-0810",
      "license_no": "松 保第 56-2103-0007 号",
      "license_date": null,
      "expire_date": null
    },
    {
      "name": "ＡＱＵＡ．ＷＡＫＩＧＵＣＨＩ株式会社",
      "name_kana": "",
      "business_type": "魚介類販売業（旧）",
      "address": "多気郡多気町ヴィソン６７２－１　マルシェ４",
      "lat": 34.496156,
      "lng": 136.546149,
      "geocoding_level": 2,
      "phone": "",
      "license_no": "松 保第 56-2109-0006 号",
      "license_date": null,
      "expire_date": null
    },
    {
      "name": "ＡＱＵＡ．ＷＡＫＩＧＵＣＨＩ株式会社",
      "name_kana": "",
      "business_type": "飲食店営業（旧）",
      "address": "多気郡多気町ヴィソン６７２－１　マルシェ４",
      "lat": 34.496156,
      "lng": 136.546149,
      "geocoding_level": 2,
      "phone": "",
      "license_no": "松 保第 56-2101-0060 号",
      "license_date": null,
      "expire_date": null
    },
    {
      "name": "ＡＱＵＡ．ＷＡＫＩＧＵＣＨＩ株式会社",
      "name_kana": "",
      "business_type": "飲食店営業（旧）",
      "address": "多気郡多気町ヴィソン６７２－１　マルシェ４",
      "lat": 34.496156,
      "lng": 136.546149,
      "geocoding_level": 2,
      "phone": "",
      "license_no": "松 保第 56-2101-0061 号",
      "license_date": null,
      "expire_date": null
    },
    {
      "name": "上嶋千束",
      "name_kana": "",
      "business_type": "飲食店営業",
      "address": "多気郡多気町上出江４０６－３",
      "lat": 34.468514496,
      "lng": 136.465142109,
      "geocoding_level": 8,
      "phone": "0598-49-2170",
      "license_no": "松2601-0009",
      "license_date": null,
      "expire_date": null
    },
    {
      "name": "有限会社鈴木水産",
      "name_kana": "",
      "business_type": "飲食店営業（旧）",
      "address": "多気郡多気町ヴィソン６７２－１　マルシェ３６",
      "lat": 34.496156,
      "lng": 136.546149,
      "geocoding_level": 2,
      "phone": "090-1987-0985",
      "license_no": "松 保第 56-2101-0069 号",
      "license_date": null,
      "expire_date": null
    },
    {
      "name": "有限会社鈴木水産",
      "name_kana": "",
      "business_type": "魚介類販売業（旧）",
      "address": "多気郡多気町ヴィソン６７２－１　マルシェ３６",
      "lat": 34.496156,
      "lng": 136.546149,
      "geocoding_level": 2,
      "phone": "090-0989-0985",
      "license_no": "松 保第 56-2109-0010 号",
      "license_date": null,
      "expire_date": null
    },
    {
      "name": "有限会社鈴木水産",
      "name_kana": "",
      "business_type": "飲食店営業（旧）",
      "address": "多気郡多気町ヴィソン６７２－１　マルシェ８",
      "lat": 34.496156,
      "lng": 136.546149,
      "geocoding_level": 2,
      "phone": "",
      "license_no": "松 保第 56-2101-0063 号",
      "license_date": null,
      "expire_date": null
    },
    {
      "name": "猿田彦珈琲株式会社",
      "name_kana": "",
      "business_type": "飲食店営業（旧）",
      "address": "多気郡多気町ヴィソン６７２－１",
      "lat": 34.496156,
      "lng": 136.546149,
      "geocoding_level": 2,
      "phone": "0598-67-6064",
      "license_no": "松 保第 56-2101-0072 号",
      "license_date": null,
      "expire_date": null
    },
    {
      "name": "株式会社味国屋",
      "name_kana": "",
      "business_type": "飲食店営業（旧）",
      "address": "多気郡多気町ヴィソン６７２－１　マルシェ３５",
      "lat": 34.496156,
      "lng": 136.546149,
      "geocoding_level": 2,
      "phone": "",
      "license_no": "松 保第 56-2101-0068 号",
      "license_date": null,
      "expire_date": null
    },
    {
      "name": "株式会社パッションギークス",
      "name_kana": "",
      "business_type": "飲食店営業（旧）",
      "address": "多気郡多気町ヴィソン６７２－１",
      "lat": 34.496156,
      "lng": 136.546149,
      "geocoding_level": 2,
      "phone": "",
      "license_no": "松 保第 56-2101-0073 号",
      "license_date": null,
      "expire_date": null
    },
    {
      "name": "合同会社ピリリ",
      "name_kana": "",
      "business_type": "惣菜製造業（旧）",
      "address": "多気郡多気町丹生１７３５",
      "lat": 34.473504,
      "lng": 136.49629,
      "geocoding_level": 3,
      "phone": "0598-67-4968",
      "license_no": "松 保第 56-2114-0001 号",
      "license_date": null,
      "expire_date": null
    },
    {
      "name": "株式会社カーゾック",
      "name_kana": "",
      "business_type": "飲食店営業（旧）",
      "address": "多気郡多気町ヴィソン６７２－１　木育",
      "lat": 34.496156,
      "lng": 136.546149,
      "geocoding_level": 2,
      "phone": "0598-67-4291",
      "license_no": "松 保第 56-2101-0098 号",
      "license_date": null,
      "expire_date": null
    },
    {
      "name": "ヴィソン多気株式会社",
      "name_kana": "",
      "business_type": "飲食店営業",
      "address": "多気郡多気町ヴィソン６７２－１ 本草湯２",
      "lat": 34.496156,
      "lng": 136.546149,
      "geocoding_level": 2,
      "phone": "",
      "license_no": "松2101-0003",
      "license_date": null,
      "expire_date": null
    },
    {
      "name": "ヴィソン多気株式会社",
      "name_kana": "",
      "business_type": "飲食店営業",
      "address": "多気郡多気町ヴィソン６７２－１ 本草湯１",
      "lat": 34.496156,
      "lng": 136.546149,
      "geocoding_level": 2,
      "phone": "",
      "license_no": "松2101-0004",
      "license_date": null,
      "expire_date": null
    },
    {
      "name": "株式会社トモ",
      "name_kana": "",
      "business_type": "飲食店営業",
      "address": "多気郡多気町古江１５１２－１",
      "lat": 34.456607317,
      "lng": 136.488569949,
      "geocoding_level": 8,
      "phone": "0598-49-8858",
      "license_no": "松2101-0009",
      "license_date": null,
      "expire_date": null
    },
    {
      "name": "株式会社りんねしゃ",
      "name_kana": "",
      "business_type": "飲食店営業",
      "address": "多気郡多気町ヴィソン６７２－１",
      "lat": 34.496156,
      "lng": 136.546149,
      "geocoding_level": 2,
      "phone": "0598-39-3190",
      "license_no": "松2101-0012",
      "license_date": null,
      "expire_date": null
    },
    {
      "name": "ヴィソン多気株式会社",
      "name_kana": "",
      "business_type": "飲食店営業",
      "address": "多気郡多気町ヴィソン６７２－１　 農園１",
      "lat": 34.496156,
      "lng": 136.546149,
      "geocoding_level": 2,
      "phone": "0598-67-8299",
      "license_no": "松2101-0103",
      "license_date": null,
      "expire_date": null
    },
    {
      "name": "辻　良平",
      "name_kana": "",
      "business_type": "飲食店営業",
      "address": "多気郡多気町相可１５０８－１",
      "lat": 34.49761800000001,
      "lng": 136.541041,
      "geocoding_level": 3,
      "phone": "0598-38-1088",
      "license_no": "松2101-0080",
      "license_date": null,
      "expire_date": null
    },
    {
      "name": "園田正実",
      "name_kana": "",
      "business_type": "豆腐製造業",
      "address": "多気郡多気町佐伯中７５",
      "lat": 34.495757,
      "lng": 136.518525,
      "geocoding_level": 3,
      "phone": "0598-38-2575",
      "license_no": "松2122-0002",
      "license_date": null,
      "expire_date": null
    },
    {
      "name": "株式会社アクアイグニスアートマネジメント",
      "name_kana": "",
      "business_type": "飲食店営業",
      "address": "多気郡多気町ヴィソン６７２－１　 アトリエ３",
      "lat": 34.496156,
      "lng": 136.546149,
      "geocoding_level": 2,
      "phone": "0598-67-0725",
      "license_no": "松2101-0072",
      "license_date": null,
      "expire_date": null
    },
    {
      "name": "株式会社アクアイグニスアートマネジメント",
      "name_kana": "",
      "business_type": "飲食店営業",
      "address": "多気郡多気町ヴィソン６７２－１　 サンセバスチャン通り６",
      "lat": 34.496156,
      "lng": 136.546149,
      "geocoding_level": 2,
      "phone": "0598-67-8570",
      "license_no": "松2101-0082",
      "license_date": null,
      "expire_date": null
    },
    {
      "name": "有限会社伊勢和",
      "name_kana": "",
      "business_type": "飲食店営業",
      "address": "多気郡多気町ヴィソン６７２－１　 蔵前１８",
      "lat": 34.496156,
      "lng": 136.546149,
      "geocoding_level": 2,
      "phone": "0598-67-2525",
      "license_no": "松2101-0125",
      "license_date": null,
      "expire_date": null
    },
    {
      "name": "井村屋フードサービス株式会社",
      "name_kana": "",
      "business_type": "飲食店営業",
      "address": "多気郡多気町ヴィソン６７２－１ サンセバスチャン通り９",
      "lat": 34.496156,
      "lng": 136.546149,
      "geocoding_level": 2,
      "phone": "0598-67-2920",
      "license_no": "松2101-0059",
      "license_date": null,
      "expire_date": null
    },
    {
      "name": "有限会社くるみの木",
      "name_kana": "",
      "business_type": "飲食店営業",
      "address": "多気郡多気町ヴィソン６７２－１ サンセバスチャン通り１０",
      "lat": 34.496156,
      "lng": 136.546149,
      "geocoding_level": 2,
      "phone": "",
      "license_no": "松2101-0127",
      "license_date": null,
      "expire_date": null
    },
    {
      "name": "株式会社伊勢国天孝",
      "name_kana": "",
      "business_type": "飲食店営業",
      "address": "多気郡多気町ヴィソン６７２－１ 食祭６",
      "lat": 34.496156,
      "lng": 136.546149,
      "geocoding_level": 2,
      "phone": "0598-67-6554",
      "license_no": "松2101-0077",
      "license_date": null,
      "expire_date": null
    },
    {
      "name": "冨山茂樹",
      "name_kana": "",
      "business_type": "飲食店営業",
      "address": "多気郡多気町ヴィソン６７２－１ サンセバスチャン通り１２",
      "lat": 34.496156,
      "lng": 136.546149,
      "geocoding_level": 2,
      "phone": "",
      "license_no": "松2101-0075",
      "license_date": null,
      "expire_date": null
    },
    {
      "name": "株式会社トーエー",
      "name_kana": "",
      "business_type": "飲食店営業",
      "address": "多気郡多気町ヴィソン６７２－１ 蔵前２３",
      "lat": 34.496156,
      "lng": 136.546149,
      "geocoding_level": 2,
      "phone": "0598-67-9390",
      "license_no": "松2101-0074",
      "license_date": null,
      "expire_date": null
    },
    {
      "name": "株式会社地域資源バンクＮＩＵ",
      "name_kana": "",
      "business_type": "飲食店営業",
      "address": "多気郡多気町ヴィソン６７２－１　 サンセバスチャン通り１３",
      "lat": 34.496156,
      "lng": 136.546149,
      "geocoding_level": 2,
      "phone": "",
      "license_no": "松2101-0060",
      "license_date": null,
      "expire_date": null
    },
    {
      "name": "伊藤愛三郎",
      "name_kana": "",
      "business_type": "飲食店営業",
      "address": "多気郡多気町ヴィソン６７２－１　 旨味１５",
      "lat": 34.496156,
      "lng": 136.546149,
      "geocoding_level": 2,
      "phone": "0598-67-6306",
      "license_no": "松2101-0071",
      "license_date": null,
      "expire_date": null
    },
    {
      "name": "伊藤愛三郎",
      "name_kana": "",
      "business_type": "麺類製造業",
      "address": "多気郡多気町ヴィソン６７２－１　 旨味１５",
      "lat": 34.496156,
      "lng": 136.546149,
      "geocoding_level": 2,
      "phone": "0598-67-6306",
      "license_no": "松2124-0001",
      "license_date": null,
      "expire_date": null
    },
    {
      "name": "ヤマモリ株式会社",
      "name_kana": "",
      "business_type": "飲食店営業",
      "address": "多気郡多気町ヴィソン６７２ー１　 蔵前２１",
      "lat": 34.496156,
      "lng": 136.546149,
      "geocoding_level": 2,
      "phone": "0598-67-4700",
      "license_no": "松2101-0073",
      "license_date": null,
      "expire_date": null
    },
    {
      "name": "嬉野食品工業有限会社",
      "name_kana": "",
      "business_type": "飲食店営業",
      "address": "多気郡多気町ヴィソン６７２－１ 旨味１３",
      "lat": 34.496156,
      "lng": 136.546149,
      "geocoding_level": 2,
      "phone": "",
      "license_no": "松2101-0078",
      "license_date": null,
      "expire_date": null
    },
    {
      "name": "ヴィソン多気株式会社",
      "name_kana": "",
      "business_type": "飲食店営業",
      "address": "多気郡多気町ヴィソン６７２－１　 旨味１７",
      "lat": 34.496156,
      "lng": 136.546149,
      "geocoding_level": 2,
      "phone": "0598-67-9952",
      "license_no": "松2101-0079",
      "license_date": null,
      "expire_date": null
    },
    {
      "name": "株式会社角谷文治郎商店",
      "name_kana": "",
      "business_type": "酒類製造業",
      "address": "多気郡多気町ヴィソン６７２－１ 蔵前２２",
      "lat": 34.496156,
      "lng": 136.546149,
      "geocoding_level": 2,
      "phone": "",
      "license_no": "松2121-0001",
      "license_date": null,
      "expire_date": null
    },
    {
      "name": "ヴィソン多気株式会社",
      "name_kana": "",
      "business_type": "飲食店営業",
      "address": "多気郡多気町ヴィソン６７２ー１　 ホテルヴィソン１０階",
      "lat": 34.496156,
      "lng": 136.546149,
      "geocoding_level": 2,
      "phone": "",
      "license_no": "松2101-0100",
      "license_date": null,
      "expire_date": null
    },
    {
      "name": "ヴィソン多気株式会社",
      "name_kana": "",
      "business_type": "飲食店営業",
      "address": "多気郡多気町ヴィソン６７２ー１　 サンセバスチャン通り４",
      "lat": 34.496156,
      "lng": 136.546149,
      "geocoding_level": 2,
      "phone": "",
      "license_no": "松2101-0102",
      "license_date": null,
      "expire_date": null
    },
    {
      "name": "ヴィソン多気株式会社",
      "name_kana": "",
      "business_type": "飲食店営業",
      "address": "多気郡多気町ヴィソン６７２－１　 サンセバスチャン通り１",
      "lat": 34.496156,
      "lng": 136.546149,
      "geocoding_level": 2,
      "phone": "",
      "license_no": "松2101-0101",
      "license_date": null,
      "expire_date": null
    },
    {
      "name": "加納コーポレーション株式会社",
      "name_kana": "",
      "business_type": "飲食店営業",
      "address": "多気郡多気町ヴィソン６７２－１ 食祭７",
      "lat": 34.496156,
      "lng": 136.546149,
      "geocoding_level": 2,
      "phone": "0598-67-8200",
      "license_no": "松2101-0099",
      "license_date": null,
      "expire_date": null
    },
    {
      "name": "西村智彦",
      "name_kana": "",
      "business_type": "飲食店営業",
      "address": "多気郡多気町ヴィソン６７２－１　 旨味１２",
      "lat": 34.496156,
      "lng": 136.546149,
      "geocoding_level": 2,
      "phone": "0598-67-9129",
      "license_no": "松2101-0128",
      "license_date": null,
      "expire_date": null
    },
    {
      "name": "マルコメ株式会社",
      "name_kana": "",
      "business_type": "飲食店営業",
      "address": "多気郡多気町ヴィソン６７２－１　 サンセバスチャン通り８",
      "lat": 34.496156,
      "lng": 136.546149,
      "geocoding_level": 2,
      "phone": "0598-67-2451",
      "license_no": "松2101-0126",
      "license_date": null,
      "expire_date": null
    },
    {
      "name": "マルコメ株式会社",
      "name_kana": "",
      "business_type": "アイスクリーム類製造業",
      "address": "多気郡多気町ヴィソン６７２－１ サンセバスチャン通り８",
      "lat": 34.496156,
      "lng": 136.546149,
      "geocoding_level": 2,
      "phone": "0598-67-2451",
      "license_no": "松2112-0001",
      "license_date": null,
      "expire_date": null
    },
    {
      "name": "株式会社ｃｏｄｅ",
      "name_kana": "",
      "business_type": "飲食店営業",
      "address": "多気郡多気町ヴィソン６７２－１ 旨味８",
      "lat": 34.496156,
      "lng": 136.546149,
      "geocoding_level": 2,
      "phone": "0598-67-8858",
      "license_no": "松2101-0098",
      "license_date": null,
      "expire_date": null
    },
    {
      "name": "株式会社ワイエムダイニング",
      "name_kana": "",
      "business_type": "飲食店営業",
      "address": "多気郡多気町ヴィソン６７２－１ 旨味１１",
      "lat": 34.496156,
      "lng": 136.546149,
      "geocoding_level": 2,
      "phone": "0598-67-7839",
      "license_no": "松2101-0124",
      "license_date": null,
      "expire_date": null
    },
    {
      "name": "近藤康夫",
      "name_kana": "",
      "business_type": "飲食店営業",
      "address": "多気郡多気町ヴィソン６７２－１ 食祭１　ダイニングホール１",
      "lat": 34.496156,
      "lng": 136.546149,
      "geocoding_level": 2,
      "phone": "0598-39-3190",
      "license_no": "松2101-0114",
      "license_date": null,
      "expire_date": null
    },
    {
      "name": "近藤康夫",
      "name_kana": "",
      "business_type": "飲食店営業",
      "address": "多気郡多気町ヴィソン６７２－１ 食祭１　ダイニングホール２",
      "lat": 34.496156,
      "lng": 136.546149,
      "geocoding_level": 2,
      "phone": "0598-39-3190",
      "license_no": "松2101-0113",
      "license_date": null,
      "expire_date": null
    },
    {
      "name": "近藤康夫",
      "name_kana": "",
      "business_type": "飲食店営業",
      "address": "多気郡多気町ヴィソン６７２－１ 食祭１　ダイニングホール３",
      "lat": 34.496156,
      "lng": 136.546149,
      "geocoding_level": 2,
      "phone": "0598-39-3190",
      "license_no": "松2101-0108",
      "license_date": null,
      "expire_date": null
    },
    {
      "name": "川瀬哲也",
      "name_kana": "",
      "business_type": "飲食店営業",
      "address": "多気郡多気町ヴィソン６７２－１ 食祭１　ダイニングホール６",
      "lat": 34.496156,
      "lng": 136.546149,
      "geocoding_level": 2,
      "phone": "0598-39-3190",
      "license_no": "松2101-0110",
      "license_date": null,
      "expire_date": null
    },
    {
      "name": "有限会社輪音ｃｒｅａｔｉｏｎ厨",
      "name_kana": "",
      "business_type": "飲食店営業",
      "address": "多気郡多気町ヴィソン６７２－１ 食祭１　ダイニングホール８",
      "lat": 34.496156,
      "lng": 136.546149,
      "geocoding_level": 2,
      "phone": "0598-39-3190",
      "license_no": "松2101-0109",
      "license_date": null,
      "expire_date": null
    },
    {
      "name": "野間　凌",
      "name_kana": "",
      "business_type": "飲食店営業",
      "address": "多気郡多気町ヴィソン６７２－１ 食祭１　ダイニングホール９",
      "lat": 34.496156,
      "lng": 136.546149,
      "geocoding_level": 2,
      "phone": "0598-39-3190",
      "license_no": "松2101-0122",
      "license_date": null,
      "expire_date": null
    },
    {
      "name": "野村祐輔",
      "name_kana": "",
      "business_type": "飲食店営業",
      "address": "多気郡多気町ヴィソン６７２－１ 食祭１　ダイニングホール１０",
      "lat": 34.496156,
      "lng": 136.546149,
      "geocoding_level": 2,
      "phone": "0598-39-3190",
      "license_no": "松2101-0111",
      "license_date": null,
      "expire_date": null
    },
    {
      "name": "三紀産業株式会社",
      "name_kana": "",
      "business_type": "飲食店営業",
      "address": "多気郡多気町ヴィソン６７２－１ 食祭１　ダイニングホール１１",
      "lat": 34.496156,
      "lng": 136.546149,
      "geocoding_level": 2,
      "phone": "0598-39-3190",
      "license_no": "松2101-0123",
      "license_date": null,
      "expire_date": null
    },
    {
      "name": "鈴木健介",
      "name_kana": "",
      "business_type": "飲食店営業",
      "address": "多気郡多気町ヴィソン６７２－１ 食祭１　ダイニングホール１２",
      "lat": 34.496156,
      "lng": 136.546149,
      "geocoding_level": 2,
      "phone": "0598-39-3190",
      "license_no": "松2101-0120",
      "license_date": null,
      "expire_date": null
    },
    {
      "name": "インテグラル株式会社",
      "name_kana": "",
      "business_type": "飲食店営業",
      "address": "多気郡多気町ヴィソン６７２－１ 食祭１　ダイニングホール１８",
      "lat": 34.496156,
      "lng": 136.546149,
      "geocoding_level": 2,
      "phone": "0598-39-3190",
      "license_no": "松2101-0112",
      "license_date": null,
      "expire_date": null
    },
    {
      "name": "株式会社柊フードクリエイターズ",
      "name_kana": "",
      "business_type": "飲食店営業",
      "address": "多気郡多気町ヴィソン６７２－１ 食祭１　ダイニングホール１６",
      "lat": 34.496156,
      "lng": 136.546149,
      "geocoding_level": 2,
      "phone": "0598-39-3190",
      "license_no": "松2101-0106",
      "license_date": null,
      "expire_date": null
    },
    {
      "name": "株式会社デコール",
      "name_kana": "",
      "business_type": "飲食店営業",
      "address": "多気郡多気町ヴィソン６７２－１ 食祭１　ダイニングホール１７",
      "lat": 34.496156,
      "lng": 136.546149,
      "geocoding_level": 2,
      "phone": "0598-39-3190",
      "license_no": "松2101-0107",
      "license_date": null,
      "expire_date": null
    },
    {
      "name": "深田　均",
      "name_kana": "",
      "business_type": "飲食店営業",
      "address": "多気郡多気町片野１０５８",
      "lat": 34.47363,
      "lng": 136.451176,
      "geocoding_level": 3,
      "phone": "0598-49-2046",
      "license_no": "松2101-0139",
      "license_date": null,
      "expire_date": null
    },
    {
      "name": "深田　均",
      "name_kana": "",
      "business_type": "麺類製造業",
      "address": "多気郡多気町片野１０５８",
      "lat": 34.47363,
      "lng": 136.451176,
      "geocoding_level": 3,
      "phone": "0598-49-2046",
      "license_no": "松2124-0002",
      "license_date": null,
      "expire_date": null
    },
    {
      "name": "深田　均",
      "name_kana": "",
      "business_type": "魚介類販売業",
      "address": "多気郡多気町片野１０５８",
      "lat": 34.47363,
      "lng": 136.451176,
      "geocoding_level": 3,
      "phone": "0598-49-2046",
      "license_no": "松2104-0004",
      "license_date": null,
      "expire_date": null
    },
    {
      "name": "森　一馬",
      "name_kana": "",
      "business_type": "飲食店営業",
      "address": "多気郡多気町相可１３７１－１ 泉ビルⅢ",
      "lat": 34.49761800000001,
      "lng": 136.541041,
      "geocoding_level": 3,
      "phone": "070-2284-8113",
      "license_no": "松2101-0151",
      "license_date": null,
      "expire_date": null
    },
    {
      "name": "有限会社魚友",
      "name_kana": "",
      "business_type": "飲食店営業",
      "address": "多気郡多気町相可台４３－１",
      "lat": 34.500256,
      "lng": 136.548547,
      "geocoding_level": 3,
      "phone": "0598-38-1999",
      "license_no": "松2101-0154",
      "license_date": null,
      "expire_date": null
    },
    {
      "name": "梅村和子",
      "name_kana": "",
      "business_type": "飲食店営業",
      "address": "多気郡多気町河田１４１０－３",
      "lat": 34.516955,
      "lng": 136.584005,
      "geocoding_level": 3,
      "phone": "",
      "license_no": "松2101-0156",
      "license_date": null,
      "expire_date": null
    },
    {
      "name": "株式会社奥井海生堂",
      "name_kana": "",
      "business_type": "飲食店営業",
      "address": "多気郡多気町ヴィソン６７２－１ 蔵前１９",
      "lat": 34.496156,
      "lng": 136.546149,
      "geocoding_level": 2,
      "phone": "0598-67-7887",
      "license_no": "松2101-0203",
      "license_date": null,
      "expire_date": null
    },
    {
      "name": "加藤理恵",
      "name_kana": "",
      "business_type": "飲食店営業",
      "address": "多気郡多気町五桂４８－１",
      "lat": 34.469845,
      "lng": 136.546347,
      "geocoding_level": 3,
      "phone": "",
      "license_no": "松2101-0211",
      "license_date": null,
      "expire_date": null
    },
    {
      "name": "山嵜　保",
      "name_kana": "",
      "business_type": "そうざい製造業",
      "address": "多気郡多気町片野８１－２３２",
      "lat": 34.481947108,
      "lng": 136.451665893,
      "geocoding_level": 8,
      "phone": "0598-49-2698",
      "license_no": "松2125-0007",
      "license_date": null,
      "expire_date": null
    },
    {
      "name": "株式会社竜吟虎嘯",
      "name_kana": "",
      "business_type": "飲食店営業",
      "address": "多気郡多気町ヴィソン６７２－１ マルシェ１１",
      "lat": 34.496156,
      "lng": 136.546149,
      "geocoding_level": 2,
      "phone": "",
      "license_no": "松2101-0266",
      "license_date": null,
      "expire_date": null
    },
    {
      "name": "株式会社竜吟虎嘯",
      "name_kana": "",
      "business_type": "飲食店営業",
      "address": "多気郡多気町ヴィソン６７２－１ マルシェ１４",
      "lat": 34.496156,
      "lng": 136.546149,
      "geocoding_level": 2,
      "phone": "0598-67-9743",
      "license_no": "松2101-0265",
      "license_date": null,
      "expire_date": null
    },
    {
      "name": "株式会社竜吟虎嘯",
      "name_kana": "",
      "business_type": "飲食店営業",
      "address": "多気郡多気町ヴィソン６７２－１ マルシェ１５",
      "lat": 34.496156,
      "lng": 136.546149,
      "geocoding_level": 2,
      "phone": "0598-67-8283",
      "license_no": "松2101-0264",
      "license_date": null,
      "expire_date": null
    },
    {
      "name": "株式会社竜吟虎嘯",
      "name_kana": "",
      "business_type": "食肉処理業",
      "address": "多気郡多気町ヴィソン６７２－１ マルシェ１５",
      "lat": 34.496156,
      "lng": 136.546149,
      "geocoding_level": 2,
      "phone": "0598-67-8283",
      "license_no": "松2109-0007",
      "license_date": null,
      "expire_date": null
    },
    {
      "name": "株式会社シーブリーム",
      "name_kana": "",
      "business_type": "飲食店営業",
      "address": "多気郡多気町ヴィソン６７２－１ マルシェ３３",
      "lat": 34.496156,
      "lng": 136.546149,
      "geocoding_level": 2,
      "phone": "0598-67-5743",
      "license_no": "松2101-0267",
      "license_date": null,
      "expire_date": null
    },
    {
      "name": "株式会社シーブリーム",
      "name_kana": "",
      "business_type": "菓子製造業",
      "address": "多気郡多気町ヴィソン６７２－１ マルシェ３３",
      "lat": 34.496156,
      "lng": 136.546149,
      "geocoding_level": 2,
      "phone": "0598-67-5743",
      "license_no": "松2111-0026",
      "license_date": null,
      "expire_date": null
    },
    {
      "name": "河武醸造株式会社",
      "name_kana": "",
      "business_type": "酒類製造業",
      "address": "多気郡多気町五桂２３４",
      "lat": 34.469845,
      "lng": 136.546347,
      "geocoding_level": 3,
      "phone": "0598-37-2037",
      "license_no": "松2121-0003",
      "license_date": null,
      "expire_date": null
    },
    {
      "name": "河武醸造株式会社",
      "name_kana": "",
      "business_type": "みそ又はしょうゆ製造業",
      "address": "多気郡多気町五桂２３４",
      "lat": 34.469845,
      "lng": 136.546347,
      "geocoding_level": 3,
      "phone": "0598-37-2037",
      "license_no": "松2120-0001",
      "license_date": null,
      "expire_date": null
    },
    {
      "name": "有限会社みなとや",
      "name_kana": "",
      "business_type": "そうざい製造業",
      "address": "多気郡多気町相可１７９",
      "lat": 34.49761800000001,
      "lng": 136.541041,
      "geocoding_level": 3,
      "phone": "0598-38-2007",
      "license_no": "松2125-0008",
      "license_date": null,
      "expire_date": null
    },
    {
      "name": "谷口龍一",
      "name_kana": "",
      "business_type": "漬物製造業",
      "address": "多気郡多気町前村９２９－７",
      "lat": 34.465688,
      "lng": 136.522875,
      "geocoding_level": 3,
      "phone": "0598-37-2204",
      "license_no": "松2129-0001",
      "license_date": null,
      "expire_date": null
    },
    {
      "name": "河合重人",
      "name_kana": "",
      "business_type": "密封包装食品製造業",
      "address": "多気郡多気町油夫８８９",
      "lat": 34.473428,
      "lng": 136.558643,
      "geocoding_level": 3,
      "phone": "080-1116-3715",
      "license_no": "松2130-0002",
      "license_date": null,
      "expire_date": null
    },
    {
      "name": "河合重人",
      "name_kana": "",
      "business_type": "菓子製造業",
      "address": "多気郡多気町油夫８８９",
      "lat": 34.473428,
      "lng": 136.558643,
      "geocoding_level": 3,
      "phone": "080-1116-3715",
      "license_no": "松2111-0044",
      "license_date": null,
      "expire_date": null
    },
    {
      "name": "近藤康夫",
      "name_kana": "",
      "business_type": "飲食店営業",
      "address": "多気郡多気町ヴィソン６７２－１ 食祭１　ダイニングホール４",
      "lat": 34.496156,
      "lng": 136.546149,
      "geocoding_level": 2,
      "phone": "0598-39-3190",
      "license_no": "松2101-0313",
      "license_date": null,
      "expire_date": null
    },
    {
      "name": "株式会社ＦＯＯＤ＆ＤＲＩＮＫ　ＢＡＮＫ",
      "name_kana": "",
      "business_type": "飲食店営業",
      "address": "多気郡多気町ヴィソン６７２－１ 食祭１　ダイニングホール７",
      "lat": 34.496156,
      "lng": 136.546149,
      "geocoding_level": 2,
      "phone": "0598-39-3190",
      "license_no": "松2101-0314",
      "license_date": null,
      "expire_date": null
    },
    {
      "name": "株式会社ＦＯＯＤ＆ＤＲＩＮＫ　ＢＡＮＫ",
      "name_kana": "",
      "business_type": "飲食店営業",
      "address": "多気郡多気町ヴィソン６７２－１ 食祭１　ダイニングホール１３",
      "lat": 34.496156,
      "lng": 136.546149,
      "geocoding_level": 2,
      "phone": "0598-39-3190",
      "license_no": "松2101-0316",
      "license_date": null,
      "expire_date": null
    },
    {
      "name": "近藤康夫",
      "name_kana": "",
      "business_type": "飲食店営業",
      "address": "多気郡多気町ヴィソン６７２－１ 食祭１　ダイニングホール１５",
      "lat": 34.496156,
      "lng": 136.546149,
      "geocoding_level": 2,
      "phone": "0598-39-3190",
      "license_no": "松2101-0318",
      "license_date": null,
      "expire_date": null
    },
    {
      "name": "株式会社ＦＯＯＤ＆ＤＲＩＮＫ　ＢＡＮＫ",
      "name_kana": "",
      "business_type": "飲食店営業",
      "address": "多気郡多気町ヴィソン６７２－１ 食祭１　ダイニングホール８",
      "lat": 34.496156,
      "lng": 136.546149,
      "geocoding_level": 2,
      "phone": "0598-39-3190",
      "license_no": "松2101-0315",
      "license_date": null,
      "expire_date": null
    },
    {
      "name": "野呂喜美",
      "name_kana": "",
      "business_type": "飲食店営業",
      "address": "多気郡多気町丹生４５１０－３",
      "lat": 34.473504,
      "lng": 136.49629,
      "geocoding_level": 3,
      "phone": "080-6908-1107",
      "license_no": "松2101-0307",
      "license_date": null,
      "expire_date": null
    },
    {
      "name": "株式会社つけもの工房花谷",
      "name_kana": "",
      "business_type": "漬物製造業",
      "address": "多気郡多気町五桂５６８－４",
      "lat": 34.469845,
      "lng": 136.546347,
      "geocoding_level": 3,
      "phone": "0598-39-3306",
      "license_no": "松2129-0004",
      "license_date": null,
      "expire_date": null
    },
    {
      "name": "逵　ふじ子",
      "name_kana": "",
      "business_type": "漬物製造業",
      "address": "多気郡多気町相鹿瀬９８１",
      "lat": 34.455911,
      "lng": 136.559959,
      "geocoding_level": 3,
      "phone": "0598-39-3179",
      "license_no": "松2129-0007",
      "license_date": null,
      "expire_date": null
    },
    {
      "name": "髙瀬鶴代",
      "name_kana": "",
      "business_type": "漬物製造業",
      "address": "多気郡多気町牧６４－１",
      "lat": 34.50277500000001,
      "lng": 136.490494,
      "geocoding_level": 3,
      "phone": "",
      "license_no": "松2129-0009",
      "license_date": null,
      "expire_date": null
    },
    {
      "name": "多気郡農業協同組合",
      "name_kana": "",
      "business_type": "飲食店営業",
      "address": "多気郡多気町五佐奈１１４７－１２",
      "lat": 34.497366,
      "lng": 136.562948,
      "geocoding_level": 3,
      "phone": "0598-38-7800",
      "license_no": "松2101-0344",
      "license_date": null,
      "expire_date": null
    },
    {
      "name": "株式会社うおすけ",
      "name_kana": "",
      "business_type": "飲食店営業",
      "address": "多気郡多気町相鹿瀬６１５",
      "lat": 34.455911,
      "lng": 136.559959,
      "geocoding_level": 3,
      "phone": "0598-39-8080",
      "license_no": "松2101-0345",
      "license_date": null,
      "expire_date": null
    },
    {
      "name": "大西　榮",
      "name_kana": "",
      "business_type": "漬物製造業",
      "address": "多気郡多気町野中１４８３－１",
      "lat": 34.46596,
      "lng": 136.572356,
      "geocoding_level": 3,
      "phone": "",
      "license_no": "松2129-0008",
      "license_date": null,
      "expire_date": null
    },
    {
      "name": "農事組合法人元丈の里営農組合",
      "name_kana": "",
      "business_type": "漬物製造業",
      "address": "多気郡多気町波多瀬６８１－５",
      "lat": 34.475575419,
      "lng": 136.432395548,
      "geocoding_level": 8,
      "phone": "090-2185-7027",
      "license_no": "松2129-0010",
      "license_date": null,
      "expire_date": null
    },
    {
      "name": "株式会社百福",
      "name_kana": "",
      "business_type": "飲食店営業",
      "address": "多気郡多気町ヴィソン６７２－１ 旨味１２",
      "lat": 34.496156,
      "lng": 136.546149,
      "geocoding_level": 2,
      "phone": "0598-67-9129",
      "license_no": "松2101-0407",
      "license_date": null,
      "expire_date": null
    },
    {
      "name": "株式会社菜のはな",
      "name_kana": "",
      "business_type": "飲食店営業",
      "address": "多気郡多気町土羽６５９－１０",
      "lat": 34.501084,
      "lng": 136.585617,
      "geocoding_level": 3,
      "phone": "0598-39-6188",
      "license_no": "松2101-0420",
      "license_date": null,
      "expire_date": null
    },
    {
      "name": "野呂いのり",
      "name_kana": "",
      "business_type": "飲食店営業",
      "address": "多気郡多気町朝柄２１７１",
      "lat": 34.45485,
      "lng": 136.441676,
      "geocoding_level": 3,
      "phone": "",
      "license_no": "松2101-0476",
      "license_date": null,
      "expire_date": null
    },
    {
      "name": "一般社団法人ふるさと屋",
      "name_kana": "",
      "business_type": "飲食店営業",
      "address": "多気郡多気町丹生１６２０－１",
      "lat": 34.473504,
      "lng": 136.49629,
      "geocoding_level": 3,
      "phone": "0598-67-5457",
      "license_no": "松2101-0460",
      "license_date": null,
      "expire_date": null
    },
    {
      "name": "一般社団法人医食同源みえ",
      "name_kana": "",
      "business_type": "菓子製造業",
      "address": "多気郡多気町五桂９５６",
      "lat": 34.469845,
      "lng": 136.546347,
      "geocoding_level": 3,
      "phone": "0598-39-3860",
      "license_no": "松2111-0052",
      "license_date": null,
      "expire_date": null
    },
    {
      "name": "大辻　貢",
      "name_kana": "",
      "business_type": "飲食店営業",
      "address": "多気郡多気町弟国２３３－４",
      "lat": 34.519133,
      "lng": 136.574437,
      "geocoding_level": 3,
      "phone": "0598-67-7850",
      "license_no": "松2101-0490",
      "license_date": null,
      "expire_date": null
    },
    {
      "name": "大辻　貢",
      "name_kana": "",
      "business_type": "菓子製造業",
      "address": "多気郡多気町弟国２３３－４",
      "lat": 34.519133,
      "lng": 136.574437,
      "geocoding_level": 3,
      "phone": "0598-67-7850",
      "license_no": "松2111-0053",
      "license_date": null,
      "expire_date": null
    },
    {
      "name": "シダックスフードサービス株式会社",
      "name_kana": "",
      "business_type": "飲食店営業",
      "address": "多気郡多気町西山５２９－８",
      "lat": 34.489563,
      "lng": 136.556903,
      "geocoding_level": 3,
      "phone": "080-8546-4651",
      "license_no": "松2101-0491",
      "license_date": null,
      "expire_date": null
    },
    {
      "name": "古儀　たまみ",
      "name_kana": "",
      "business_type": "菓子製造業",
      "address": "多気郡多気町丹生１７４８",
      "lat": 34.473504,
      "lng": 136.49629,
      "geocoding_level": 3,
      "phone": "080-4216-1285",
      "license_no": "松2211-0001",
      "license_date": null,
      "expire_date": null
    },
    {
      "name": "株式会社玉城",
      "name_kana": "",
      "business_type": "飲食店営業",
      "address": "多気郡多気町相可１０５７－１",
      "lat": 34.49761800000001,
      "lng": 136.541041,
      "geocoding_level": 3,
      "phone": "0598-38-7110",
      "license_no": "松2201-0014",
      "license_date": null,
      "expire_date": null
    },
    {
      "name": "株式会社地主共和商会",
      "name_kana": "",
      "business_type": "飲食店営業",
      "address": "多気郡多気町丹生４５０４－４",
      "lat": 34.473504,
      "lng": 136.49629,
      "geocoding_level": 3,
      "phone": "",
      "license_no": "松2201-0009",
      "license_date": null,
      "expire_date": null
    },
    {
      "name": "染川　智勇",
      "name_kana": "",
      "business_type": "菓子製造業",
      "address": "多気郡多気町神坂１６９ 金剛座寺内",
      "lat": 34.477846,
      "lng": 136.521858,
      "geocoding_level": 3,
      "phone": "090-6041-0193",
      "license_no": "松2211-0008",
      "license_date": null,
      "expire_date": null
    },
    {
      "name": "有限会社せいわの里",
      "name_kana": "",
      "business_type": "豆腐製造業",
      "address": "多気郡多気町丹生５６４３",
      "lat": 34.473504,
      "lng": 136.49629,
      "geocoding_level": 3,
      "phone": "0598-49-4300",
      "license_no": "松2222-0001",
      "license_date": null,
      "expire_date": null
    },
    {
      "name": "有限会社せいわの里",
      "name_kana": "",
      "business_type": "菓子製造業",
      "address": "多気郡多気町丹生５６４３",
      "lat": 34.473504,
      "lng": 136.49629,
      "geocoding_level": 3,
      "phone": "0598-49-4300",
      "license_no": "松2211-0003",
      "license_date": null,
      "expire_date": null
    },
    {
      "name": "有限会社せいわの里",
      "name_kana": "",
      "business_type": "みそ又はしょうゆ製造業",
      "address": "多気郡多気町丹生５６４３",
      "lat": 34.473504,
      "lng": 136.49629,
      "geocoding_level": 3,
      "phone": "0598-49-4300",
      "license_no": "松2220-0001",
      "license_date": null,
      "expire_date": null
    },
    {
      "name": "近藤　康夫",
      "name_kana": "",
      "business_type": "飲食店営業",
      "address": "多気郡多気町ヴィソン６７２－１ 食祭１ダイニングホールブース１７",
      "lat": 34.496156,
      "lng": 136.546149,
      "geocoding_level": 2,
      "phone": "0598-39-3190",
      "license_no": "松2201-0029",
      "license_date": null,
      "expire_date": null
    },
    {
      "name": "有限会社せいわの里",
      "name_kana": "",
      "business_type": "漬物製造業",
      "address": "多気郡多気町丹生５６４３",
      "lat": 34.473504,
      "lng": 136.49629,
      "geocoding_level": 3,
      "phone": "0598-49-4300",
      "license_no": "松2229-0001",
      "license_date": null,
      "expire_date": null
    },
    {
      "name": "株式会社川原製茶",
      "name_kana": "",
      "business_type": "飲食店営業",
      "address": "多気郡多気町丹生４８９４",
      "lat": 34.473504,
      "lng": 136.49629,
      "geocoding_level": 3,
      "phone": "0598-49-4005",
      "license_no": "松2201-0051",
      "license_date": null,
      "expire_date": null
    },
    {
      "name": "近藤　康夫",
      "name_kana": "",
      "business_type": "飲食店営業",
      "address": "多気郡多気町ヴィソン６７２－１ 食祭１ダイニングホールブースＮｏ．０５",
      "lat": 34.496156,
      "lng": 136.546149,
      "geocoding_level": 2,
      "phone": "0598-39-3190",
      "license_no": "松2201-0066",
      "license_date": null,
      "expire_date": null
    },
    {
      "name": "松井　千裕",
      "name_kana": "",
      "business_type": "飲食店営業",
      "address": "多気郡多気町平谷３９－３",
      "lat": 34.477381,
      "lng": 136.537506,
      "geocoding_level": 3,
      "phone": "0598-39-7250",
      "license_no": "松2201-0073",
      "license_date": null,
      "expire_date": null
    },
    {
      "name": "有限会社魚友",
      "name_kana": "",
      "business_type": "菓子製造業",
      "address": "多気郡多気町五桂３４－１",
      "lat": 34.469845,
      "lng": 136.546347,
      "geocoding_level": 3,
      "phone": "0598-37-2107",
      "license_no": "松2211-0019",
      "license_date": null,
      "expire_date": null
    },
    {
      "name": "有限会社魚友",
      "name_kana": "",
      "business_type": "そうざい製造業",
      "address": "多気郡多気町五桂３４－１",
      "lat": 34.469845,
      "lng": 136.546347,
      "geocoding_level": 3,
      "phone": "0598-37-2107",
      "license_no": "松2225-0004",
      "license_date": null,
      "expire_date": null
    },
    {
      "name": "松井　千裕",
      "name_kana": "",
      "business_type": "飲食店営業",
      "address": "多気郡多気町丹生４５０４－４",
      "lat": 34.473504,
      "lng": 136.49629,
      "geocoding_level": 3,
      "phone": "0598-49-8025",
      "license_no": "松2201-0115",
      "license_date": null,
      "expire_date": null
    },
    {
      "name": "株式会社マジェスティックダイニング",
      "name_kana": "",
      "business_type": "飲食店営業",
      "address": "多気郡多気町仁田７５０ 多気クリスタルタウンショッピングセンター内",
      "lat": 34.487368,
      "lng": 136.544239,
      "geocoding_level": 3,
      "phone": "",
      "license_no": "松2201-0126",
      "license_date": null,
      "expire_date": null
    },
    {
      "name": "株式会社はぐみ",
      "name_kana": "",
      "business_type": "飲食店営業",
      "address": "多気郡多気町片野２２５４",
      "lat": 34.465028945,
      "lng": 136.460305115,
      "geocoding_level": 8,
      "phone": "090-7550-9172",
      "license_no": "松2201-0186",
      "license_date": null,
      "expire_date": null
    },
    {
      "name": "有限会社レストハウス柑里",
      "name_kana": "",
      "business_type": "飲食店営業",
      "address": "多気郡多気町平谷３５０",
      "lat": 34.477381,
      "lng": 136.537506,
      "geocoding_level": 3,
      "phone": "0598-39-8778",
      "license_no": "松2201-0244",
      "license_date": null,
      "expire_date": null
    },
    {
      "name": "大西　照夫",
      "name_kana": "",
      "business_type": "菓子製造業",
      "address": "多気郡多気町古江３３１",
      "lat": 34.461655999,
      "lng": 136.468677876,
      "geocoding_level": 8,
      "phone": "0598-49-2019",
      "license_no": "松2211-0043",
      "license_date": null,
      "expire_date": null
    },
    {
      "name": "山邊　直也",
      "name_kana": "",
      "business_type": "飲食店営業",
      "address": "多気郡多気町相可６０３－３",
      "lat": 34.49761800000001,
      "lng": 136.541041,
      "geocoding_level": 3,
      "phone": "0598-38-3438",
      "license_no": "松2201-0344",
      "license_date": null,
      "expire_date": null
    },
    {
      "name": "株式会社ＦＯＯＤ＆ＤＲＩＮＫ　ＢＡＮＫ",
      "name_kana": "",
      "business_type": "飲食店営業",
      "address": "多気郡多気町ヴィソン６７２－１ 食祭１ダイニングホールブースＮｏ．１７",
      "lat": 34.496156,
      "lng": 136.546149,
      "geocoding_level": 2,
      "phone": "0598-39-3190",
      "license_no": "松2201-0352",
      "license_date": null,
      "expire_date": null
    },
    {
      "name": "農事組合法人丹生営農組合",
      "name_kana": "",
      "business_type": "そうざい製造業",
      "address": "多気郡多気町丹生１７９８－３",
      "lat": 34.473504,
      "lng": 136.49629,
      "geocoding_level": 3,
      "phone": "0598-49-2433",
      "license_no": "松2225-0013",
      "license_date": null,
      "expire_date": null
    },
    {
      "name": "株式会社グリーンズ",
      "name_kana": "",
      "business_type": "飲食店営業",
      "address": "多気郡多気町相可１４８６－１",
      "lat": 34.49761800000001,
      "lng": 136.541041,
      "geocoding_level": 3,
      "phone": "0598-38-8911",
      "license_no": "松2201-0422",
      "license_date": null,
      "expire_date": null
    },
    {
      "name": "西﨑　久美",
      "name_kana": "",
      "business_type": "菓子製造業",
      "address": "多気郡多気町東池上１７９－７",
      "lat": 34.50818,
      "lng": 136.577946,
      "geocoding_level": 3,
      "phone": "",
      "license_no": "松2211-0060",
      "license_date": null,
      "expire_date": null
    },
    {
      "name": "立岡　昭彦",
      "name_kana": "",
      "business_type": "菓子製造業",
      "address": "多気郡多気町笠木６８８－１",
      "lat": 34.490369,
      "lng": 136.580094,
      "geocoding_level": 3,
      "phone": "090-5856-9744",
      "license_no": "松2211-0067",
      "license_date": null,
      "expire_date": null
    },
    {
      "name": "株式会社輝",
      "name_kana": "",
      "business_type": "飲食店営業",
      "address": "多気郡多気町仁田６８１－１",
      "lat": 34.487368,
      "lng": 136.544239,
      "geocoding_level": 3,
      "phone": "0598-37-2112",
      "license_no": "松2201-0558",
      "license_date": null,
      "expire_date": null
    },
    {
      "name": "一般社団法人医食同源みえ",
      "name_kana": "",
      "business_type": "飲食店営業",
      "address": "多気郡多気町五桂９５６",
      "lat": 34.469845,
      "lng": 136.546347,
      "geocoding_level": 3,
      "phone": "0598-67-6196",
      "license_no": "松2301-0013",
      "license_date": null,
      "expire_date": null
    },
    {
      "name": "Ｓ－ＤＲＥＡＭ株式会社",
      "name_kana": "",
      "business_type": "飲食店営業",
      "address": "多気郡多気町ヴィソン６７２－１ マルシェ３４",
      "lat": 34.496156,
      "lng": 136.546149,
      "geocoding_level": 2,
      "phone": "0598-67-9987",
      "license_no": "松2301-0024",
      "license_date": null,
      "expire_date": null
    },
    {
      "name": "小松　一茂",
      "name_kana": "",
      "business_type": "飲食店営業",
      "address": "多気郡多気町仁田７３７－５",
      "lat": 34.487368,
      "lng": 136.544239,
      "geocoding_level": 3,
      "phone": "",
      "license_no": "松2301-0104",
      "license_date": null,
      "expire_date": null
    },
    {
      "name": "杉本　竜也",
      "name_kana": "",
      "business_type": "飲食店営業",
      "address": "多気郡多気町相可１３６５－１ アドバンスタウン１－７",
      "lat": 34.49761800000001,
      "lng": 136.541041,
      "geocoding_level": 3,
      "phone": "",
      "license_no": "松2301-0107",
      "license_date": null,
      "expire_date": null
    },
    {
      "name": "ヴィソン多気株式会社",
      "name_kana": "",
      "business_type": "飲食店営業",
      "address": "多気郡多気町ヴィソン６７２－１ 食祭１ダイニングホール　ブースＮｏ．１８",
      "lat": 34.496156,
      "lng": 136.546149,
      "geocoding_level": 2,
      "phone": "0598-67-2921",
      "license_no": "松2301-0150",
      "license_date": null,
      "expire_date": null
    },
    {
      "name": "一般社団法人医食同源みえ",
      "name_kana": "",
      "business_type": "飲食店営業",
      "address": "多気郡多気町五桂９５６",
      "lat": 34.469845,
      "lng": 136.546347,
      "geocoding_level": 3,
      "phone": "0598-67-6196",
      "license_no": "松2301-0142",
      "license_date": null,
      "expire_date": null
    },
    {
      "name": "株式会社つけもの工房花谷",
      "name_kana": "",
      "business_type": "飲食店営業",
      "address": "多気郡多気町五桂５６８－４",
      "lat": 34.469845,
      "lng": 136.546347,
      "geocoding_level": 3,
      "phone": "",
      "license_no": "松2301-0179",
      "license_date": null,
      "expire_date": null
    },
    {
      "name": "小野　聡美",
      "name_kana": "",
      "business_type": "飲食店営業",
      "address": "多気郡多気町仁田３６２－１",
      "lat": 34.487368,
      "lng": 136.544239,
      "geocoding_level": 3,
      "phone": "0598-67-4769",
      "license_no": "松2301-0296",
      "license_date": null,
      "expire_date": null
    },
    {
      "name": "小野　聡美",
      "name_kana": "",
      "business_type": "菓子製造業",
      "address": "多気郡多気町仁田３６２－１",
      "lat": 34.487368,
      "lng": 136.544239,
      "geocoding_level": 3,
      "phone": "0598-67-4769",
      "license_no": "松2311-0026",
      "license_date": null,
      "expire_date": null
    },
    {
      "name": "早川　法俊",
      "name_kana": "",
      "business_type": "飲食店営業",
      "address": "多気郡多気町相可１５０８－１",
      "lat": 34.49761800000001,
      "lng": 136.541041,
      "geocoding_level": 3,
      "phone": "",
      "license_no": "松2301-0314",
      "license_date": null,
      "expire_date": null
    },
    {
      "name": "特定非営利活動法人　暖家",
      "name_kana": "",
      "business_type": "密封包装食品製造業",
      "address": "多気郡多気町土屋２８８",
      "lat": 34.443529,
      "lng": 136.46709,
      "geocoding_level": 3,
      "phone": "0598-49-4080",
      "license_no": "松2330-0001",
      "license_date": null,
      "expire_date": null
    },
    {
      "name": "有限会社ナックスフーズ",
      "name_kana": "",
      "business_type": "飲食店営業",
      "address": "多気郡多気町相可字下原１０５７－１",
      "lat": 34.49761800000001,
      "lng": 136.541041,
      "geocoding_level": 3,
      "phone": "0598-38-7110",
      "license_no": "松2301-0382",
      "license_date": null,
      "expire_date": null
    },
    {
      "name": "横山　雄一",
      "name_kana": "",
      "business_type": "飲食店営業",
      "address": "多気郡多気町相可１００２－１",
      "lat": 34.49761800000001,
      "lng": 136.541041,
      "geocoding_level": 3,
      "phone": "0598-38-3174",
      "license_no": "松2301-0621",
      "license_date": null,
      "expire_date": null
    },
    {
      "name": "クロノスイート株式会社",
      "name_kana": "",
      "business_type": "飲食店営業",
      "address": "多気郡多気町ヴィソン６７２－１　マルシェ２０",
      "lat": 34.496156,
      "lng": 136.546149,
      "geocoding_level": 2,
      "phone": "0598-67-9524",
      "license_no": "松2301-0598",
      "license_date": null,
      "expire_date": null
    },
    {
      "name": "髙橋　由美",
      "name_kana": "",
      "business_type": "菓子製造業",
      "address": "多気郡多気町仁田１３８",
      "lat": 34.487368,
      "lng": 136.544239,
      "geocoding_level": 3,
      "phone": "",
      "license_no": "松2311-0058",
      "license_date": null,
      "expire_date": null
    },
    {
      "name": "ＺＥＮ株式会社",
      "name_kana": "",
      "business_type": "飲食店営業",
      "address": "多気郡多気町ヴィソン６７２－１　食祭５",
      "lat": 34.496156,
      "lng": 136.546149,
      "geocoding_level": 2,
      "phone": "",
      "license_no": "松2301-0753",
      "license_date": null,
      "expire_date": null
    },
    {
      "name": "株式会社トモ",
      "name_kana": "",
      "business_type": "飲食店営業",
      "address": "多気郡多気町東池上８００",
      "lat": 34.50818,
      "lng": 136.577946,
      "geocoding_level": 3,
      "phone": "080-1618-1495",
      "license_no": "松2401-0048",
      "license_date": null,
      "expire_date": null
    },
    {
      "name": "有限会社せいわの里",
      "name_kana": "",
      "business_type": "飲食店営業",
      "address": "多気郡多気町丹生５６４３",
      "lat": 34.473504,
      "lng": 136.49629,
      "geocoding_level": 3,
      "phone": "0598-49-4300",
      "license_no": "松2401-0079",
      "license_date": null,
      "expire_date": null
    },
    {
      "name": "宮端　未華",
      "name_kana": "",
      "business_type": "飲食店営業",
      "address": "多気郡多気町仁田７３７－５ テナントサンシャインⅡ",
      "lat": 34.487368,
      "lng": 136.544239,
      "geocoding_level": 3,
      "phone": "",
      "license_no": "松2401-0116",
      "license_date": null,
      "expire_date": null
    },
    {
      "name": "大東　安寿佳",
      "name_kana": "",
      "business_type": "飲食店営業",
      "address": "多気郡多気町相可１３５６－１　アドバンスタウン１－６",
      "lat": 34.49761800000001,
      "lng": 136.541041,
      "geocoding_level": 3,
      "phone": "0598-67-5514",
      "license_no": "松2401-0119",
      "license_date": null,
      "expire_date": null
    },
    {
      "name": "水谷　清美",
      "name_kana": "",
      "business_type": "飲食店営業",
      "address": "多気郡多気町荒蒔４５６－１",
      "lat": 34.505652,
      "lng": 136.551924,
      "geocoding_level": 3,
      "phone": "0598-38-2739",
      "license_no": "松2401-0205",
      "license_date": null,
      "expire_date": null
    },
    {
      "name": "水谷　清美",
      "name_kana": "",
      "business_type": "漬物製造業",
      "address": "多気郡多気町荒蒔４５６－１",
      "lat": 34.505652,
      "lng": 136.551924,
      "geocoding_level": 3,
      "phone": "0598-38-2739",
      "license_no": "松2429-0005",
      "license_date": null,
      "expire_date": null
    },
    {
      "name": "株式会社アクアイグニス",
      "name_kana": "",
      "business_type": "飲食店営業",
      "address": "多気郡多気町ヴィソン６７２－１　農園４",
      "lat": 34.496156,
      "lng": 136.546149,
      "geocoding_level": 2,
      "phone": "0598-67-0698",
      "license_no": "松2401-0195",
      "license_date": null,
      "expire_date": null
    },
    {
      "name": "島田まゆみ",
      "name_kana": "",
      "business_type": "飲食店営業",
      "address": "多気郡多気町野中１１―１",
      "lat": 34.46596,
      "lng": 136.572356,
      "geocoding_level": 3,
      "phone": "090-7684-3616",
      "license_no": "松2401-0277",
      "license_date": null,
      "expire_date": null
    },
    {
      "name": "株式会社アクアイグニスアートマネジメント",
      "name_kana": "",
      "business_type": "菓子製造業",
      "address": "多気郡多気町ヴィソン６７２－１　 サンセバスチャン通り６",
      "lat": 34.496156,
      "lng": 136.546149,
      "geocoding_level": 2,
      "phone": "0598-67-8570",
      "license_no": "松2411-0028",
      "license_date": null,
      "expire_date": null
    },
    {
      "name": "𠮷野　堅",
      "name_kana": "",
      "business_type": "飲食店営業",
      "address": "多気郡多気町相可１７０",
      "lat": 34.49761800000001,
      "lng": 136.541041,
      "geocoding_level": 3,
      "phone": "0598-67-2807",
      "license_no": "松2401-0336",
      "license_date": null,
      "expire_date": null
    },
    {
      "name": "林憲司",
      "name_kana": "",
      "business_type": "菓子製造業",
      "address": "多気郡多気町相可台１４－６",
      "lat": 34.500256,
      "lng": 136.548547,
      "geocoding_level": 3,
      "phone": "",
      "license_no": "松2411-0036",
      "license_date": null,
      "expire_date": null
    },
    {
      "name": "多気郡農業協同組合",
      "name_kana": "",
      "business_type": "漬物製造業",
      "address": "多気郡多気町四神田３４０－２",
      "lat": 34.479395,
      "lng": 136.56297,
      "geocoding_level": 3,
      "phone": "05983-7-2111",
      "license_no": "松2429-0007",
      "license_date": null,
      "expire_date": null
    },
    {
      "name": "倉田馨子",
      "name_kana": "",
      "business_type": "飲食店営業",
      "address": "多気郡多気町相可１３７１－１１ 泉ビル１Ｆ",
      "lat": 34.49761800000001,
      "lng": 136.541041,
      "geocoding_level": 3,
      "phone": "0598-30-8898",
      "license_no": "松2401-0567",
      "license_date": null,
      "expire_date": null
    },
    {
      "name": "倉田馨子",
      "name_kana": "",
      "business_type": "菓子製造業",
      "address": "多気郡多気町相可１３７１－１１ 泉ビル１Ｆ",
      "lat": 34.49761800000001,
      "lng": 136.541041,
      "geocoding_level": 3,
      "phone": "0598-30-8898",
      "license_no": "松2411-0050",
      "license_date": null,
      "expire_date": null
    },
    {
      "name": "北嶋心愛",
      "name_kana": "",
      "business_type": "飲食店営業",
      "address": "多気郡多気町牧９６６",
      "lat": 34.50277500000001,
      "lng": 136.490494,
      "geocoding_level": 3,
      "phone": "080-2525-3482",
      "license_no": "松2401-0732",
      "license_date": null,
      "expire_date": null
    },
    {
      "name": "冨山茂樹",
      "name_kana": "",
      "business_type": "菓子製造業",
      "address": "多気郡多気町ヴィソン６７２－１ サンセバスチャン通り１２",
      "lat": 34.496156,
      "lng": 136.546149,
      "geocoding_level": 2,
      "phone": "0598-67-9470",
      "license_no": "松2511-0002",
      "license_date": null,
      "expire_date": null
    },
    {
      "name": "ミニストップ株式会社",
      "name_kana": "",
      "business_type": "飲食店営業",
      "address": "多気郡多気町相可１００９－４",
      "lat": 34.49761800000001,
      "lng": 136.541041,
      "geocoding_level": 3,
      "phone": "0598-38-1090",
      "license_no": "松2501-0043",
      "license_date": null,
      "expire_date": null
    },
    {
      "name": "社会福祉法人　多気町社会福祉協議会",
      "name_kana": "",
      "business_type": "飲食店営業",
      "address": "多気郡多気町四疋田５８７－１",
      "lat": 34.494747,
      "lng": 136.530398,
      "geocoding_level": 3,
      "phone": "0598-38-8090",
      "license_no": "松2501-0116",
      "license_date": null,
      "expire_date": null
    },
    {
      "name": "ヴィソン多気株式会社",
      "name_kana": "",
      "business_type": "飲食店営業",
      "address": "多気郡多気町ヴィソン６７２－１　 食祭１　ダイニングホール１５＆１６番ブース",
      "lat": 34.496156,
      "lng": 136.546149,
      "geocoding_level": 2,
      "phone": "0598-67-2921",
      "license_no": "松2501-0160",
      "license_date": null,
      "expire_date": null
    },
    {
      "name": "名阪食品株式会社",
      "name_kana": "",
      "business_type": "飲食店営業",
      "address": "多気郡多気町相可風子１８６３－１",
      "lat": 34.49761800000001,
      "lng": 136.541041,
      "geocoding_level": 3,
      "phone": "0598-38-2402",
      "license_no": "松2501-0210",
      "license_date": null,
      "expire_date": null
    },
    {
      "name": "有限会社山喜",
      "name_kana": "",
      "business_type": "飲食店営業",
      "address": "多気郡多気町仁田６９６－１",
      "lat": 34.487368,
      "lng": 136.544239,
      "geocoding_level": 3,
      "phone": "0598-37-2760",
      "license_no": "松2501-0171",
      "license_date": null,
      "expire_date": null
    },
    {
      "name": "田中まり子",
      "name_kana": "",
      "business_type": "飲食店営業",
      "address": "多気郡多気町波多瀬９３１",
      "lat": 34.475680799,
      "lng": 136.429525239,
      "geocoding_level": 8,
      "phone": "0598-49-3352",
      "license_no": "松2501-0208",
      "license_date": null,
      "expire_date": null
    },
    {
      "name": "ヴィソン多気株式会社",
      "name_kana": "",
      "business_type": "飲食店営業",
      "address": "多気郡多気町６７２－１ サンセバスチャン通り７",
      "lat": 34.496156,
      "lng": 136.546149,
      "geocoding_level": 2,
      "phone": "0598-67-9060",
      "license_no": "松2501-0263",
      "license_date": null,
      "expire_date": null
    },
    {
      "name": "ヴィソン多気株式会社",
      "name_kana": "",
      "business_type": "菓子製造業",
      "address": "多気郡多気町６７２－１ サンセバスチャン通り７",
      "lat": 34.496156,
      "lng": 136.546149,
      "geocoding_level": 2,
      "phone": "0598-67-9060",
      "license_no": "松2511-0016",
      "license_date": null,
      "expire_date": null
    },
    {
      "name": "南　真二",
      "name_kana": "",
      "business_type": "飲食店営業",
      "address": "多気郡多気町相可１３７１－１１ 泉ビルⅢ１階",
      "lat": 34.49761800000001,
      "lng": 136.541041,
      "geocoding_level": 3,
      "phone": "",
      "license_no": "松2501-0360",
      "license_date": null,
      "expire_date": null
    },
    {
      "name": "岡　知子",
      "name_kana": "",
      "business_type": "飲食店営業",
      "address": "多気郡多気町仁田７３７－５　テナントサンシャインⅡ　Ａ－１",
      "lat": 34.487368,
      "lng": 136.544239,
      "geocoding_level": 3,
      "phone": "",
      "license_no": "松2501-0333",
      "license_date": null,
      "expire_date": null
    },
    {
      "name": "𠮷野　堅",
      "name_kana": "",
      "business_type": "飲食店営業",
      "address": "多気郡多気町相可１７０",
      "lat": 34.49761800000001,
      "lng": 136.541041,
      "geocoding_level": 3,
      "phone": "0598-67-2807",
      "license_no": "松2501-0352",
      "license_date": null,
      "expire_date": null
    },
    {
      "name": "株式会社なか川",
      "name_kana": "",
      "business_type": "飲食店営業",
      "address": "多気郡多気町ヴィソン６７２－１　マルシェ６",
      "lat": 34.496156,
      "lng": 136.546149,
      "geocoding_level": 2,
      "phone": "0598-67-9466",
      "license_no": "松2501-0361",
      "license_date": null,
      "expire_date": null
    },
    {
      "name": "伊勢志摩ワイナリー株式会社",
      "name_kana": "",
      "business_type": "飲食店営業",
      "address": "多気郡多気町ヴィソン６７２－１ 鮨棟",
      "lat": 34.496156,
      "lng": 136.546149,
      "geocoding_level": 2,
      "phone": "080-2880-7865",
      "license_no": "松2501-0377",
      "license_date": null,
      "expire_date": null
    },
    {
      "name": "大黒天物産株式会社",
      "name_kana": "",
      "business_type": "飲食店営業",
      "address": "多気郡多気町相可８９９",
      "lat": 34.49761800000001,
      "lng": 136.541041,
      "geocoding_level": 3,
      "phone": "0598-38-3660",
      "license_no": "松2501-0393",
      "license_date": null,
      "expire_date": null
    },
    {
      "name": "岩本真実子",
      "name_kana": "",
      "business_type": "菓子製造業",
      "address": "多気郡多気町三疋田２６２－１",
      "lat": 34.494344,
      "lng": 136.523044,
      "geocoding_level": 3,
      "phone": "",
      "license_no": "松2511-0026",
      "license_date": null,
      "expire_date": null
    },
    {
      "name": "農事組合法人　元丈の里営農組合",
      "name_kana": "",
      "business_type": "飲食店営業",
      "address": "多気郡多気町波多瀬６８１－５",
      "lat": 34.475575419,
      "lng": 136.432395548,
      "geocoding_level": 8,
      "phone": "0598-49-3348",
      "license_no": "松2501-0452",
      "license_date": null,
      "expire_date": null
    },
    {
      "name": "坂田千春",
      "name_kana": "",
      "business_type": "飲食店営業",
      "address": "多気郡多気町牧７６",
      "lat": 34.50277500000001,
      "lng": 136.490494,
      "geocoding_level": 3,
      "phone": "090-9188-9907",
      "license_no": "松2501-0512",
      "license_date": null,
      "expire_date": null
    },
    {
      "name": "堀部幸子",
      "name_kana": "",
      "business_type": "飲食店営業",
      "address": "多気郡多気町東池上５１４－３",
      "lat": 34.50818,
      "lng": 136.577946,
      "geocoding_level": 3,
      "phone": "",
      "license_no": "松2501-0557",
      "license_date": null,
      "expire_date": null
    },
    {
      "name": "中野和義",
      "name_kana": "",
      "business_type": "飲食店営業",
      "address": "多気郡多気町仁田７５０ 多気クリスタルタウンショピングセンター",
      "lat": 34.487368,
      "lng": 136.544239,
      "geocoding_level": 3,
      "phone": "0598-30-8797",
      "license_no": "松2501-0673",
      "license_date": null,
      "expire_date": null
    },
    {
      "name": "坂田千春",
      "name_kana": "",
      "business_type": "菓子製造業",
      "address": "多気郡多気町牧７６",
      "lat": 34.50277500000001,
      "lng": 136.490494,
      "geocoding_level": 3,
      "phone": "090-9188-9907",
      "license_no": "松2511-0044",
      "license_date": null,
      "expire_date": null
    },
    {
      "name": "中川玲央",
      "name_kana": "",
      "business_type": "飲食店営業",
      "address": "多気郡多気町相可台３０－１０",
      "lat": 34.500256,
      "lng": 136.548547,
      "geocoding_level": 3,
      "phone": "0598-30-4286",
      "license_no": "松2501-0755",
      "license_date": null,
      "expire_date": null
    },
    {
      "name": "中川玲央",
      "name_kana": "",
      "business_type": "菓子製造業",
      "address": "多気郡多気町相可台３０－１０",
      "lat": 34.500256,
      "lng": 136.548547,
      "geocoding_level": 3,
      "phone": "0598-30-4286",
      "license_no": "松2511-0051",
      "license_date": null,
      "expire_date": null
    },
    {
      "name": "ヴィソン多気株式会社",
      "name_kana": "",
      "business_type": "飲食店営業",
      "address": "多気郡多気町ヴィソン６７２－１ スウィーツ２",
      "lat": 34.496156,
      "lng": 136.546149,
      "geocoding_level": 2,
      "phone": "0598-67-0810",
      "license_no": "松2501-0779",
      "license_date": null,
      "expire_date": null
    },
    {
      "name": "伊勢くすり本舗株式会社",
      "name_kana": "",
      "business_type": "飲食店営業",
      "address": "多気郡多気町ヴィソン６７２－１ サンセバスチャン通り１１",
      "lat": 34.496156,
      "lng": 136.546149,
      "geocoding_level": 2,
      "phone": "090-8031-7644",
      "license_no": "松2501-0727",
      "license_date": null,
      "expire_date": null
    },
    {
      "name": "株式会社アクアイグニスアートマネジメント",
      "name_kana": "",
      "business_type": "飲食店営業",
      "address": "多気郡多気町ヴィソン６７２－１　 アトリエ４",
      "lat": 34.496156,
      "lng": 136.546149,
      "geocoding_level": 2,
      "phone": "0598-67-0725",
      "license_no": "松2601-0015",
      "license_date": null,
      "expire_date": null
    },
    {
      "name": "ヴィソン多気株式会社",
      "name_kana": "",
      "business_type": "飲食店営業",
      "address": "多気郡多気町ヴィソン６７２－１ スウィーツ４",
      "lat": 34.496156,
      "lng": 136.546149,
      "geocoding_level": 2,
      "phone": "0598-67-0810",
      "license_no": "松2601-0016",
      "license_date": null,
      "expire_date": null
    },
    {
      "name": "ヴィソン多気株式会社",
      "name_kana": "",
      "business_type": "飲食店営業",
      "address": "多気郡多気町ヴィソン６７２－１",
      "lat": 34.496156,
      "lng": 136.546149,
      "geocoding_level": 2,
      "phone": "0598-67-0810",
      "license_no": "松2601-0060",
      "license_date": null,
      "expire_date": null
    },
    {
      "name": "ダイソー　マックスバリュ多気クリスタルタウン店",
      "name_kana": "ダイソー　マックスバリュタキクリスタルタウンテン",
      "business_type": "⑬ その他の食料・飲料販売業",
      "address": "三重県多気郡多気町仁田７５０ マックスバリュ多気店内",
      "lat": 34.492577,
      "lng": 136.550118,
      "geocoding_level": null,
      "phone": "",
      "license_no": "",
      "license_date": null,
      "expire_date": null
    },
    {
      "name": "ドラッグセイムス多気店",
      "name_kana": "ドラッグセイムスタキテン",
      "business_type": "⑪ 百貨店、総合スーパー",
      "address": "三重県多気郡多気町相可900番1",
      "lat": 34.498185,
      "lng": 136.542743,
      "geocoding_level": null,
      "phone": "0598-31-1669",
      "license_no": "",
      "license_date": null,
      "expire_date": null
    },
    {
      "name": "株式会社奥井海生堂　伊勢 ＶＩＳＯＮ店",
      "name_kana": "オクイカイセイドウ　イセ ヴィソンテン",
      "business_type": "⑬ その他の食料・飲料販売業",
      "address": "三重県多気郡多気町ヴィソン672-1 蔵前19",
      "lat": 35.702128,
      "lng": 139.792049,
      "geocoding_level": null,
      "phone": "0598-67-7887",
      "license_no": "",
      "license_date": null,
      "expire_date": null
    },
    {
      "name": "マックスバリュ多気店",
      "name_kana": "マックスバリュタキテン",
      "business_type": "⑪ 百貨店、総合スーパー",
      "address": "三重県多気郡多気町仁田750",
      "lat": 34.492577,
      "lng": 136.550118,
      "geocoding_level": null,
      "phone": "0598383611",
      "license_no": "",
      "license_date": null,
      "expire_date": null
    },
    {
      "name": "マックスバリュ多気店",
      "name_kana": "マックスバリュタキテン",
      "business_type": "⑫ 自動販売機による販売業（コップ式自動販売機（自動洗浄・屋内設置）及び営業許可の対象となる自動販売機を除く）",
      "address": "三重県多気郡多気町仁田750",
      "lat": 34.492577,
      "lng": 136.550118,
      "geocoding_level": null,
      "phone": "0598383611",
      "license_no": "",
      "license_date": null,
      "expire_date": null
    },
    {
      "name": "移動スーパーはじ丸つなぐ店",
      "name_kana": "イドウスーパーハジマルツナグテン",
      "business_type": "㉕ 行商",
      "address": "三重県多気郡多気町土羽字西野659-10",
      "lat": 34.503834,
      "lng": 136.586107,
      "geocoding_level": null,
      "phone": "0598396188",
      "license_no": "",
      "license_date": null,
      "expire_date": null
    },
    {
      "name": "弁才天 VISON多気店",
      "name_kana": "ベンサイテン　ヴィソンタキテン",
      "business_type": "⑬ その他の食料・飲料販売業",
      "address": "三重県多気郡多気町ヴィソン672番1 マルシェ34",
      "lat": 34.458374,
      "lng": 136.513855,
      "geocoding_level": null,
      "phone": "0598-67-9987",
      "license_no": "",
      "license_date": null,
      "expire_date": null
    },
    {
      "name": "コメリハード＆グリーン多気店",
      "name_kana": "コメリハードアンドグリーンタキテン",
      "business_type": "⑧ 米穀類販売業",
      "address": "三重県多気郡多気町相可９２７番地１",
      "lat": 34.501682,
      "lng": 136.541325,
      "geocoding_level": null,
      "phone": "0598-38-6015",
      "license_no": "",
      "license_date": null,
      "expire_date": null
    }
  ]
}
