{
  "meta": {
    "updated": 1783906731,
    "sources": [
      {
        "source": "大分県 食品営業許可施設一覧",
        "license": "Creative Commons Attribution 4.0 International"
      },
      {
        "source": "厚生労働省 食品衛生申請等システム（オープンデータ）",
        "license": "公共データ利用規約（第1.0版, PDL1.0）"
      }
    ]
  },
  "data": [
    {
      "name": "マルマタしょう油",
      "name_kana": "",
      "business_type": "みそ又はしょうゆ製造業",
      "address": "大分県日田市隈２丁目２－３６",
      "lat": 33.31387,
      "lng": 130.93114,
      "geocoding_level": null,
      "phone": "",
      "license_no": "指令西保第780-71号",
      "license_date": null,
      "expire_date": null
    },
    {
      "name": "株式会社亀山亭ホテル",
      "name_kana": "",
      "business_type": "飲食店営業",
      "address": "大分県日田市隈 1－3－10",
      "lat": 33.31233,
      "lng": 130.93161,
      "geocoding_level": null,
      "phone": "",
      "license_no": "指令西保第370-84号",
      "license_date": null,
      "expire_date": null
    },
    {
      "name": "合同会社田中醸造場",
      "name_kana": "",
      "business_type": "みそ又はしょうゆ製造業",
      "address": "大分県日田市三芳小渕町１２１１－２",
      "lat": 33.30413,
      "lng": 130.94826,
      "geocoding_level": null,
      "phone": "",
      "license_no": "指令西保第780-67号",
      "license_date": null,
      "expire_date": null
    },
    {
      "name": "マルマタしょう油",
      "name_kana": "",
      "business_type": "密封包装食品製造業",
      "address": "大分県日田市隈２丁目２－３６",
      "lat": 33.31387,
      "lng": 130.93114,
      "geocoding_level": null,
      "phone": "",
      "license_no": "指令西保第780-70号",
      "license_date": null,
      "expire_date": null
    },
    {
      "name": "農事組合法人　北平食品加工組合",
      "name_kana": "",
      "business_type": "みそ製造業",
      "address": "大分県日田市天瀬町馬原3599－4",
      "lat": 33.28941,
      "lng": 131.01596,
      "geocoding_level": null,
      "phone": "",
      "license_no": "指令西保第800-119号",
      "license_date": null,
      "expire_date": null
    },
    {
      "name": "クンチョウ酒造株式会社",
      "name_kana": "",
      "business_type": "酒類製造業",
      "address": "大分県日田市豆田町６－３１",
      "lat": 33.32875,
      "lng": 130.93687,
      "geocoding_level": null,
      "phone": "",
      "license_no": "指令西保第780-121号",
      "license_date": null,
      "expire_date": null
    },
    {
      "name": "株式会社井上酒造",
      "name_kana": "",
      "business_type": "酒類製造業",
      "address": "大分県日田市大字大肥２２２０－１",
      "lat": 33.36415,
      "lng": 130.8734,
      "geocoding_level": null,
      "phone": "",
      "license_no": "指令西保第780-116号",
      "license_date": null,
      "expire_date": null
    },
    {
      "name": "天ヶ瀬温泉成天閣",
      "name_kana": "",
      "business_type": "飲食店営業",
      "address": "大分県日田市天瀬町湯山１１４３",
      "lat": 33.26104,
      "lng": 131.02623,
      "geocoding_level": null,
      "phone": "",
      "license_no": "指令西保第550-30号",
      "license_date": null,
      "expire_date": null
    },
    {
      "name": "Ｒｙｏｋａｎ＆Ｓａｕｎａ　Ｙｏｒｏｚｕｙａ　Ｈｉｔａ",
      "name_kana": "",
      "business_type": "飲食店営業",
      "address": "大分県日田市隈１－３－１２",
      "lat": 33.31233,
      "lng": 130.93161,
      "geocoding_level": null,
      "phone": "",
      "license_no": "指令西保第780-12号",
      "license_date": null,
      "expire_date": null
    },
    {
      "name": "グランドホテル三隈",
      "name_kana": "",
      "business_type": "飲食店営業",
      "address": "大分県日田市隈 1－3－19",
      "lat": 33.31233,
      "lng": 130.93161,
      "geocoding_level": null,
      "phone": "",
      "license_no": "指令西保第370-16号",
      "license_date": null,
      "expire_date": null
    },
    {
      "name": "陶遂園",
      "name_kana": "",
      "business_type": "飲食店営業",
      "address": "大分県日田市上野町４７４番地の１",
      "lat": 33.30476,
      "lng": 130.9211,
      "geocoding_level": null,
      "phone": "",
      "license_no": "指令西保第550-138号",
      "license_date": null,
      "expire_date": null
    },
    {
      "name": "中村学園事業部２１３７０",
      "name_kana": "",
      "business_type": "飲食店営業",
      "address": "大分県日田市石井町３－７９３－１",
      "lat": 33.30859,
      "lng": 130.90855,
      "geocoding_level": null,
      "phone": "",
      "license_no": "指令西保第850-7号",
      "license_date": null,
      "expire_date": null
    },
    {
      "name": "農事組合法人　北平食品加工組合",
      "name_kana": "",
      "business_type": "菓子製造業",
      "address": "大分県日田市天瀬町馬原3599－4",
      "lat": 33.28941,
      "lng": 131.01596,
      "geocoding_level": null,
      "phone": "",
      "license_no": "指令西保第800-202号",
      "license_date": null,
      "expire_date": null
    },
    {
      "name": "瀬音湯音の宿　浮羽",
      "name_kana": "",
      "business_type": "飲食店営業",
      "address": "大分県日田市天瀬町赤岩3-5",
      "lat": 33.25252,
      "lng": 131.0529,
      "geocoding_level": null,
      "phone": "",
      "license_no": "指令西保第550-62号",
      "license_date": null,
      "expire_date": null
    },
    {
      "name": "やまいち",
      "name_kana": "",
      "business_type": "飲食店営業",
      "address": "大分県日田市天瀬町馬原３７４２",
      "lat": 33.28941,
      "lng": 131.01596,
      "geocoding_level": null,
      "phone": "",
      "license_no": "指令西保第550-93号",
      "license_date": null,
      "expire_date": null
    },
    {
      "name": "(有)銀寿し",
      "name_kana": "",
      "business_type": "飲食店営業",
      "address": "大分県日田市三本松１－１２－４０",
      "lat": 33.31992,
      "lng": 130.933,
      "geocoding_level": null,
      "phone": "",
      "license_no": "指令西保第550-76号",
      "license_date": null,
      "expire_date": null
    },
    {
      "name": "みるき～すぱサンビレッヂ",
      "name_kana": "",
      "business_type": "喫茶店営業",
      "address": "大分県日田市天瀬町赤岩108－1",
      "lat": 33.25252,
      "lng": 131.0529,
      "geocoding_level": null,
      "phone": "",
      "license_no": "指令西保第800-230号",
      "license_date": null,
      "expire_date": null
    },
    {
      "name": "中央発条工業　第二工場",
      "name_kana": "",
      "business_type": "調理機能を有する自動販売機",
      "address": "大分県日田市十二町新治町５０３",
      "lat": 33.32285,
      "lng": 130.91843,
      "geocoding_level": null,
      "phone": "",
      "license_no": "指令西保第370-181号",
      "license_date": null,
      "expire_date": null
    },
    {
      "name": "コープ三芳店",
      "name_kana": "",
      "business_type": "魚介類販売業",
      "address": "大分県日田市下井手町５４番地",
      "lat": 33.30734,
      "lng": 130.94527,
      "geocoding_level": null,
      "phone": "",
      "license_no": "指令西保第800-215号",
      "license_date": null,
      "expire_date": null
    },
    {
      "name": "ごうや亭",
      "name_kana": "",
      "business_type": "飲食店営業",
      "address": "大分県日田市中城町２－３０",
      "lat": 33.32552,
      "lng": 130.93773,
      "geocoding_level": null,
      "phone": "",
      "license_no": "指令西保第870-181号",
      "license_date": null,
      "expire_date": null
    },
    {
      "name": "やまめの郷",
      "name_kana": "",
      "business_type": "飲食店営業",
      "address": "大分県日田市前津江町大野２２０－１",
      "lat": 33.21318,
      "lng": 130.91866,
      "geocoding_level": null,
      "phone": "",
      "license_no": "指令西保第870-84号",
      "license_date": null,
      "expire_date": null
    },
    {
      "name": "(株)クマガエ",
      "name_kana": "",
      "business_type": "そうざい製造業",
      "address": "大分県日田市新治町 304",
      "lat": 33.32104,
      "lng": 130.94131,
      "geocoding_level": null,
      "phone": "",
      "license_no": "指令西保第370-2号",
      "license_date": null,
      "expire_date": null
    },
    {
      "name": "想夫恋友田店",
      "name_kana": "",
      "business_type": "飲食店営業",
      "address": "大分県日田市大字友田１１０番地の５",
      "lat": 33.32464,
      "lng": 130.91605,
      "geocoding_level": null,
      "phone": "",
      "license_no": "指令西保第850-11号",
      "license_date": null,
      "expire_date": null
    },
    {
      "name": "萬天楼",
      "name_kana": "",
      "business_type": "飲食店営業",
      "address": "大分県日田市吹上町１１３１－１",
      "lat": 33.32983,
      "lng": 130.9292,
      "geocoding_level": null,
      "phone": "",
      "license_no": "指令西保第780-62号",
      "license_date": null,
      "expire_date": null
    },
    {
      "name": "有限会社赤司日田羊羮本舗",
      "name_kana": "",
      "business_type": "菓子製造業",
      "address": "大分県日田市豆田町８－１５",
      "lat": 33.32743,
      "lng": 130.93668,
      "geocoding_level": null,
      "phone": "",
      "license_no": "指令西保第850-87号",
      "license_date": null,
      "expire_date": null
    },
    {
      "name": "魚国総本社・日田２９１１７４",
      "name_kana": "",
      "business_type": "飲食店営業",
      "address": "大分県日田市新治町５０３",
      "lat": 33.32104,
      "lng": 130.94131,
      "geocoding_level": null,
      "phone": "",
      "license_no": "指令西保第780-88号",
      "license_date": null,
      "expire_date": null
    },
    {
      "name": "大分大山町農業協同組合　新開加工場",
      "name_kana": "",
      "business_type": "菓子製造業",
      "address": "大分県日田市大山町西大山6173",
      "lat": 33.22472,
      "lng": 130.96452,
      "geocoding_level": null,
      "phone": "",
      "license_no": "指令西保第370-60号",
      "license_date": null,
      "expire_date": null
    },
    {
      "name": "新開加工場",
      "name_kana": "",
      "business_type": "清涼飲料水製造業",
      "address": "大分県日田市大山町西大山6173",
      "lat": 33.22472,
      "lng": 130.96452,
      "geocoding_level": null,
      "phone": "",
      "license_no": "指令西保第370-61号",
      "license_date": null,
      "expire_date": null
    },
    {
      "name": "木の花ガルテン",
      "name_kana": "",
      "business_type": "飲食店営業",
      "address": "大分県日田市大山町東大山２７４－１",
      "lat": 33.256,
      "lng": 130.98456,
      "geocoding_level": null,
      "phone": "",
      "license_no": "指令西保第870-102号",
      "license_date": null,
      "expire_date": null
    },
    {
      "name": "ウエスト日田店焼肉",
      "name_kana": "",
      "business_type": "飲食店営業",
      "address": "大分県日田市南友田１２８－２",
      "lat": 33.31353,
      "lng": 130.94011,
      "geocoding_level": null,
      "phone": "",
      "license_no": "指令西保第780-72号",
      "license_date": null,
      "expire_date": null
    },
    {
      "name": "三隈川観光開発(株)やな場厨房",
      "name_kana": "",
      "business_type": "飲食店営業",
      "address": "大分県日田市若宮町１２３３－２２",
      "lat": 33.3093,
      "lng": 130.93988,
      "geocoding_level": null,
      "phone": "",
      "license_no": "指令西保第780-65号",
      "license_date": null,
      "expire_date": null
    },
    {
      "name": "日清医療食品喫茶部",
      "name_kana": "",
      "business_type": "飲食店営業",
      "address": "大分県日田市高瀬字篠原2226-1 上野公園病院内",
      "lat": 33.27339,
      "lng": 130.92621,
      "geocoding_level": null,
      "phone": "",
      "license_no": "指令西保第850-81号",
      "license_date": null,
      "expire_date": null
    },
    {
      "name": "（有）ふもと屋",
      "name_kana": "",
      "business_type": "飲食店営業",
      "address": "大分県日田市天瀬町馬原３７３９",
      "lat": 33.28941,
      "lng": 131.01596,
      "geocoding_level": null,
      "phone": "",
      "license_no": "指令西保第850-79号",
      "license_date": null,
      "expire_date": null
    },
    {
      "name": "（有）ふもと屋",
      "name_kana": "",
      "business_type": "菓子製造業",
      "address": "大分県日田市天瀬町馬原３７３９",
      "lat": 33.28941,
      "lng": 131.01596,
      "geocoding_level": null,
      "phone": "",
      "license_no": "指令西保第850-80号",
      "license_date": null,
      "expire_date": null
    },
    {
      "name": "レストランかじか",
      "name_kana": "",
      "business_type": "飲食店営業",
      "address": "大分県日田市亀山町５－６",
      "lat": 33.31739,
      "lng": 130.93037,
      "geocoding_level": null,
      "phone": "",
      "license_no": "指令西保第850-93号",
      "license_date": null,
      "expire_date": null
    },
    {
      "name": "ケンタッキーフライドチキン日田店",
      "name_kana": "",
      "business_type": "飲食店営業",
      "address": "大分県日田市三本松２－６－２５",
      "lat": 33.3205,
      "lng": 130.93105,
      "geocoding_level": null,
      "phone": "",
      "license_no": "指令西保第850-121号",
      "license_date": null,
      "expire_date": null
    },
    {
      "name": "手打ちの庄　蔵屋",
      "name_kana": "",
      "business_type": "飲食店営業",
      "address": "大分県日田市元町１２－１１",
      "lat": 33.31797,
      "lng": 130.93811,
      "geocoding_level": null,
      "phone": "",
      "license_no": "指令西保第850-16号",
      "license_date": null,
      "expire_date": null
    },
    {
      "name": "五葉苑",
      "name_kana": "",
      "business_type": "飲食店営業",
      "address": "大分県日田市財津町 2635",
      "lat": 33.32104,
      "lng": 130.94131,
      "geocoding_level": null,
      "phone": "",
      "license_no": "指令西保第370-36号",
      "license_date": null,
      "expire_date": null
    },
    {
      "name": "株式会社 つえエーピー",
      "name_kana": "",
      "business_type": "漬物製造業",
      "address": "大分県日田市中津江村栃野 ２７９１番地の１",
      "lat": 33.1403,
      "lng": 130.95258,
      "geocoding_level": null,
      "phone": "",
      "license_no": "指令西保第850-100号",
      "license_date": null,
      "expire_date": null
    },
    {
      "name": "イオン日田店",
      "name_kana": "",
      "business_type": "魚介類販売業",
      "address": "大分県日田市南元町 １４番２２号",
      "lat": 33.31519,
      "lng": 130.939,
      "geocoding_level": null,
      "phone": "",
      "license_no": "指令西保第760-9号",
      "license_date": null,
      "expire_date": null
    },
    {
      "name": "イオン日田店",
      "name_kana": "",
      "business_type": "食肉販売業",
      "address": "大分県日田市南元町 １４番２２号",
      "lat": 33.31519,
      "lng": 130.939,
      "geocoding_level": null,
      "phone": "",
      "license_no": "指令西保第760-10号",
      "license_date": null,
      "expire_date": null
    },
    {
      "name": "株式会社もち吉日田店",
      "name_kana": "",
      "business_type": "飲食店営業",
      "address": "大分県日田市南元町９７",
      "lat": 33.31353,
      "lng": 130.94011,
      "geocoding_level": null,
      "phone": "",
      "license_no": "指令西保第780-52号",
      "license_date": null,
      "expire_date": null
    },
    {
      "name": "有限会社　大徳",
      "name_kana": "",
      "business_type": "飲食店営業",
      "address": "大分県日田市天瀬町馬原３７３５",
      "lat": 33.28941,
      "lng": 131.01596,
      "geocoding_level": null,
      "phone": "",
      "license_no": "指令西保第870-94号",
      "license_date": null,
      "expire_date": null
    },
    {
      "name": "大分大山町農業協同組合　新開工場",
      "name_kana": "",
      "business_type": "漬物製造業",
      "address": "大分県日田市大山町西大山６１７３",
      "lat": 33.22472,
      "lng": 130.96452,
      "geocoding_level": null,
      "phone": "",
      "license_no": "指令西保第550-108号",
      "license_date": null,
      "expire_date": null
    },
    {
      "name": "株式会社つえエーピー",
      "name_kana": "",
      "business_type": "そうざい製造業",
      "address": "大分県日田市中津江村栃野２７９１番地の１",
      "lat": 33.1403,
      "lng": 130.95258,
      "geocoding_level": null,
      "phone": "",
      "license_no": "指令西保第850-101号",
      "license_date": null,
      "expire_date": null
    },
    {
      "name": "サニ－日田",
      "name_kana": "",
      "business_type": "魚介類販売業",
      "address": "大分県日田市渡里 字上瀬井手７１－１",
      "lat": 33.33784,
      "lng": 130.93346,
      "geocoding_level": null,
      "phone": "",
      "license_no": "指令西保第540-27号",
      "license_date": null,
      "expire_date": null
    },
    {
      "name": "合名会社　まるはら",
      "name_kana": "",
      "business_type": "みそ又はしょうゆ製造業",
      "address": "大分県日田市中本町５番４号",
      "lat": 33.31516,
      "lng": 130.93272,
      "geocoding_level": null,
      "phone": "",
      "license_no": "指令西保第550-114号",
      "license_date": null,
      "expire_date": null
    },
    {
      "name": "合名会社　まるはら",
      "name_kana": "",
      "business_type": "清涼飲料水製造業",
      "address": "大分県日田市中本町５番４号",
      "lat": 33.31516,
      "lng": 130.93272,
      "geocoding_level": null,
      "phone": "",
      "license_no": "指令西保第550-115号",
      "license_date": null,
      "expire_date": null
    },
    {
      "name": "つえたて温泉ひぜんや",
      "name_kana": "",
      "business_type": "飲食店営業",
      "address": "大分県日田市天瀬町出口 玉ﾉ木４２０５－２　４Ｆ",
      "lat": 33.19984,
      "lng": 131.02049,
      "geocoding_level": null,
      "phone": "",
      "license_no": "指令西保第550-87号",
      "license_date": null,
      "expire_date": null
    },
    {
      "name": "地鶏庵・クラブ８８",
      "name_kana": "",
      "business_type": "飲食店営業",
      "address": "大分県日田市天瀬町出口 ４２０５の２　２Ｆ",
      "lat": 33.19984,
      "lng": 131.02049,
      "geocoding_level": null,
      "phone": "",
      "license_no": "指令西保第550-89号",
      "license_date": null,
      "expire_date": null
    },
    {
      "name": "ラウンジ欅",
      "name_kana": "",
      "business_type": "飲食店営業",
      "address": "大分県日田市天瀬町出口 ４２０５の２　５Ｆ",
      "lat": 33.19984,
      "lng": 131.02049,
      "geocoding_level": null,
      "phone": "",
      "license_no": "指令西保第550-88号",
      "license_date": null,
      "expire_date": null
    },
    {
      "name": "ＪＡ大山Ａコープ",
      "name_kana": "",
      "business_type": "魚介類販売業",
      "address": "大分県日田市大山町西大山３４８７",
      "lat": 33.22472,
      "lng": 130.96452,
      "geocoding_level": null,
      "phone": "",
      "license_no": "指令西保第550-78号",
      "license_date": null,
      "expire_date": null
    },
    {
      "name": "日田市民生活協同組合新治店",
      "name_kana": "",
      "business_type": "飲食店営業",
      "address": "大分県日田市新治町４６３番地",
      "lat": 33.32104,
      "lng": 130.94131,
      "geocoding_level": null,
      "phone": "",
      "license_no": "指令西保第550-111号",
      "license_date": null,
      "expire_date": null
    },
    {
      "name": "日田市民生活協同組合新治店",
      "name_kana": "",
      "business_type": "魚介類販売業",
      "address": "大分県日田市新治町４６３番地",
      "lat": 33.32104,
      "lng": 130.94131,
      "geocoding_level": null,
      "phone": "",
      "license_no": "指令西保第760-29号",
      "license_date": null,
      "expire_date": null
    },
    {
      "name": "八百万ダイニング",
      "name_kana": "",
      "business_type": "飲食店営業",
      "address": "大分県日田市天瀬町出口 4205-2",
      "lat": 33.19984,
      "lng": 131.02049,
      "geocoding_level": null,
      "phone": "",
      "license_no": "指令西保第370-169号",
      "license_date": null,
      "expire_date": null
    },
    {
      "name": "食工房　山海",
      "name_kana": "",
      "business_type": "飲食店営業",
      "address": "大分県日田市高瀬字手崎 １１７６番地の１",
      "lat": 33.27339,
      "lng": 130.92621,
      "geocoding_level": null,
      "phone": "",
      "license_no": "指令西保第780-29号",
      "license_date": null,
      "expire_date": null
    },
    {
      "name": "ホテル風早",
      "name_kana": "",
      "business_type": "飲食店営業",
      "address": "大分県日田市豆田町 ８の２５",
      "lat": 33.32743,
      "lng": 130.93668,
      "geocoding_level": null,
      "phone": "",
      "license_no": "指令西保第780-48号",
      "license_date": null,
      "expire_date": null
    },
    {
      "name": "夜明の里　カメミツ株式会社",
      "name_kana": "",
      "business_type": "清涼飲料水製造業",
      "address": "大分県日田市大字友田 ３３２０－８",
      "lat": 33.32452,
      "lng": 130.9111,
      "geocoding_level": null,
      "phone": "",
      "license_no": "指令西保第780-117号",
      "license_date": null,
      "expire_date": null
    },
    {
      "name": "(有）マルナカ・フーズ",
      "name_kana": "",
      "business_type": "そうざい製造業",
      "address": "大分県日田市大鶴町３０１８",
      "lat": 33.22472,
      "lng": 130.96452,
      "geocoding_level": null,
      "phone": "",
      "license_no": "指令西保第850-35号",
      "license_date": null,
      "expire_date": null
    },
    {
      "name": "コープ新治店",
      "name_kana": "",
      "business_type": "飲食店営業",
      "address": "大分県日田市新治町 463",
      "lat": 33.32104,
      "lng": 130.94131,
      "geocoding_level": null,
      "phone": "",
      "license_no": "指令西保第810-214号",
      "license_date": null,
      "expire_date": null
    },
    {
      "name": "コ－プ三芳店",
      "name_kana": "",
      "business_type": "飲食店営業",
      "address": "大分県日田市下井手町５４番地",
      "lat": 33.30734,
      "lng": 130.94527,
      "geocoding_level": null,
      "phone": "",
      "license_no": "指令西保第870-173号",
      "license_date": null,
      "expire_date": null
    },
    {
      "name": "特別養護老人ホーム　花月園",
      "name_kana": "",
      "business_type": "飲食店営業",
      "address": "大分県日田市日ノ出町156",
      "lat": 33.29912,
      "lng": 130.96277,
      "geocoding_level": null,
      "phone": "",
      "license_no": "指令西保第505-13号",
      "license_date": null,
      "expire_date": null
    },
    {
      "name": "大分銀行淡窓寮内食堂",
      "name_kana": "",
      "business_type": "飲食店営業",
      "address": "大分県日田市淡窓2－2－49",
      "lat": 33.32309,
      "lng": 130.93532,
      "geocoding_level": null,
      "phone": "",
      "license_no": "指令西保第370-136号",
      "license_date": null,
      "expire_date": null
    },
    {
      "name": "サッポロビール株式会社九州日田工場",
      "name_kana": "",
      "business_type": "酒類製造業",
      "address": "大分県日田市大字高瀬６９７９",
      "lat": 33.29256,
      "lng": 130.94504,
      "geocoding_level": null,
      "phone": "",
      "license_no": "指令西保第850-94号",
      "license_date": null,
      "expire_date": null
    },
    {
      "name": "株式会社カネクマ山口商店",
      "name_kana": "",
      "business_type": "魚介類販売業",
      "address": "大分県日田市亀山町３－８",
      "lat": 33.31652,
      "lng": 130.93047,
      "geocoding_level": null,
      "phone": "",
      "license_no": "指令西保第780-32号",
      "license_date": null,
      "expire_date": null
    },
    {
      "name": "木の花ガルテン",
      "name_kana": "",
      "business_type": "飲食店営業",
      "address": "大分県日田市大山町東大山274－1",
      "lat": 33.256,
      "lng": 130.98456,
      "geocoding_level": null,
      "phone": "",
      "license_no": "指令西保第370-59号",
      "license_date": null,
      "expire_date": null
    },
    {
      "name": "ジョイフル日田友田店",
      "name_kana": "",
      "business_type": "飲食店営業",
      "address": "大分県日田市友田字田中５２３－３",
      "lat": 33.32452,
      "lng": 130.9111,
      "geocoding_level": null,
      "phone": "",
      "license_no": "指令西保第850-77号",
      "license_date": null,
      "expire_date": null
    },
    {
      "name": "ホルン日田",
      "name_kana": "",
      "business_type": "菓子製造業",
      "address": "大分県日田市渡里 字上瀬井手６５－１　サニ－店内",
      "lat": 33.33784,
      "lng": 130.93346,
      "geocoding_level": null,
      "phone": "",
      "license_no": "指令西保第870-131号",
      "license_date": null,
      "expire_date": null
    },
    {
      "name": "ホテル浮羽別館　新紫陽",
      "name_kana": "",
      "business_type": "飲食店営業",
      "address": "大分県日田市天瀬町桜竹 字瀧の下",
      "lat": 33.24585,
      "lng": 131.02034,
      "geocoding_level": null,
      "phone": "",
      "license_no": "指令西保第870-143号",
      "license_date": null,
      "expire_date": null
    },
    {
      "name": "日隈畜産有限会社",
      "name_kana": "",
      "business_type": "食肉処理業",
      "address": "大分県日田市田島本町 ２１８",
      "lat": 33.31913,
      "lng": 130.939,
      "geocoding_level": null,
      "phone": "",
      "license_no": "指令西保第780-118号",
      "license_date": null,
      "expire_date": null
    },
    {
      "name": "新鮮市場　友田店",
      "name_kana": "",
      "business_type": "食肉販売業",
      "address": "大分県日田市南友田町802－1",
      "lat": 33.31353,
      "lng": 130.94011,
      "geocoding_level": null,
      "phone": "",
      "license_no": "指令西保第810-245号",
      "license_date": null,
      "expire_date": null
    },
    {
      "name": "有限会社新生丸和友田店",
      "name_kana": "",
      "business_type": "飲食店営業",
      "address": "大分県日田市南友田町802－1新鮮市場店内",
      "lat": 33.31353,
      "lng": 130.94011,
      "geocoding_level": null,
      "phone": "",
      "license_no": "指令西保第810-262号",
      "license_date": null,
      "expire_date": null
    },
    {
      "name": "有限会社新生丸和友田店",
      "name_kana": "",
      "business_type": "魚介類販売業",
      "address": "大分県日田市南友田町802－1新鮮市場店内",
      "lat": 33.31353,
      "lng": 130.94011,
      "geocoding_level": null,
      "phone": "",
      "license_no": "指令西保第810-263号",
      "license_date": null,
      "expire_date": null
    },
    {
      "name": "Bar　if･･･",
      "name_kana": "",
      "business_type": "飲食店営業",
      "address": "大分県日田市中本町 6-7",
      "lat": 33.31622,
      "lng": 130.93179,
      "geocoding_level": null,
      "phone": "",
      "license_no": "指令西保第370-148号",
      "license_date": null,
      "expire_date": null
    },
    {
      "name": "ひた青果水産株式会社",
      "name_kana": "",
      "business_type": "喫茶店営業",
      "address": "大分県日田市北友田2丁目1910番地の1",
      "lat": 33.32698,
      "lng": 130.95111,
      "geocoding_level": null,
      "phone": "",
      "license_no": "指令西保第810-221号",
      "license_date": null,
      "expire_date": null
    },
    {
      "name": "そば馳走庵草八",
      "name_kana": "",
      "business_type": "飲食店営業",
      "address": "大分県日田市豆田町 12-4",
      "lat": 33.32753,
      "lng": 130.93579,
      "geocoding_level": null,
      "phone": "",
      "license_no": "指令西保第370-157号",
      "license_date": null,
      "expire_date": null
    },
    {
      "name": "(有)溝口製麺",
      "name_kana": "",
      "business_type": "麺類製造業",
      "address": "大分県日田市清岸寺町１１４９－３",
      "lat": 33.32104,
      "lng": 130.94131,
      "geocoding_level": null,
      "phone": "",
      "license_no": "指令西保第850-133号",
      "license_date": null,
      "expire_date": null
    },
    {
      "name": "(有)溝口製麺",
      "name_kana": "",
      "business_type": "そうざい製造業",
      "address": "大分県日田市清岸寺町１１４９－３",
      "lat": 33.32104,
      "lng": 130.94131,
      "geocoding_level": null,
      "phone": "",
      "license_no": "指令西保第850-134号",
      "license_date": null,
      "expire_date": null
    },
    {
      "name": "（有）みくま食肉惣菜",
      "name_kana": "",
      "business_type": "食肉販売業",
      "address": "大分県日田市元町１５番２２号",
      "lat": 33.31696,
      "lng": 130.93703,
      "geocoding_level": null,
      "phone": "",
      "license_no": "指令西保第550-139号",
      "license_date": null,
      "expire_date": null
    },
    {
      "name": "（有）みくま食肉惣菜",
      "name_kana": "",
      "business_type": "そうざい製造業",
      "address": "大分県日田市元町１５番２２号",
      "lat": 33.31696,
      "lng": 130.93703,
      "geocoding_level": null,
      "phone": "",
      "license_no": "指令西保第550-140号",
      "license_date": null,
      "expire_date": null
    },
    {
      "name": "株式会社おおやま夢工房",
      "name_kana": "",
      "business_type": "酒類製造業",
      "address": "大分県日田市大山町大字西大山 4587",
      "lat": 33.22472,
      "lng": 130.96452,
      "geocoding_level": null,
      "phone": "",
      "license_no": "指令西保第800-31号",
      "license_date": null,
      "expire_date": null
    },
    {
      "name": "スーパーセンター　トライアル日田店",
      "name_kana": "",
      "business_type": "飲食店営業",
      "address": "大分県日田市北友田 3丁目2530-1",
      "lat": 33.32698,
      "lng": 130.95111,
      "geocoding_level": null,
      "phone": "",
      "license_no": "指令西保第800-55号",
      "license_date": null,
      "expire_date": null
    },
    {
      "name": "スーパーセンター　トライアル日田店",
      "name_kana": "",
      "business_type": "飲食店営業",
      "address": "大分県日田市北友田 3丁目2530-1",
      "lat": 33.32698,
      "lng": 130.95111,
      "geocoding_level": null,
      "phone": "",
      "license_no": "指令西保第800-54号",
      "license_date": null,
      "expire_date": null
    },
    {
      "name": "スーパーセンター　トライアル日田店",
      "name_kana": "",
      "business_type": "食肉販売業",
      "address": "大分県日田市北友田 3丁目2530-1",
      "lat": 33.32698,
      "lng": 130.95111,
      "geocoding_level": null,
      "phone": "",
      "license_no": "指令西保第800-58号",
      "license_date": null,
      "expire_date": null
    },
    {
      "name": "スーパーセンター　トライアル日田店",
      "name_kana": "",
      "business_type": "魚介類販売業",
      "address": "大分県日田市北友田 3丁目2530-1",
      "lat": 33.32698,
      "lng": 130.95111,
      "geocoding_level": null,
      "phone": "",
      "license_no": "指令西保第800-56号",
      "license_date": null,
      "expire_date": null
    },
    {
      "name": "渓仙閣",
      "name_kana": "",
      "business_type": "飲食店営業",
      "address": "大分県日田市天瀬町赤岩 913-1",
      "lat": 33.25252,
      "lng": 131.0529,
      "geocoding_level": null,
      "phone": "",
      "license_no": "指令西保第800-132号",
      "license_date": null,
      "expire_date": null
    },
    {
      "name": "游食庭　琴ひら",
      "name_kana": "",
      "business_type": "飲食店営業",
      "address": "大分県日田市大字高瀬字小久保1571-1",
      "lat": 33.27339,
      "lng": 130.92621,
      "geocoding_level": null,
      "phone": "",
      "license_no": "指令西保第550-74号",
      "license_date": null,
      "expire_date": null
    },
    {
      "name": "有限会社　伊藤食品　北友田加工工場",
      "name_kana": "",
      "business_type": "漬物製造業",
      "address": "大分県日田市北友田字孫目3414",
      "lat": 33.32698,
      "lng": 130.95111,
      "geocoding_level": null,
      "phone": "",
      "license_no": "指令西保第550-72号",
      "license_date": null,
      "expire_date": null
    },
    {
      "name": "木の花ガルテン（ソフトクリーム）",
      "name_kana": "",
      "business_type": "飲食店営業",
      "address": "大分県日田市大山町東大山274－1",
      "lat": 33.256,
      "lng": 130.98456,
      "geocoding_level": null,
      "phone": "",
      "license_no": "指令西保第550-71号",
      "license_date": null,
      "expire_date": null
    },
    {
      "name": "寳屋食堂",
      "name_kana": "",
      "business_type": "飲食店営業",
      "address": "大分県日田市元町１３－１",
      "lat": 33.31753,
      "lng": 130.93768,
      "geocoding_level": null,
      "phone": "",
      "license_no": "指令西保第850-71号",
      "license_date": null,
      "expire_date": null
    },
    {
      "name": "大分県酪日田支所",
      "name_kana": "",
      "business_type": "集乳業",
      "address": "大分県日田市神来町元宮３８２",
      "lat": 33.32104,
      "lng": 130.94131,
      "geocoding_level": null,
      "phone": "",
      "license_no": "指令西保第780-66号",
      "license_date": null,
      "expire_date": null
    },
    {
      "name": "奥日田温泉うめひびき",
      "name_kana": "",
      "business_type": "飲食店営業",
      "address": "大分県日田市大山町西大山 4587番地",
      "lat": 33.22472,
      "lng": 130.96452,
      "geocoding_level": null,
      "phone": "",
      "license_no": "指令西保第800-175号",
      "license_date": null,
      "expire_date": null
    },
    {
      "name": "まめろし",
      "name_kana": "",
      "business_type": "飲食店営業",
      "address": "大分県日田市若宮町５－４１",
      "lat": 33.30837,
      "lng": 130.94139,
      "geocoding_level": null,
      "phone": "",
      "license_no": "指令西保第550-120号",
      "license_date": null,
      "expire_date": null
    },
    {
      "name": "日田市学校給食センター",
      "name_kana": "",
      "business_type": "飲食店営業",
      "address": "大分県日田市北友田 2丁目1910-10",
      "lat": 33.32698,
      "lng": 130.95111,
      "geocoding_level": null,
      "phone": "",
      "license_no": "指令西保第810-255号",
      "license_date": null,
      "expire_date": null
    },
    {
      "name": "株式会社　クマガエ",
      "name_kana": "",
      "business_type": "菓子製造業",
      "address": "大分県日田市新治町３０４番地",
      "lat": 33.32104,
      "lng": 130.94131,
      "geocoding_level": null,
      "phone": "",
      "license_no": "指令西保第550-123号",
      "license_date": null,
      "expire_date": null
    },
    {
      "name": "ぴぃたぁパン",
      "name_kana": "",
      "business_type": "飲食店営業",
      "address": "大分県日田市石井１５０１番地の４",
      "lat": 33.31297,
      "lng": 130.89836,
      "geocoding_level": null,
      "phone": "",
      "license_no": "指令西保第850-20号",
      "license_date": null,
      "expire_date": null
    },
    {
      "name": "ぴぃたぁパン",
      "name_kana": "",
      "business_type": "菓子製造業",
      "address": "大分県日田市石井１５０１番地の４",
      "lat": 33.31297,
      "lng": 130.89836,
      "geocoding_level": null,
      "phone": "",
      "license_no": "指令西保第850-21号",
      "license_date": null,
      "expire_date": null
    },
    {
      "name": "サニ－日田",
      "name_kana": "",
      "business_type": "飲食店営業",
      "address": "大分県日田市渡里 字上瀬井手７１－１",
      "lat": 33.33784,
      "lng": 130.93346,
      "geocoding_level": null,
      "phone": "",
      "license_no": "指令西保第540-28号",
      "license_date": null,
      "expire_date": null
    },
    {
      "name": "ホテルソシア2階",
      "name_kana": "",
      "business_type": "飲食店営業",
      "address": "大分県日田市元町 17－3",
      "lat": 33.31606,
      "lng": 130.9373,
      "geocoding_level": null,
      "phone": "",
      "license_no": "指令西保第370-77号",
      "license_date": null,
      "expire_date": null
    },
    {
      "name": "ホテルソシア1階",
      "name_kana": "",
      "business_type": "飲食店営業",
      "address": "大分県日田市元町 17－3",
      "lat": 33.31606,
      "lng": 130.9373,
      "geocoding_level": null,
      "phone": "",
      "license_no": "指令西保第370-76号",
      "license_date": null,
      "expire_date": null
    },
    {
      "name": "プラザホテル　フジノイ",
      "name_kana": "",
      "business_type": "飲食店営業",
      "address": "大分県日田市元町１９－２７",
      "lat": 33.31547,
      "lng": 130.93799,
      "geocoding_level": null,
      "phone": "",
      "license_no": "指令西保第870-77号",
      "license_date": null,
      "expire_date": null
    },
    {
      "name": "サッポロビール株式会社　九州日田工場",
      "name_kana": "",
      "business_type": "清涼飲料水製造業",
      "address": "大分県日田市大字高瀬 6979",
      "lat": 33.29256,
      "lng": 130.94504,
      "geocoding_level": null,
      "phone": "",
      "license_no": "指令西保第370-105号",
      "license_date": null,
      "expire_date": null
    },
    {
      "name": "モスバーガー　日田店",
      "name_kana": "",
      "business_type": "飲食店営業",
      "address": "大分県日田市大字南友田町５１９－１",
      "lat": 33.31353,
      "lng": 130.94011,
      "geocoding_level": null,
      "phone": "",
      "license_no": "指令西保第850-34号",
      "license_date": null,
      "expire_date": null
    },
    {
      "name": "(有）山荘天水",
      "name_kana": "",
      "business_type": "飲食店営業",
      "address": "大分県日田市天瀬町大字桜竹６０１",
      "lat": 33.23347,
      "lng": 131.01164,
      "geocoding_level": null,
      "phone": "",
      "license_no": "指令西保第850-51号",
      "license_date": null,
      "expire_date": null
    },
    {
      "name": "(有）山荘天水",
      "name_kana": "",
      "business_type": "飲食店営業",
      "address": "大分県日田市天瀬町大字桜竹６０１",
      "lat": 33.23347,
      "lng": 131.01164,
      "geocoding_level": null,
      "phone": "",
      "license_no": "指令西保第850-52号",
      "license_date": null,
      "expire_date": null
    },
    {
      "name": "竜石水",
      "name_kana": "",
      "business_type": "清涼飲料水製造業",
      "address": "大分県日田市大字友田3320番地の50",
      "lat": 33.32452,
      "lng": 130.9111,
      "geocoding_level": null,
      "phone": "",
      "license_no": "指令西保第370-141号",
      "license_date": null,
      "expire_date": null
    },
    {
      "name": "日田市民生協　三芳店",
      "name_kana": "",
      "business_type": "飲食店営業",
      "address": "大分県日田市下井手町 ５４番地",
      "lat": 33.30734,
      "lng": 130.94527,
      "geocoding_level": null,
      "phone": "",
      "license_no": "指令西保第780-77号",
      "license_date": null,
      "expire_date": null
    },
    {
      "name": "ガスト大分日田店",
      "name_kana": "",
      "business_type": "飲食店営業",
      "address": "大分県日田市清岸寺町１０２－２",
      "lat": 33.32104,
      "lng": 130.94131,
      "geocoding_level": null,
      "phone": "",
      "license_no": "指令西保第850-76号",
      "license_date": null,
      "expire_date": null
    },
    {
      "name": "(有)すぎのこ村ネットワーク",
      "name_kana": "",
      "business_type": "食品の小分け業",
      "address": "大分県日田市淡窓１丁目２－６０",
      "lat": 33.32332,
      "lng": 130.93819,
      "geocoding_level": null,
      "phone": "",
      "license_no": "指令西保第850-120号",
      "license_date": null,
      "expire_date": null
    },
    {
      "name": "大分大山町農業協同組合　新開食品加工場",
      "name_kana": "",
      "business_type": "飲食店営業",
      "address": "大分県日田市大山町西大山6173",
      "lat": 33.22472,
      "lng": 130.96452,
      "geocoding_level": null,
      "phone": "",
      "license_no": "指令西保第800-251号",
      "license_date": null,
      "expire_date": null
    },
    {
      "name": "大分大山町農業協同組合　新開食品加工場",
      "name_kana": "",
      "business_type": "そうざい製造業",
      "address": "大分県日田市大山町西大山6173",
      "lat": 33.22472,
      "lng": 130.96452,
      "geocoding_level": null,
      "phone": "",
      "license_no": "指令西保第800-252号",
      "license_date": null,
      "expire_date": null
    },
    {
      "name": "福寿",
      "name_kana": "",
      "business_type": "菓子製造業",
      "address": "大分県日田市豆田町 11－11",
      "lat": 33.32661,
      "lng": 130.93558,
      "geocoding_level": null,
      "phone": "",
      "license_no": "指令西保第800-259号",
      "license_date": null,
      "expire_date": null
    },
    {
      "name": "魚国総本社・日田２９１５６７",
      "name_kana": "",
      "business_type": "飲食店営業",
      "address": "大分県日田市城町１－７－２０",
      "lat": 33.32723,
      "lng": 130.93877,
      "geocoding_level": null,
      "phone": "",
      "license_no": "指令西保第870-41号",
      "license_date": null,
      "expire_date": null
    },
    {
      "name": "(株）ウエスト日田店うどんコーナー",
      "name_kana": "",
      "business_type": "飲食店営業",
      "address": "大分県日田市大字友田南友田 128-2",
      "lat": 33.32426,
      "lng": 130.91277,
      "geocoding_level": null,
      "phone": "",
      "license_no": "指令西保第370-1号",
      "license_date": null,
      "expire_date": null
    },
    {
      "name": "ドライブイン古城金比羅うどん",
      "name_kana": "",
      "business_type": "飲食店営業",
      "address": "大分県日田市大字友田大川平 3196－1",
      "lat": 33.32452,
      "lng": 130.9111,
      "geocoding_level": null,
      "phone": "",
      "license_no": "指令西保第800-73号",
      "license_date": null,
      "expire_date": null
    },
    {
      "name": "三和酒類株式会社　日田蒸留所",
      "name_kana": "",
      "business_type": "酒類製造業",
      "address": "大分県日田市大字西有田８１０－１",
      "lat": 33.34705,
      "lng": 130.95601,
      "geocoding_level": null,
      "phone": "",
      "license_no": "指令西保第780-74号",
      "license_date": null,
      "expire_date": null
    },
    {
      "name": "コープ新治店",
      "name_kana": "",
      "business_type": "菓子製造業",
      "address": "大分県日田市新治町 463",
      "lat": 33.32104,
      "lng": 130.94131,
      "geocoding_level": null,
      "phone": "",
      "license_no": "指令西保第550-68号",
      "license_date": null,
      "expire_date": null
    },
    {
      "name": "フレッシュマートたちばな",
      "name_kana": "",
      "business_type": "飲食店営業",
      "address": "大分県日田市上野 ２９番地の１",
      "lat": 33.30947,
      "lng": 130.92795,
      "geocoding_level": null,
      "phone": "",
      "license_no": "指令西保第780-85号",
      "license_date": null,
      "expire_date": null
    },
    {
      "name": "信光物産有限会社",
      "name_kana": "",
      "business_type": "菓子製造業",
      "address": "大分県日田市日高460－2",
      "lat": 33.29912,
      "lng": 130.96277,
      "geocoding_level": null,
      "phone": "",
      "license_no": "指令西保第800-187号",
      "license_date": null,
      "expire_date": null
    },
    {
      "name": "日田漁業協同組合大山加工所",
      "name_kana": "",
      "business_type": "水産製品製造業",
      "address": "大分県日田市大山町東大山 瀬古２２５４の１",
      "lat": 33.256,
      "lng": 130.98456,
      "geocoding_level": null,
      "phone": "",
      "license_no": "指令西保第870-158号",
      "license_date": null,
      "expire_date": null
    },
    {
      "name": "布善製菓本舗",
      "name_kana": "",
      "business_type": "菓子製造業",
      "address": "大分県日田市隈１－２－２９",
      "lat": 33.31294,
      "lng": 130.93158,
      "geocoding_level": null,
      "phone": "",
      "license_no": "指令西保第870-109号",
      "license_date": null,
      "expire_date": null
    },
    {
      "name": "浜長",
      "name_kana": "",
      "business_type": "飲食店営業",
      "address": "大分県日田市十二町４７８－１",
      "lat": 33.32451,
      "lng": 130.91873,
      "geocoding_level": null,
      "phone": "",
      "license_no": "指令西保第870-153号",
      "license_date": null,
      "expire_date": null
    },
    {
      "name": "農事組合法人畦道ｸﾞﾙｰﾌﾟ食品加工組合",
      "name_kana": "",
      "business_type": "菓子製造業",
      "address": "大分県日田市天瀬町 １０４０－２",
      "lat": 33.23347,
      "lng": 131.01164,
      "geocoding_level": null,
      "phone": "",
      "license_no": "指令西保第870-147号",
      "license_date": null,
      "expire_date": null
    },
    {
      "name": "有限会社　竹茂本店",
      "name_kana": "",
      "business_type": "密封包装食品製造業",
      "address": "大分県日田市竹田新町 ３番２６号",
      "lat": 33.31039,
      "lng": 130.93649,
      "geocoding_level": null,
      "phone": "",
      "license_no": "指令西保第870-155号",
      "license_date": null,
      "expire_date": null
    },
    {
      "name": "いた屋本家",
      "name_kana": "",
      "business_type": "飲食店営業",
      "address": "大分県日田市港町３番２９号",
      "lat": 33.32582,
      "lng": 130.93468,
      "geocoding_level": null,
      "phone": "",
      "license_no": "指令西保第870-119号",
      "license_date": null,
      "expire_date": null
    },
    {
      "name": "地底博物館鯛生金山",
      "name_kana": "",
      "business_type": "飲食店営業",
      "address": "大分県日田市中津江村合瀬 3750番地",
      "lat": 33.13344,
      "lng": 130.89751,
      "geocoding_level": null,
      "phone": "",
      "license_no": "指令西保第370-165号",
      "license_date": null,
      "expire_date": null
    },
    {
      "name": "地底博物館鯛生金山",
      "name_kana": "",
      "business_type": "飲食店営業",
      "address": "大分県日田市中津江村合瀬３７５０番地",
      "lat": 33.13344,
      "lng": 130.89751,
      "geocoding_level": null,
      "phone": "",
      "license_no": "指令西保第870-169号",
      "license_date": null,
      "expire_date": null
    },
    {
      "name": "鯛生スポーツセンター",
      "name_kana": "",
      "business_type": "飲食店営業",
      "address": "大分県日田市中津江村合瀬１９３６－６５",
      "lat": 33.13344,
      "lng": 130.89751,
      "geocoding_level": null,
      "phone": "",
      "license_no": "指令西保第550-137号",
      "license_date": null,
      "expire_date": null
    },
    {
      "name": "有限会社おおやま和",
      "name_kana": "",
      "business_type": "飲食店営業",
      "address": "大分県日田市大山町西大山４１０７番地の２",
      "lat": 33.22472,
      "lng": 130.96452,
      "geocoding_level": null,
      "phone": "",
      "license_no": "指令西保第870-195号",
      "license_date": null,
      "expire_date": null
    },
    {
      "name": "(有)伊藤食品",
      "name_kana": "",
      "business_type": "漬物製造業",
      "address": "大分県日田市神来町４５４－２",
      "lat": 33.32104,
      "lng": 130.94131,
      "geocoding_level": null,
      "phone": "",
      "license_no": "指令西保第870-26号",
      "license_date": null,
      "expire_date": null
    },
    {
      "name": "すし金",
      "name_kana": "",
      "business_type": "飲食店営業",
      "address": "大分県日田市亀山町５－７",
      "lat": 33.31739,
      "lng": 130.93037,
      "geocoding_level": null,
      "phone": "",
      "license_no": "指令西保第870-196号",
      "license_date": null,
      "expire_date": null
    },
    {
      "name": "宇野製麺所",
      "name_kana": "",
      "business_type": "麺類製造業",
      "address": "大分県日田市高瀬本町１１－１",
      "lat": 33.27339,
      "lng": 130.92621,
      "geocoding_level": null,
      "phone": "",
      "license_no": "指令西保第870-193号",
      "license_date": null,
      "expire_date": null
    },
    {
      "name": "ドライバーズサロン",
      "name_kana": "",
      "business_type": "飲食店営業",
      "address": "大分県日田市上津江町上野田1112－8",
      "lat": 33.06042,
      "lng": 130.96371,
      "geocoding_level": null,
      "phone": "",
      "license_no": "指令西保第550-2号",
      "license_date": null,
      "expire_date": null
    },
    {
      "name": "（株）魚福",
      "name_kana": "",
      "business_type": "魚介類販売業",
      "address": "大分県日田市隈2－5－15",
      "lat": 33.31479,
      "lng": 130.93085,
      "geocoding_level": null,
      "phone": "",
      "license_no": "指令西保第800-1号",
      "license_date": null,
      "expire_date": null
    },
    {
      "name": "（株）魚福",
      "name_kana": "",
      "business_type": "そうざい製造業",
      "address": "大分県日田市隈2－5－15",
      "lat": 33.31479,
      "lng": 130.93085,
      "geocoding_level": null,
      "phone": "",
      "license_no": "指令西保第800-2号",
      "license_date": null,
      "expire_date": null
    },
    {
      "name": "株式会社日田天領水",
      "name_kana": "",
      "business_type": "清涼飲料水製造業",
      "address": "大分県日田市中ノ島町６４７番地",
      "lat": 33.31823,
      "lng": 130.93593,
      "geocoding_level": null,
      "phone": "",
      "license_no": "指令西保第850-40号",
      "license_date": null,
      "expire_date": null
    },
    {
      "name": "サッポロビール株式会社　九州日田工場",
      "name_kana": "",
      "business_type": "飲食店営業",
      "address": "大分県日田市大字高瀬６９７９",
      "lat": 33.29256,
      "lng": 130.94504,
      "geocoding_level": null,
      "phone": "",
      "license_no": "指令西保第850-58号",
      "license_date": null,
      "expire_date": null
    },
    {
      "name": "株式会社つえエーピー",
      "name_kana": "",
      "business_type": "密封包装食品製造業",
      "address": "大分県日田市中津江村栃野２７９１－１",
      "lat": 33.1403,
      "lng": 130.95258,
      "geocoding_level": null,
      "phone": "",
      "license_no": "指令西保第850-59号",
      "license_date": null,
      "expire_date": null
    },
    {
      "name": "株式会社つえエーピー",
      "name_kana": "",
      "business_type": "菓子製造業",
      "address": "大分県日田市中津江村栃野２７９１－１",
      "lat": 33.1403,
      "lng": 130.95258,
      "geocoding_level": null,
      "phone": "",
      "license_no": "指令西保第850-60号",
      "license_date": null,
      "expire_date": null
    },
    {
      "name": "老松酒造株式会社",
      "name_kana": "",
      "business_type": "酒類製造業",
      "address": "大分県日田市大鶴町２９１２番地",
      "lat": 33.22472,
      "lng": 130.96452,
      "geocoding_level": null,
      "phone": "",
      "license_no": "指令西保第780-73号",
      "license_date": null,
      "expire_date": null
    },
    {
      "name": "壱語屋株式会社上津江工場",
      "name_kana": "",
      "business_type": "清涼飲料水製造業",
      "address": "大分県日田市上津江町上野田１０８７",
      "lat": 33.06042,
      "lng": 130.96371,
      "geocoding_level": null,
      "phone": "",
      "license_no": "指令西保第780-49号",
      "license_date": null,
      "expire_date": null
    },
    {
      "name": "特別養護老人ホーム　中ノ島園",
      "name_kana": "",
      "business_type": "飲食店営業",
      "address": "大分県日田市庄手６８５－１６",
      "lat": 33.31307,
      "lng": 130.91661,
      "geocoding_level": null,
      "phone": "",
      "license_no": "指令西保第370-109号",
      "license_date": null,
      "expire_date": null
    },
    {
      "name": "有限会社一番鶏",
      "name_kana": "",
      "business_type": "飲食店営業",
      "address": "大分県日田市中央２－３－２２",
      "lat": 33.31709,
      "lng": 130.93364,
      "geocoding_level": null,
      "phone": "",
      "license_no": "指令西保第780-54号",
      "license_date": null,
      "expire_date": null
    },
    {
      "name": "山荘天水別館　旅籠かやうさぎ",
      "name_kana": "",
      "business_type": "飲食店営業",
      "address": "大分県日田市大字高瀬字岩下１５２９－１",
      "lat": 33.27339,
      "lng": 130.92621,
      "geocoding_level": null,
      "phone": "",
      "license_no": "指令西保第780-90号",
      "license_date": null,
      "expire_date": null
    },
    {
      "name": "マルミヤストア日田店",
      "name_kana": "",
      "business_type": "食肉販売業",
      "address": "大分県日田市大字渡里字大道町５３－５",
      "lat": 33.33784,
      "lng": 130.93346,
      "geocoding_level": null,
      "phone": "",
      "license_no": "指令西保第850-129号",
      "license_date": null,
      "expire_date": null
    },
    {
      "name": "マルミヤストア日田店",
      "name_kana": "",
      "business_type": "魚介類販売業",
      "address": "大分県日田市大字渡里字大道町５３－５",
      "lat": 33.33784,
      "lng": 130.93346,
      "geocoding_level": null,
      "phone": "",
      "license_no": "指令西保第850-131号",
      "license_date": null,
      "expire_date": null
    },
    {
      "name": "マルミヤストア日田店",
      "name_kana": "",
      "business_type": "そうざい製造業",
      "address": "大分県日田市大字渡里字大道町５３－５",
      "lat": 33.33784,
      "lng": 130.93346,
      "geocoding_level": null,
      "phone": "",
      "license_no": "指令西保第850-132号",
      "license_date": null,
      "expire_date": null
    },
    {
      "name": "マルミヤストア日田店",
      "name_kana": "",
      "business_type": "そうざい製造業",
      "address": "大分県日田市大字渡里字大道町５３－５",
      "lat": 33.33784,
      "lng": 130.93346,
      "geocoding_level": null,
      "phone": "",
      "license_no": "指令西保第850-130号",
      "license_date": null,
      "expire_date": null
    },
    {
      "name": "焼肉・しゃぶしゃぶ　将軍",
      "name_kana": "",
      "business_type": "飲食店営業",
      "address": "大分県日田市中央2丁目6－24",
      "lat": 33.31621,
      "lng": 130.93417,
      "geocoding_level": null,
      "phone": "",
      "license_no": "指令西保第800-245号",
      "license_date": null,
      "expire_date": null
    },
    {
      "name": "らーめん　勝福",
      "name_kana": "",
      "business_type": "飲食店営業",
      "address": "大分県日田市大字友田字荻鶴９９８",
      "lat": 33.32452,
      "lng": 130.9111,
      "geocoding_level": null,
      "phone": "",
      "license_no": "指令西保第780-20号",
      "license_date": null,
      "expire_date": null
    },
    {
      "name": "サニ－日田",
      "name_kana": "",
      "business_type": "飲食店営業",
      "address": "大分県日田市大字渡里字上瀬井手71－1 （サニー内）",
      "lat": 33.33784,
      "lng": 130.93346,
      "geocoding_level": null,
      "phone": "",
      "license_no": "指令西保第540-30号",
      "license_date": null,
      "expire_date": null
    },
    {
      "name": "至高　水事業部",
      "name_kana": "",
      "business_type": "清涼飲料水製造業",
      "address": "大分県日田市大字二串字石原田764－1",
      "lat": 33.33632,
      "lng": 130.90091,
      "geocoding_level": null,
      "phone": "",
      "license_no": "指令西保第370-39号",
      "license_date": null,
      "expire_date": null
    },
    {
      "name": "カラオケ本舗　まねきねこ　日田店",
      "name_kana": "",
      "business_type": "飲食店営業",
      "address": "大分県日田市大字友田996－1",
      "lat": 33.32557,
      "lng": 130.91162,
      "geocoding_level": null,
      "phone": "",
      "license_no": "指令西保第370-14号",
      "license_date": null,
      "expire_date": null
    },
    {
      "name": "秀水瀑園",
      "name_kana": "",
      "business_type": "魚介類販売業",
      "address": "大分県日田市天瀬町赤岩511",
      "lat": 33.25252,
      "lng": 131.0529,
      "geocoding_level": null,
      "phone": "",
      "license_no": "指令西保第370-41号",
      "license_date": null,
      "expire_date": null
    },
    {
      "name": "ニッカンフーズ株式会社",
      "name_kana": "",
      "business_type": "密封包装食品製造業",
      "address": "大分県日田市羽田町132－1",
      "lat": 33.3378,
      "lng": 131.03073,
      "geocoding_level": null,
      "phone": "",
      "license_no": "指令西保第370-74号",
      "license_date": null,
      "expire_date": null
    },
    {
      "name": "花の湯",
      "name_kana": "",
      "business_type": "飲食店営業",
      "address": "大分県日田市大字友田字荻鶴９３９－１",
      "lat": 33.32452,
      "lng": 130.9111,
      "geocoding_level": null,
      "phone": "",
      "license_no": "指令西保第870-145号",
      "license_date": null,
      "expire_date": null
    },
    {
      "name": "アタックス日田店",
      "name_kana": "",
      "business_type": "食肉販売業",
      "address": "大分県日田市大字三和字長迫７４０",
      "lat": 33.35272,
      "lng": 130.95314,
      "geocoding_level": null,
      "phone": "",
      "license_no": "指令西保第870-121号",
      "license_date": null,
      "expire_date": null
    },
    {
      "name": "有限会社新生丸和AX日田店",
      "name_kana": "",
      "business_type": "魚介類販売業",
      "address": "大分県日田市大字三和字長迫７４０ アタックスマート日田店内",
      "lat": 33.35272,
      "lng": 130.95314,
      "geocoding_level": null,
      "phone": "",
      "license_no": "指令西保第870-159号",
      "license_date": null,
      "expire_date": null
    },
    {
      "name": "有限会社新生丸和AX日田店",
      "name_kana": "",
      "business_type": "飲食店営業",
      "address": "大分県日田市大字三和字長迫７４０ アタックスマート日田店内",
      "lat": 33.35272,
      "lng": 130.95314,
      "geocoding_level": null,
      "phone": "",
      "license_no": "指令西保第870-160号",
      "license_date": null,
      "expire_date": null
    },
    {
      "name": "石窯パン工房ビガロ",
      "name_kana": "",
      "business_type": "菓子製造業",
      "address": "大分県日田市田島2丁目126－5",
      "lat": 33.32028,
      "lng": 130.94257,
      "geocoding_level": null,
      "phone": "",
      "license_no": "指令西保第370-134号",
      "license_date": null,
      "expire_date": null
    },
    {
      "name": "マリエールオークパイン",
      "name_kana": "",
      "business_type": "飲食店営業",
      "address": "大分県日田市日ノ出町１－１",
      "lat": 33.29912,
      "lng": 130.96277,
      "geocoding_level": null,
      "phone": "",
      "license_no": "指令西保第550-91号",
      "license_date": null,
      "expire_date": null
    },
    {
      "name": "うなぎの黒田屋",
      "name_kana": "",
      "business_type": "飲食店営業",
      "address": "大分県日田市豆田2－2",
      "lat": 33.3276,
      "lng": 130.93703,
      "geocoding_level": null,
      "phone": "",
      "license_no": "指令西保第631-18号",
      "license_date": null,
      "expire_date": null
    },
    {
      "name": "イオン日田店",
      "name_kana": "",
      "business_type": "飲食店営業",
      "address": "大分県日田市南元町１４－２２",
      "lat": 33.31519,
      "lng": 130.939,
      "geocoding_level": null,
      "phone": "",
      "license_no": "指令西保第760-11号",
      "license_date": null,
      "expire_date": null
    },
    {
      "name": "ビストロ菜の卓",
      "name_kana": "",
      "business_type": "飲食店営業",
      "address": "大分県日田市本町8－21",
      "lat": 33.31355,
      "lng": 130.93686,
      "geocoding_level": null,
      "phone": "",
      "license_no": "指令西保第550-28号",
      "license_date": null,
      "expire_date": null
    },
    {
      "name": "有限会社　天領まちの駅",
      "name_kana": "",
      "business_type": "飲食店営業",
      "address": "大分県日田市豆田町8-33番地",
      "lat": 33.32743,
      "lng": 130.93668,
      "geocoding_level": null,
      "phone": "",
      "license_no": "指令西保第550-73号",
      "license_date": null,
      "expire_date": null
    },
    {
      "name": "アリア",
      "name_kana": "",
      "business_type": "飲食店営業",
      "address": "大分県日田市三本松1丁目8番11号",
      "lat": 33.31952,
      "lng": 130.93417,
      "geocoding_level": null,
      "phone": "",
      "license_no": "指令西保第810-208号",
      "license_date": null,
      "expire_date": null
    },
    {
      "name": "上野公園病院",
      "name_kana": "",
      "business_type": "飲食店営業",
      "address": "大分県日田市高瀬字篠原2226-1",
      "lat": 33.27339,
      "lng": 130.92621,
      "geocoding_level": null,
      "phone": "",
      "license_no": "指令西保第870-51号",
      "license_date": null,
      "expire_date": null
    },
    {
      "name": "(有)エルアイビーデイサービス　翔",
      "name_kana": "",
      "business_type": "飲食店営業",
      "address": "大分県日田市北友田1丁目１４２４－２",
      "lat": 33.32698,
      "lng": 130.95111,
      "geocoding_level": null,
      "phone": "",
      "license_no": "指令西保第870-122号",
      "license_date": null,
      "expire_date": null
    },
    {
      "name": "スシロー日田玉川店",
      "name_kana": "",
      "business_type": "飲食店営業",
      "address": "大分県日田市大字十二町字一本木 ６９７－１",
      "lat": 33.32312,
      "lng": 130.92339,
      "geocoding_level": null,
      "phone": "",
      "license_no": "指令西保第850-126号",
      "license_date": null,
      "expire_date": null
    },
    {
      "name": "日田天領水の里　元氣の駅",
      "name_kana": "",
      "business_type": "飲食店営業",
      "address": "大分県日田市大字庄手 635番地1",
      "lat": 33.31591,
      "lng": 130.92001,
      "geocoding_level": null,
      "phone": "",
      "license_no": "指令西保第370-50号",
      "license_date": null,
      "expire_date": null
    },
    {
      "name": "日田天領水の里　元氣の駅（たまごや）",
      "name_kana": "",
      "business_type": "菓子製造業",
      "address": "大分県日田市大字庄手 635番地1",
      "lat": 33.31591,
      "lng": 130.92001,
      "geocoding_level": null,
      "phone": "",
      "license_no": "指令西保第370-51号",
      "license_date": null,
      "expire_date": null
    },
    {
      "name": "夜明の里カメミツ株式会社",
      "name_kana": "",
      "business_type": "清涼飲料水製造業",
      "address": "大分県日田市大字友田３３２０－８",
      "lat": 33.32452,
      "lng": 130.9111,
      "geocoding_level": null,
      "phone": "",
      "license_no": "指令西保第870-72号",
      "license_date": null,
      "expire_date": null
    },
    {
      "name": "日田中央青果水産",
      "name_kana": "",
      "business_type": "魚介類せり売り営業",
      "address": "大分県日田市大字友田１９１０の１",
      "lat": 33.32771,
      "lng": 130.90594,
      "geocoding_level": null,
      "phone": "",
      "license_no": "指令西保第870-66号",
      "license_date": null,
      "expire_date": null
    },
    {
      "name": "有限会社原食品研究所",
      "name_kana": "",
      "business_type": "そうざい製造業",
      "address": "大分県日田市大字夜明 1446番地",
      "lat": 33.33744,
      "lng": 130.869,
      "geocoding_level": null,
      "phone": "",
      "license_no": "指令西保第370-173号",
      "license_date": null,
      "expire_date": null
    },
    {
      "name": "魚民",
      "name_kana": "",
      "business_type": "飲食店営業",
      "address": "大分県日田市元町１５番３号 大分共和ビル１階２階",
      "lat": 33.31696,
      "lng": 130.93703,
      "geocoding_level": null,
      "phone": "",
      "license_no": "指令西保第870-174号",
      "license_date": null,
      "expire_date": null
    },
    {
      "name": "ａｒｒａｎｇｅ",
      "name_kana": "",
      "business_type": "飲食店営業",
      "address": "大分県日田市大字十二町玉川３丁目７２３番",
      "lat": 33.32312,
      "lng": 130.92339,
      "geocoding_level": null,
      "phone": "",
      "license_no": "指令西保第870-175号",
      "license_date": null,
      "expire_date": null
    },
    {
      "name": "（有）森菊商店",
      "name_kana": "",
      "business_type": "そうざい製造業",
      "address": "大分県日田市隈２丁目 ８－１３",
      "lat": 33.31565,
      "lng": 130.93059,
      "geocoding_level": null,
      "phone": "",
      "license_no": "指令西保第780-58号",
      "license_date": null,
      "expire_date": null
    },
    {
      "name": "ＴＨＥ　市",
      "name_kana": "",
      "business_type": "飲食店営業",
      "address": "大分県日田市本町４６０－１",
      "lat": 33.31467,
      "lng": 130.93617,
      "geocoding_level": null,
      "phone": "",
      "license_no": "指令西保第780-37号",
      "license_date": null,
      "expire_date": null
    },
    {
      "name": "アプロディール　紙音",
      "name_kana": "",
      "business_type": "飲食店営業",
      "address": "大分県日田市豆田町８の８",
      "lat": 33.32743,
      "lng": 130.93668,
      "geocoding_level": null,
      "phone": "",
      "license_no": "指令西保第780-27号",
      "license_date": null,
      "expire_date": null
    },
    {
      "name": "株式会社　矢野農園",
      "name_kana": "",
      "business_type": "漬物製造業",
      "address": "大分県日田市大山町西大山４９４１",
      "lat": 33.22472,
      "lng": 130.96452,
      "geocoding_level": null,
      "phone": "",
      "license_no": "指令西保第870-6号",
      "license_date": null,
      "expire_date": null
    },
    {
      "name": "株式会社　矢野農園",
      "name_kana": "",
      "business_type": "そうざい製造業",
      "address": "大分県日田市大山町西大山４９４１",
      "lat": 33.22472,
      "lng": 130.96452,
      "geocoding_level": null,
      "phone": "",
      "license_no": "指令西保第780-31号",
      "license_date": null,
      "expire_date": null
    },
    {
      "name": "ポッポおじさんの大分からあげ　日田駅前店",
      "name_kana": "",
      "business_type": "飲食店営業",
      "address": "大分県日田市本町１０－８８",
      "lat": 33.31526,
      "lng": 130.93665,
      "geocoding_level": null,
      "phone": "",
      "license_no": "指令西保第780-82号",
      "license_date": null,
      "expire_date": null
    },
    {
      "name": "げんきうどん",
      "name_kana": "",
      "business_type": "飲食店営業",
      "address": "大分県日田市友田字荻鶴９８６－１",
      "lat": 33.32452,
      "lng": 130.9111,
      "geocoding_level": null,
      "phone": "",
      "license_no": "指令西保第780-84号",
      "license_date": null,
      "expire_date": null
    },
    {
      "name": "地方卸売市場　日田中央青果水産株式会社",
      "name_kana": "",
      "business_type": "魚介類販売業",
      "address": "大分県日田市北友田2丁目1910番地の1",
      "lat": 33.32698,
      "lng": 130.95111,
      "geocoding_level": null,
      "phone": "",
      "license_no": "指令西保第800-253号",
      "license_date": null,
      "expire_date": null
    },
    {
      "name": "八丁",
      "name_kana": "",
      "business_type": "飲食店営業",
      "address": "大分県日田市大字十二町字一本木672－20",
      "lat": 33.32312,
      "lng": 130.92339,
      "geocoding_level": null,
      "phone": "",
      "license_no": "指令西保第370-53号",
      "license_date": null,
      "expire_date": null
    },
    {
      "name": "日田市民生活協同組合　加工部",
      "name_kana": "",
      "business_type": "飲食店営業",
      "address": "大分県日田市新治町463",
      "lat": 33.32104,
      "lng": 130.94131,
      "geocoding_level": null,
      "phone": "",
      "license_no": "指令西保第550-67号",
      "license_date": null,
      "expire_date": null
    },
    {
      "name": "サニ－日田",
      "name_kana": "",
      "business_type": "飲食店営業",
      "address": "大分県日田市大字渡里字上瀬井手71－1 （サニー内）",
      "lat": 33.33784,
      "lng": 130.93346,
      "geocoding_level": null,
      "phone": "",
      "license_no": "指令西保第540-29号",
      "license_date": null,
      "expire_date": null
    },
    {
      "name": "すき家　２１２号日田店",
      "name_kana": "",
      "business_type": "飲食店営業",
      "address": "大分県日田市南元町20番7号",
      "lat": 33.31243,
      "lng": 130.93993,
      "geocoding_level": null,
      "phone": "",
      "license_no": "指令西保第370-120号",
      "license_date": null,
      "expire_date": null
    },
    {
      "name": "株式会社　エルク",
      "name_kana": "",
      "business_type": "清涼飲料水製造業",
      "address": "大分県日田市大字友田3320－123",
      "lat": 33.32452,
      "lng": 130.9111,
      "geocoding_level": null,
      "phone": "",
      "license_no": "指令西保第370-128号",
      "license_date": null,
      "expire_date": null
    },
    {
      "name": "株式会社　おおやま夢工房",
      "name_kana": "",
      "business_type": "清涼飲料水製造業",
      "address": "大分県日田市大山町西大山４５８７番地",
      "lat": 33.22472,
      "lng": 130.96452,
      "geocoding_level": null,
      "phone": "",
      "license_no": "指令西保第870-30号",
      "license_date": null,
      "expire_date": null
    },
    {
      "name": "シャトレーゼ日田若宮店",
      "name_kana": "",
      "business_type": "菓子製造業",
      "address": "大分県日田市若宮町１番１３号",
      "lat": 33.31045,
      "lng": 130.94048,
      "geocoding_level": null,
      "phone": "",
      "license_no": "指令西保第550-83号",
      "license_date": null,
      "expire_date": null
    },
    {
      "name": "水谷直海商店有限会社",
      "name_kana": "",
      "business_type": "菓子製造業",
      "address": "大分県日田市刃連町７－３",
      "lat": 33.30648,
      "lng": 130.94858,
      "geocoding_level": null,
      "phone": "",
      "license_no": "指令西保第550-106号",
      "license_date": null,
      "expire_date": null
    },
    {
      "name": "２０８８５日田西有田店",
      "name_kana": "",
      "business_type": "飲食店営業",
      "address": "大分県日田市大字西有田１８００－１",
      "lat": 33.34664,
      "lng": 130.95851,
      "geocoding_level": null,
      "phone": "",
      "license_no": "指令西保第870-144号",
      "license_date": null,
      "expire_date": null
    },
    {
      "name": "想夫恋本館",
      "name_kana": "",
      "business_type": "飲食店営業",
      "address": "大分県日田市若宮町４１６－１",
      "lat": 33.3093,
      "lng": 130.93988,
      "geocoding_level": null,
      "phone": "",
      "license_no": "指令西保第870-126号",
      "license_date": null,
      "expire_date": null
    },
    {
      "name": "信光物産(有)",
      "name_kana": "",
      "business_type": "そうざい製造業",
      "address": "大分県日田市大字日高４６０番地２",
      "lat": 33.29912,
      "lng": 130.96277,
      "geocoding_level": null,
      "phone": "",
      "license_no": "指令西保第550-132号",
      "license_date": null,
      "expire_date": null
    },
    {
      "name": "有限会社やまめの郷",
      "name_kana": "",
      "business_type": "魚介類販売業",
      "address": "大分県日田市前津江町大野220－1",
      "lat": 33.21318,
      "lng": 130.91866,
      "geocoding_level": null,
      "phone": "",
      "license_no": "指令西保第550-116号",
      "license_date": null,
      "expire_date": null
    },
    {
      "name": "木の花ガルテン大山店パン工房",
      "name_kana": "",
      "business_type": "菓子製造業",
      "address": "大分県日田市大山町東大山２７４－１",
      "lat": 33.256,
      "lng": 130.98456,
      "geocoding_level": null,
      "phone": "",
      "license_no": "指令西保第850-6号",
      "license_date": null,
      "expire_date": null
    },
    {
      "name": "ラム",
      "name_kana": "",
      "business_type": "菓子製造業",
      "address": "大分県日田市大字友田２４１３－１",
      "lat": 33.32452,
      "lng": 130.9111,
      "geocoding_level": null,
      "phone": "",
      "license_no": "指令西保第850-32号",
      "license_date": null,
      "expire_date": null
    },
    {
      "name": "ｃａｆｆｅｌひなのさと",
      "name_kana": "",
      "business_type": "飲食店営業",
      "address": "大分県日田市隈１丁目３番８号",
      "lat": 33.31233,
      "lng": 130.93161,
      "geocoding_level": null,
      "phone": "",
      "license_no": "指令西保第850-64号",
      "license_date": null,
      "expire_date": null
    },
    {
      "name": "月隈こども園キッチン",
      "name_kana": "",
      "business_type": "飲食店営業",
      "address": "大分県日田市城町１－７－１",
      "lat": 33.32723,
      "lng": 130.93877,
      "geocoding_level": null,
      "phone": "",
      "license_no": "指令西保第780-103号",
      "license_date": null,
      "expire_date": null
    },
    {
      "name": "大分県済生会日田病院 売店横自販機コーナー",
      "name_kana": "",
      "business_type": "喫茶店営業",
      "address": "大分県日田市大字三和643－7",
      "lat": 33.34484,
      "lng": 130.94043,
      "geocoding_level": null,
      "phone": "",
      "license_no": "指令西保第810-251号",
      "license_date": null,
      "expire_date": null
    },
    {
      "name": "オーマイパン有限会社",
      "name_kana": "",
      "business_type": "菓子製造業",
      "address": "大分県日田市大字友田2101番9",
      "lat": 33.3269,
      "lng": 130.90355,
      "geocoding_level": null,
      "phone": "",
      "license_no": "指令西保第800-10号",
      "license_date": null,
      "expire_date": null
    },
    {
      "name": "オーマイパン有限会社",
      "name_kana": "",
      "business_type": "飲食店営業",
      "address": "大分県日田市大字友田2101番9",
      "lat": 33.3269,
      "lng": 130.90355,
      "geocoding_level": null,
      "phone": "",
      "license_no": "指令西保第800-9号",
      "license_date": null,
      "expire_date": null
    },
    {
      "name": "崔おばさんのビックリホルモン家別館 日田店",
      "name_kana": "",
      "business_type": "飲食店営業",
      "address": "大分県日田市大字十二町697－1",
      "lat": 33.3226,
      "lng": 130.92677,
      "geocoding_level": null,
      "phone": "",
      "license_no": "指令西保第800-52号",
      "license_date": null,
      "expire_date": null
    },
    {
      "name": "株式会社マル金ファーム",
      "name_kana": "",
      "business_type": "漬物製造業",
      "address": "大分県日田市大山町西大山５４０６番地",
      "lat": 33.22472,
      "lng": 130.96452,
      "geocoding_level": null,
      "phone": "",
      "license_no": "指令西保第870-22号",
      "license_date": null,
      "expire_date": null
    },
    {
      "name": "夢風",
      "name_kana": "",
      "business_type": "飲食店営業",
      "address": "大分県日田市城内新町１７３３－１３",
      "lat": 33.32751,
      "lng": 130.94012,
      "geocoding_level": null,
      "phone": "",
      "license_no": "指令西保第870-50号",
      "license_date": null,
      "expire_date": null
    },
    {
      "name": "地域密着型特養花月園内日清医療食品事業所",
      "name_kana": "",
      "business_type": "飲食店営業",
      "address": "大分県日田市日ノ出町133-1",
      "lat": 33.29912,
      "lng": 130.96277,
      "geocoding_level": null,
      "phone": "",
      "license_no": "指令西保第800-113号",
      "license_date": null,
      "expire_date": null
    },
    {
      "name": "有限会社　中島農場",
      "name_kana": "",
      "business_type": "菓子製造業",
      "address": "大分県日田市大字西有田２４１９－３",
      "lat": 33.34664,
      "lng": 130.95851,
      "geocoding_level": null,
      "phone": "",
      "license_no": "指令西保第870-75号",
      "license_date": null,
      "expire_date": null
    },
    {
      "name": "天瀬温泉カントリークラブレストラン",
      "name_kana": "",
      "business_type": "飲食店営業",
      "address": "大分県日田市天瀬町大字桜竹８４１－２１",
      "lat": 33.23347,
      "lng": 131.01164,
      "geocoding_level": null,
      "phone": "",
      "license_no": "指令西保第760-12号",
      "license_date": null,
      "expire_date": null
    },
    {
      "name": "喜楽苑",
      "name_kana": "",
      "business_type": "飲食店営業",
      "address": "大分県日田市天瀬町桜竹115－87",
      "lat": 33.24585,
      "lng": 131.02034,
      "geocoding_level": null,
      "phone": "",
      "license_no": "指令西保第800-177号",
      "license_date": null,
      "expire_date": null
    },
    {
      "name": "いきいきランド",
      "name_kana": "",
      "business_type": "菓子製造業",
      "address": "大分県日田市大字友田字田中５１６番地の２",
      "lat": 33.32452,
      "lng": 130.9111,
      "geocoding_level": null,
      "phone": "",
      "license_no": "指令西保第780-19号",
      "license_date": null,
      "expire_date": null
    },
    {
      "name": "株式会社インパクト",
      "name_kana": "",
      "business_type": "アイスクリーム類製造業",
      "address": "大分県日田市大山町東大山１９０５－２",
      "lat": 33.256,
      "lng": 130.98456,
      "geocoding_level": null,
      "phone": "",
      "license_no": "指令西保第780-63号",
      "license_date": null,
      "expire_date": null
    },
    {
      "name": "三隈川観光開発（株）　やな場茶屋",
      "name_kana": "",
      "business_type": "飲食店営業",
      "address": "大分県日田市若宮町１２３３－１３地先",
      "lat": 33.3093,
      "lng": 130.93988,
      "geocoding_level": null,
      "phone": "",
      "license_no": "指令西保第780-64号",
      "license_date": null,
      "expire_date": null
    },
    {
      "name": "ア－ユルヴェ－ダ　カレ－レストランＷｉＺ",
      "name_kana": "",
      "business_type": "飲食店営業",
      "address": "大分県日田市中央1丁目6－28",
      "lat": 33.31793,
      "lng": 130.93547,
      "geocoding_level": null,
      "phone": "",
      "license_no": "指令西保第760-19号",
      "license_date": null,
      "expire_date": null
    },
    {
      "name": "イーティーズ日田店",
      "name_kana": "",
      "business_type": "飲食店営業",
      "address": "大分県日田市三本松2丁目7番33号",
      "lat": 33.3203,
      "lng": 130.93214,
      "geocoding_level": null,
      "phone": "",
      "license_no": "指令西保第370-64号",
      "license_date": null,
      "expire_date": null
    },
    {
      "name": "大三ミート産業　日田中央店",
      "name_kana": "",
      "business_type": "食肉販売業",
      "address": "大分県日田市三本松2丁目7番33号",
      "lat": 33.3203,
      "lng": 130.93214,
      "geocoding_level": null,
      "phone": "",
      "license_no": "指令西保第370-107号",
      "license_date": null,
      "expire_date": null
    },
    {
      "name": "厚切り牛タン＆赤身焼肉のワインレストランWiz",
      "name_kana": "",
      "business_type": "食肉販売業",
      "address": "大分県日田市中央一丁目6－28",
      "lat": 33.31793,
      "lng": 130.93547,
      "geocoding_level": null,
      "phone": "",
      "license_no": "指令西保第800-181号",
      "license_date": null,
      "expire_date": null
    },
    {
      "name": "みどりパン",
      "name_kana": "",
      "business_type": "菓子製造業",
      "address": "大分県日田市東町2番6号",
      "lat": 33.3117,
      "lng": 130.93646,
      "geocoding_level": null,
      "phone": "",
      "license_no": "指令西保第800-165号",
      "license_date": null,
      "expire_date": null
    },
    {
      "name": "みどりパン",
      "name_kana": "",
      "business_type": "飲食店営業",
      "address": "大分県日田市東町2番6号",
      "lat": 33.3117,
      "lng": 130.93646,
      "geocoding_level": null,
      "phone": "",
      "license_no": "指令西保第800-164号",
      "license_date": null,
      "expire_date": null
    },
    {
      "name": "うまかもん亭　みずき",
      "name_kana": "",
      "business_type": "飲食店営業",
      "address": "大分県日田市淡窓２丁目５－３９",
      "lat": 33.3221,
      "lng": 130.93384,
      "geocoding_level": null,
      "phone": "",
      "license_no": "指令西保第780-106号",
      "license_date": null,
      "expire_date": null
    },
    {
      "name": "北平食品加工組合",
      "name_kana": "",
      "business_type": "飲食店営業",
      "address": "大分県日田市天瀬町馬原3599－4",
      "lat": 33.28941,
      "lng": 131.01596,
      "geocoding_level": null,
      "phone": "",
      "license_no": "指令西保第800-198号",
      "license_date": null,
      "expire_date": null
    },
    {
      "name": "Ｏビバレッジ株式会社",
      "name_kana": "",
      "business_type": "清涼飲料水製造業",
      "address": "大分県日田市大字石井字逆渦７６３番地１",
      "lat": 33.30859,
      "lng": 130.90855,
      "geocoding_level": null,
      "phone": "",
      "license_no": "指令西保第631-4号",
      "license_date": null,
      "expire_date": null
    },
    {
      "name": "ホテルルートイン日田駅前",
      "name_kana": "",
      "business_type": "飲食店営業",
      "address": "大分県日田市元町21番14号",
      "lat": 33.31615,
      "lng": 130.93886,
      "geocoding_level": null,
      "phone": "",
      "license_no": "指令西保第790-17号",
      "license_date": null,
      "expire_date": null
    },
    {
      "name": "企業組合ももは工房",
      "name_kana": "",
      "business_type": "みそ又はしょうゆ製造業",
      "address": "大分県日田市大字夜明字島田693－1",
      "lat": 33.33744,
      "lng": 130.869,
      "geocoding_level": null,
      "phone": "",
      "license_no": "指令西保第370-86号",
      "license_date": null,
      "expire_date": null
    },
    {
      "name": "企業組合ももは工房",
      "name_kana": "",
      "business_type": "菓子製造業",
      "address": "大分県日田市大字夜明字島田693－1",
      "lat": 33.33744,
      "lng": 130.869,
      "geocoding_level": null,
      "phone": "",
      "license_no": "指令西保第370-85号",
      "license_date": null,
      "expire_date": null
    },
    {
      "name": "信光物産有限会社",
      "name_kana": "",
      "business_type": "菓子製造業",
      "address": "大分県日田市大字日高460番8",
      "lat": 33.29912,
      "lng": 130.96277,
      "geocoding_level": null,
      "phone": "",
      "license_no": "指令西保第370-98号",
      "license_date": null,
      "expire_date": null
    },
    {
      "name": "信光物産有限会社",
      "name_kana": "",
      "business_type": "そうざい製造業",
      "address": "大分県日田市大字日高460番地8",
      "lat": 33.29912,
      "lng": 130.96277,
      "geocoding_level": null,
      "phone": "",
      "license_no": "指令西保第370-99号",
      "license_date": null,
      "expire_date": null
    },
    {
      "name": "ドライブハウス古城日田インター店",
      "name_kana": "",
      "business_type": "飲食店営業",
      "address": "大分県日田市吹上町1129－2",
      "lat": 33.32983,
      "lng": 130.9292,
      "geocoding_level": null,
      "phone": "",
      "license_no": "指令西保第370-73号",
      "license_date": null,
      "expire_date": null
    },
    {
      "name": "ダイニング義々",
      "name_kana": "",
      "business_type": "飲食店営業",
      "address": "大分県日田市新治町368",
      "lat": 33.32104,
      "lng": 130.94131,
      "geocoding_level": null,
      "phone": "",
      "license_no": "指令西保第370-71号",
      "license_date": null,
      "expire_date": null
    },
    {
      "name": "株式会社シンシアリーミニえくぼ",
      "name_kana": "",
      "business_type": "飲食店営業",
      "address": "大分県日田市大字花月1330番地",
      "lat": 33.38667,
      "lng": 130.98436,
      "geocoding_level": null,
      "phone": "",
      "license_no": "指令西保第370-129号",
      "license_date": null,
      "expire_date": null
    },
    {
      "name": "マクドナルド日田店",
      "name_kana": "",
      "business_type": "飲食店営業",
      "address": "大分県日田市三本松2－5",
      "lat": 33.32106,
      "lng": 130.93007,
      "geocoding_level": null,
      "phone": "",
      "license_no": "指令西保第370-122号",
      "license_date": null,
      "expire_date": null
    },
    {
      "name": "ラーメンごくまる日田店",
      "name_kana": "",
      "business_type": "飲食店営業",
      "address": "大分県日田市友田８０２－１",
      "lat": 33.32452,
      "lng": 130.9111,
      "geocoding_level": null,
      "phone": "",
      "license_no": "指令西保第370-160号",
      "license_date": null,
      "expire_date": null
    },
    {
      "name": "有限会社中島農場",
      "name_kana": "",
      "business_type": "そうざい製造業",
      "address": "大分県日田市大字西有田2419番地の3",
      "lat": 33.34664,
      "lng": 130.95851,
      "geocoding_level": null,
      "phone": "",
      "license_no": "指令西保第370-172号",
      "license_date": null,
      "expire_date": null
    },
    {
      "name": "パブチュ－リップ",
      "name_kana": "",
      "business_type": "飲食店営業",
      "address": "大分県日田市隈1丁目1－23 大和観光ビル1F",
      "lat": 33.31324,
      "lng": 130.93251,
      "geocoding_level": null,
      "phone": "",
      "license_no": "指令西保第370-174号",
      "license_date": null,
      "expire_date": null
    },
    {
      "name": "河北うずら株式会社",
      "name_kana": "",
      "business_type": "そうざい製造業",
      "address": "大分県日田市天瀬町合田2275番地1",
      "lat": 33.26767,
      "lng": 131.00266,
      "geocoding_level": null,
      "phone": "",
      "license_no": "指令西保第550-14号",
      "license_date": null,
      "expire_date": null
    },
    {
      "name": "KIZAN倶楽部",
      "name_kana": "",
      "business_type": "飲食店営業",
      "address": "大分県日田市隈1丁目3－16",
      "lat": 33.31233,
      "lng": 130.93161,
      "geocoding_level": null,
      "phone": "",
      "license_no": "指令西保第550-36号",
      "license_date": null,
      "expire_date": null
    },
    {
      "name": "合資会社鳥久",
      "name_kana": "",
      "business_type": "飲食店営業",
      "address": "大分県日田市丸山町1丁目10－5",
      "lat": 33.33025,
      "lng": 130.93732,
      "geocoding_level": null,
      "phone": "",
      "license_no": "指令西保第550-32号",
      "license_date": null,
      "expire_date": null
    },
    {
      "name": "まめろし",
      "name_kana": "",
      "business_type": "そうざい製造業",
      "address": "大分県日田市若宮町5－41",
      "lat": 33.30837,
      "lng": 130.94139,
      "geocoding_level": null,
      "phone": "",
      "license_no": "指令西保第550-54号",
      "license_date": null,
      "expire_date": null
    },
    {
      "name": "煮売屋まめろし",
      "name_kana": "",
      "business_type": "飲食店営業",
      "address": "大分県日田市豆田町1－4",
      "lat": 33.32589,
      "lng": 130.93727,
      "geocoding_level": null,
      "phone": "",
      "license_no": "指令西保第550-55号",
      "license_date": null,
      "expire_date": null
    },
    {
      "name": "小林鮮魚店",
      "name_kana": "",
      "business_type": "魚介類販売業",
      "address": "大分県日田市中央１丁目３９４番地",
      "lat": 33.31823,
      "lng": 130.93593,
      "geocoding_level": null,
      "phone": "",
      "license_no": "指令西保第550-101号",
      "license_date": null,
      "expire_date": null
    },
    {
      "name": "小林鮮魚店",
      "name_kana": "",
      "business_type": "飲食店営業",
      "address": "大分県日田市中央１丁目３９４番地",
      "lat": 33.31823,
      "lng": 130.93593,
      "geocoding_level": null,
      "phone": "",
      "license_no": "指令西保第550-100号",
      "license_date": null,
      "expire_date": null
    },
    {
      "name": "奥日田温泉梅酒蔵おおやま",
      "name_kana": "",
      "business_type": "飲食店営業",
      "address": "大分県日田市大山町西大山４５８７番地",
      "lat": 33.22472,
      "lng": 130.96452,
      "geocoding_level": null,
      "phone": "",
      "license_no": "指令西保第550-97号",
      "license_date": null,
      "expire_date": null
    },
    {
      "name": "奥日田温泉うめひびき",
      "name_kana": "",
      "business_type": "飲食店営業",
      "address": "大分県日田市大山町西大山４５８７",
      "lat": 33.22472,
      "lng": 130.96452,
      "geocoding_level": null,
      "phone": "",
      "license_no": "指令西保第550-96号",
      "license_date": null,
      "expire_date": null
    },
    {
      "name": "株式会社インパクト",
      "name_kana": "",
      "business_type": "清涼飲料水製造業",
      "address": "大分県日田市大山町東大山１９０５－２",
      "lat": 33.256,
      "lng": 130.98456,
      "geocoding_level": null,
      "phone": "",
      "license_no": "指令西保第550-98号",
      "license_date": null,
      "expire_date": null
    },
    {
      "name": "有限会社大徳",
      "name_kana": "",
      "business_type": "菓子製造業",
      "address": "大分県日田市天瀬町馬原３７３５",
      "lat": 33.28941,
      "lng": 131.01596,
      "geocoding_level": null,
      "phone": "",
      "license_no": "指令西保第550-124号",
      "license_date": null,
      "expire_date": null
    },
    {
      "name": "ヴィーナスギャラリー日田",
      "name_kana": "",
      "business_type": "飲食店営業",
      "address": "大分県日田市大字友田９８６－１",
      "lat": 33.32574,
      "lng": 130.90974,
      "geocoding_level": null,
      "phone": "",
      "license_no": "指令西保第550-129号",
      "license_date": null,
      "expire_date": null
    },
    {
      "name": "株式会社ジェイケーアイス九州工場",
      "name_kana": "",
      "business_type": "氷雪製造業",
      "address": "大分県日田市大字西有田１７９８－１",
      "lat": 33.34705,
      "lng": 130.95601,
      "geocoding_level": null,
      "phone": "",
      "license_no": "指令西保第550-131号",
      "license_date": null,
      "expire_date": null
    },
    {
      "name": "株式会社きよた営農部",
      "name_kana": "",
      "business_type": "漬物製造業",
      "address": "大分県日田市大山町東大山６４４",
      "lat": 33.256,
      "lng": 130.98456,
      "geocoding_level": null,
      "phone": "",
      "license_no": "指令西保第850-8号",
      "license_date": null,
      "expire_date": null
    },
    {
      "name": "日田中央青果１Ｆ",
      "name_kana": "",
      "business_type": "調理機能を有する自動販売機",
      "address": "大分県日田市友田１９１０－１",
      "lat": 33.32771,
      "lng": 130.90594,
      "geocoding_level": null,
      "phone": "",
      "license_no": "指令西保第870-48号",
      "license_date": null,
      "expire_date": null
    },
    {
      "name": "日田中央青果１Ｆ",
      "name_kana": "",
      "business_type": "調理機能を有する自動販売機",
      "address": "大分県日田市友田１９１０－１",
      "lat": 33.32771,
      "lng": 130.90594,
      "geocoding_level": null,
      "phone": "",
      "license_no": "指令西保第870-49号",
      "license_date": null,
      "expire_date": null
    },
    {
      "name": "千屋",
      "name_kana": "",
      "business_type": "飲食店営業",
      "address": "大分県日田市豆田町５８番地",
      "lat": 33.3276,
      "lng": 130.93703,
      "geocoding_level": null,
      "phone": "",
      "license_no": "指令西保第850-31号",
      "license_date": null,
      "expire_date": null
    },
    {
      "name": "とうわ食堂",
      "name_kana": "",
      "business_type": "飲食店営業",
      "address": "大分県日田市上津江町川原２４５８－３",
      "lat": 33.10177,
      "lng": 130.97484,
      "geocoding_level": null,
      "phone": "",
      "license_no": "指令西保第850-61号",
      "license_date": null,
      "expire_date": null
    },
    {
      "name": "とうわ食堂",
      "name_kana": "",
      "business_type": "そうざい製造業",
      "address": "大分県日田市上津江町川原２４５８－３",
      "lat": 33.10177,
      "lng": 130.97484,
      "geocoding_level": null,
      "phone": "",
      "license_no": "指令西保第850-62号",
      "license_date": null,
      "expire_date": null
    },
    {
      "name": "雛御殿",
      "name_kana": "",
      "business_type": "飲食店営業",
      "address": "大分県日田市豆田町１３－６",
      "lat": 33.32821,
      "lng": 130.93587,
      "geocoding_level": null,
      "phone": "",
      "license_no": "指令西保第850-54号",
      "license_date": null,
      "expire_date": null
    },
    {
      "name": "金比羅うどん玉川店",
      "name_kana": "",
      "business_type": "飲食店営業",
      "address": "大分県日田市玉川３丁目６４９－１",
      "lat": 33.32104,
      "lng": 130.94131,
      "geocoding_level": null,
      "phone": "",
      "license_no": "指令西保第850-41号",
      "license_date": null,
      "expire_date": null
    },
    {
      "name": "ＷｉＺ",
      "name_kana": "",
      "business_type": "そうざい製造業",
      "address": "大分県日田市中央１丁目６－２８",
      "lat": 33.31793,
      "lng": 130.93547,
      "geocoding_level": null,
      "phone": "",
      "license_no": "指令西保第850-70号",
      "license_date": null,
      "expire_date": null
    },
    {
      "name": "もち吉日田店",
      "name_kana": "",
      "business_type": "菓子製造業",
      "address": "大分県日田市南元町９７番地",
      "lat": 33.31353,
      "lng": 130.94011,
      "geocoding_level": null,
      "phone": "",
      "license_no": "指令西保第850-90号",
      "license_date": null,
      "expire_date": null
    },
    {
      "name": "株式会社想夫恋",
      "name_kana": "",
      "business_type": "麺類製造業",
      "address": "大分県日田市大字友田１４７５番地",
      "lat": 33.33019,
      "lng": 130.91617,
      "geocoding_level": null,
      "phone": "",
      "license_no": "指令西保第870-124号",
      "license_date": null,
      "expire_date": null
    },
    {
      "name": "株式会社想夫恋",
      "name_kana": "",
      "business_type": "食肉販売業",
      "address": "大分県日田市大字友田１４７５番地",
      "lat": 33.33019,
      "lng": 130.91617,
      "geocoding_level": null,
      "phone": "",
      "license_no": "指令西保第870-125号",
      "license_date": null,
      "expire_date": null
    },
    {
      "name": "ハンドメイドキッチンＯＪインター店",
      "name_kana": "",
      "business_type": "飲食店営業",
      "address": "大分県日田市吹上町１１３０－５",
      "lat": 33.33224,
      "lng": 130.93086,
      "geocoding_level": null,
      "phone": "",
      "license_no": "指令西保第850-83号",
      "license_date": null,
      "expire_date": null
    },
    {
      "name": "医療法人鶴陽会岩尾病院",
      "name_kana": "",
      "business_type": "飲食店営業",
      "address": "大分県日田市淡窓２丁目４－２９",
      "lat": 33.32294,
      "lng": 130.93387,
      "geocoding_level": null,
      "phone": "",
      "license_no": "指令西保第870-164号",
      "license_date": null,
      "expire_date": null
    },
    {
      "name": "湯里",
      "name_kana": "",
      "business_type": "飲食店営業",
      "address": "大分県日田市天瀬町桜竹字簗ヶ瀬５３６番地４",
      "lat": 33.24585,
      "lng": 131.02034,
      "geocoding_level": null,
      "phone": "",
      "license_no": "指令西保第870-192号",
      "license_date": null,
      "expire_date": null
    },
    {
      "name": "三和酒類（株）日田蒸留所",
      "name_kana": "",
      "business_type": "飲食店営業",
      "address": "大分県日田市大字西有田８１０－１",
      "lat": 33.34705,
      "lng": 130.95601,
      "geocoding_level": null,
      "phone": "",
      "license_no": "指令西保第780-6号",
      "license_date": null,
      "expire_date": null
    },
    {
      "name": "ゆめマート日田",
      "name_kana": "",
      "business_type": "菓子製造業",
      "address": "大分県日田市大字十二町岸高５６４番地１",
      "lat": 33.32312,
      "lng": 130.92339,
      "geocoding_level": null,
      "phone": "",
      "license_no": "指令西保第780-3号",
      "license_date": null,
      "expire_date": null
    },
    {
      "name": "ゆめマート日田",
      "name_kana": "",
      "business_type": "食肉販売業",
      "address": "大分県日田市大字十二町岸高５６４番地１",
      "lat": 33.32312,
      "lng": 130.92339,
      "geocoding_level": null,
      "phone": "",
      "license_no": "指令西保第780-4号",
      "license_date": null,
      "expire_date": null
    },
    {
      "name": "ゆめマート日田",
      "name_kana": "",
      "business_type": "魚介類販売業",
      "address": "大分県日田市大字十二町岸高５６４番地１",
      "lat": 33.32312,
      "lng": 130.92339,
      "geocoding_level": null,
      "phone": "",
      "license_no": "指令西保第780-2号",
      "license_date": null,
      "expire_date": null
    },
    {
      "name": "ゆめマート日田飲食店営業調理室",
      "name_kana": "",
      "business_type": "飲食店営業",
      "address": "大分県日田市大字十二町岸高５６４番地１",
      "lat": 33.32312,
      "lng": 130.92339,
      "geocoding_level": null,
      "phone": "",
      "license_no": "指令西保第780-5号",
      "license_date": null,
      "expire_date": null
    },
    {
      "name": "株式会社吉冨産業",
      "name_kana": "",
      "business_type": "飲食店営業",
      "address": "大分県日田市三本松１－１３－２４",
      "lat": 33.32074,
      "lng": 130.93332,
      "geocoding_level": null,
      "phone": "",
      "license_no": "指令西保第870-79号",
      "license_date": null,
      "expire_date": null
    },
    {
      "name": "株式会社想夫恋",
      "name_kana": "",
      "business_type": "冷凍食品製造業",
      "address": "大分県日田市大字友田１１０番地の５",
      "lat": 33.32464,
      "lng": 130.91605,
      "geocoding_level": null,
      "phone": "",
      "license_no": "指令西保第870-87号",
      "license_date": null,
      "expire_date": null
    },
    {
      "name": "鳥市中央店",
      "name_kana": "",
      "business_type": "食肉販売業",
      "address": "大分県日田市中央１丁目７－３１",
      "lat": 33.31765,
      "lng": 130.93526,
      "geocoding_level": null,
      "phone": "",
      "license_no": "指令西保第870-89号",
      "license_date": null,
      "expire_date": null
    },
    {
      "name": "鳥市中央店",
      "name_kana": "",
      "business_type": "そうざい製造業",
      "address": "大分県日田市中央１丁目７－３１",
      "lat": 33.31765,
      "lng": 130.93526,
      "geocoding_level": null,
      "phone": "",
      "license_no": "指令西保第870-90号",
      "license_date": null,
      "expire_date": null
    },
    {
      "name": "カフェガーリック",
      "name_kana": "",
      "business_type": "飲食店営業",
      "address": "大分県日田市大字小野１５番地（三河町）",
      "lat": 33.3674,
      "lng": 130.95372,
      "geocoding_level": null,
      "phone": "",
      "license_no": "指令西保第870-83号",
      "license_date": null,
      "expire_date": null
    },
    {
      "name": "小久保製氷冷蔵株式会社九州日田工場",
      "name_kana": "",
      "business_type": "氷雪製造業",
      "address": "大分県日田市大字西有田１７９８－１",
      "lat": 33.34705,
      "lng": 130.95601,
      "geocoding_level": null,
      "phone": "",
      "license_no": "指令西保第870-92号",
      "license_date": null,
      "expire_date": null
    },
    {
      "name": "株式会社渡邉食品企画おおやま工場",
      "name_kana": "",
      "business_type": "そうざい製造業",
      "address": "大分県日田市大山町東大山４６１－２",
      "lat": 33.256,
      "lng": 130.98456,
      "geocoding_level": null,
      "phone": "",
      "license_no": "指令西保第870-150号",
      "license_date": null,
      "expire_date": null
    },
    {
      "name": "博多麺王日田店",
      "name_kana": "",
      "business_type": "飲食店営業",
      "address": "大分県日田市吹上町８番１５号",
      "lat": 33.33083,
      "lng": 130.92821,
      "geocoding_level": null,
      "phone": "",
      "license_no": "指令西保第870-141号",
      "license_date": null,
      "expire_date": null
    },
    {
      "name": "有限会社日田ディナーサービス",
      "name_kana": "",
      "business_type": "飲食店営業",
      "address": "大分県日田市大字三和９９９－１",
      "lat": 33.35109,
      "lng": 130.9464,
      "geocoding_level": null,
      "phone": "",
      "license_no": "指令西保第870-151号",
      "license_date": null,
      "expire_date": null
    },
    {
      "name": "五蘊の風",
      "name_kana": "",
      "business_type": "そうざい製造業",
      "address": "大分県日田市大字庄手中釣４４４番地２",
      "lat": 33.31591,
      "lng": 130.92001,
      "geocoding_level": null,
      "phone": "",
      "license_no": "指令西保第870-111号",
      "license_date": null,
      "expire_date": null
    },
    {
      "name": "株式会社武田リテール登録商標とうふの飛太郎",
      "name_kana": "",
      "business_type": "飲食店営業",
      "address": "大分県日田市夜明関町字飛太郎３５８５－１",
      "lat": 33.33744,
      "lng": 130.869,
      "geocoding_level": null,
      "phone": "",
      "license_no": "指令西保第870-188号",
      "license_date": null,
      "expire_date": null
    },
    {
      "name": "株式会社武田リテール登録商標とうふの飛太郎",
      "name_kana": "",
      "business_type": "そうざい製造業",
      "address": "大分県日田市夜明関町字飛太郎３５８５－１",
      "lat": 33.33744,
      "lng": 130.869,
      "geocoding_level": null,
      "phone": "",
      "license_no": "指令西保第870-189号",
      "license_date": null,
      "expire_date": null
    },
    {
      "name": "株式会社武田リテール登録商標とうふの飛太郎",
      "name_kana": "",
      "business_type": "菓子製造業",
      "address": "大分県日田市夜明関町字飛太郎３５８５－１",
      "lat": 33.33744,
      "lng": 130.869,
      "geocoding_level": null,
      "phone": "",
      "license_no": "指令西保第870-190号",
      "license_date": null,
      "expire_date": null
    },
    {
      "name": "株式会社武田リテール登録商標とうふの飛太郎",
      "name_kana": "",
      "business_type": "豆腐製造業",
      "address": "大分県日田市夜明関町字飛太郎３５８５－１",
      "lat": 33.33744,
      "lng": 130.869,
      "geocoding_level": null,
      "phone": "",
      "license_no": "指令西保第870-191号",
      "license_date": null,
      "expire_date": null
    },
    {
      "name": "中華料理　全徳祥",
      "name_kana": "",
      "business_type": "飲食店営業",
      "address": "大分県日田市大字十二町475－1",
      "lat": 33.3239,
      "lng": 130.92014,
      "geocoding_level": null,
      "phone": "",
      "license_no": "指令西保第710-197号",
      "license_date": null,
      "expire_date": null
    },
    {
      "name": "伯亭若の屋",
      "name_kana": "",
      "business_type": "飲食店営業",
      "address": "大分県日田市豆田町７番３１号",
      "lat": 33.3281,
      "lng": 130.93677,
      "geocoding_level": null,
      "phone": "",
      "license_no": "指令西保第870-167号",
      "license_date": null,
      "expire_date": null
    },
    {
      "name": "企業組合ももは工房",
      "name_kana": "",
      "business_type": "そうざい製造業",
      "address": "大分県日田市夜明上町６９３－１",
      "lat": 33.33744,
      "lng": 130.869,
      "geocoding_level": null,
      "phone": "",
      "license_no": "指令西保第870-186号",
      "license_date": null,
      "expire_date": null
    },
    {
      "name": "企業組合ももは工房第一加工所",
      "name_kana": "",
      "business_type": "漬物製造業",
      "address": "大分県日田市夜明上町４０２",
      "lat": 33.33744,
      "lng": 130.869,
      "geocoding_level": null,
      "phone": "",
      "license_no": "指令西保第870-2号",
      "license_date": null,
      "expire_date": null
    },
    {
      "name": "有料老人ホーム　蹈青",
      "name_kana": "",
      "business_type": "飲食店営業",
      "address": "大分県日田市竹田304-2",
      "lat": 33.31211,
      "lng": 130.94247,
      "geocoding_level": null,
      "phone": "",
      "license_no": "指令西保第710-244号",
      "license_date": null,
      "expire_date": null
    },
    {
      "name": "若宮病院",
      "name_kana": "",
      "business_type": "飲食店営業",
      "address": "大分県日田市南元町6-41",
      "lat": 33.3119,
      "lng": 130.94072,
      "geocoding_level": null,
      "phone": "",
      "license_no": "指令西保第710-245号",
      "license_date": null,
      "expire_date": null
    },
    {
      "name": "デイケア若宮",
      "name_kana": "",
      "business_type": "飲食店営業",
      "address": "大分県日田市南元町24-10",
      "lat": 33.31209,
      "lng": 130.94106,
      "geocoding_level": null,
      "phone": "",
      "license_no": "指令西保第710-246号",
      "license_date": null,
      "expire_date": null
    },
    {
      "name": "ＧＯＬＤＥＮＮＯＯＤＬＥＳ　サムライ",
      "name_kana": "",
      "business_type": "飲食店営業",
      "address": "大分県日田市隈１丁目４－２",
      "lat": 33.31232,
      "lng": 130.93234,
      "geocoding_level": null,
      "phone": "",
      "license_no": "指令西保第780-21号",
      "license_date": null,
      "expire_date": null
    },
    {
      "name": "すてーき茶寮　和くら",
      "name_kana": "",
      "business_type": "食肉販売業",
      "address": "大分県日田市隈２丁目４－１３",
      "lat": 33.31566,
      "lng": 130.92996,
      "geocoding_level": null,
      "phone": "",
      "license_no": "指令西保第780-45号",
      "license_date": null,
      "expire_date": null
    },
    {
      "name": "三隈飯店",
      "name_kana": "",
      "business_type": "飲食店営業",
      "address": "大分県日田市隈１丁目５番２１号",
      "lat": 33.31259,
      "lng": 130.93303,
      "geocoding_level": null,
      "phone": "",
      "license_no": "指令西保第780-38号",
      "license_date": null,
      "expire_date": null
    },
    {
      "name": "讃岐屋玉三朗",
      "name_kana": "",
      "business_type": "飲食店営業",
      "address": "大分県日田市大字十二町字前田601－2",
      "lat": 33.32312,
      "lng": 130.92339,
      "geocoding_level": null,
      "phone": "",
      "license_no": "指令西保第900-29号",
      "license_date": null,
      "expire_date": null
    },
    {
      "name": "大和",
      "name_kana": "",
      "business_type": "魚介類販売業",
      "address": "大分県日田市三本松二丁目7番33号",
      "lat": 33.3203,
      "lng": 130.93214,
      "geocoding_level": null,
      "phone": "",
      "license_no": "指令西保第900-45号",
      "license_date": null,
      "expire_date": null
    },
    {
      "name": "大和",
      "name_kana": "",
      "business_type": "飲食店営業",
      "address": "大分県日田市三本松二丁目7番33号",
      "lat": 33.3203,
      "lng": 130.93214,
      "geocoding_level": null,
      "phone": "",
      "license_no": "指令西保第900-46号",
      "license_date": null,
      "expire_date": null
    },
    {
      "name": "うしとさかな",
      "name_kana": "",
      "business_type": "飲食店営業",
      "address": "大分県日田市三本松１丁目１２番３８号",
      "lat": 33.31992,
      "lng": 130.933,
      "geocoding_level": null,
      "phone": "",
      "license_no": "指令西保第780-89号",
      "license_date": null,
      "expire_date": null
    },
    {
      "name": "数多き々や店",
      "name_kana": "",
      "business_type": "飲食店営業",
      "address": "大分県日田市元町１６－７ 柳橋ビル２Ｆ",
      "lat": 33.31664,
      "lng": 130.93663,
      "geocoding_level": null,
      "phone": "",
      "license_no": "指令西保第780-100号",
      "license_date": null,
      "expire_date": null
    },
    {
      "name": "有限会社　山荘　天水",
      "name_kana": "",
      "business_type": "菓子製造業",
      "address": "大分県日田市天瀬町桜竹６０１",
      "lat": 33.24585,
      "lng": 131.02034,
      "geocoding_level": null,
      "phone": "",
      "license_no": "指令西保第780-102号",
      "license_date": null,
      "expire_date": null
    },
    {
      "name": "三隈川観光開発㈱　やな場茶屋",
      "name_kana": "",
      "business_type": "魚介類販売業",
      "address": "大分県日田市若宮町１２３３－１３地先",
      "lat": 33.3093,
      "lng": 130.93988,
      "geocoding_level": null,
      "phone": "",
      "license_no": "指令西保第780-75号",
      "license_date": null,
      "expire_date": null
    },
    {
      "name": "有限会社　大徳",
      "name_kana": "",
      "business_type": "飲食店営業",
      "address": "大分県日田市天瀬町馬原３７３５",
      "lat": 33.28941,
      "lng": 131.01596,
      "geocoding_level": null,
      "phone": "",
      "license_no": "指令西保第780-110号",
      "license_date": null,
      "expire_date": null
    },
    {
      "name": "北九福鳥(株)日田営業所",
      "name_kana": "",
      "business_type": "食肉処理業",
      "address": "大分県日田市南友田広瀬846－1",
      "lat": 33.31353,
      "lng": 130.94011,
      "geocoding_level": null,
      "phone": "",
      "license_no": "指令西保第900-95号",
      "license_date": null,
      "expire_date": null
    },
    {
      "name": "cafe　Luana",
      "name_kana": "",
      "business_type": "飲食店営業",
      "address": "大分県日田市上城内町1466－1",
      "lat": 33.32615,
      "lng": 130.9433,
      "geocoding_level": null,
      "phone": "",
      "license_no": "指令西保第900-103号",
      "license_date": null,
      "expire_date": null
    },
    {
      "name": "有限会社　山荘　天水",
      "name_kana": "",
      "business_type": "そうざい製造業",
      "address": "大分県日田市天瀬町桜竹６０１",
      "lat": 33.24585,
      "lng": 131.02034,
      "geocoding_level": null,
      "phone": "",
      "license_no": "指令西保第900-136号",
      "license_date": null,
      "expire_date": null
    },
    {
      "name": "お届け弁当まる吉",
      "name_kana": "",
      "business_type": "飲食店営業",
      "address": "大分県日田市上城内町1－17",
      "lat": 33.32435,
      "lng": 130.942,
      "geocoding_level": null,
      "phone": "",
      "license_no": "指令西保第900-139号",
      "license_date": null,
      "expire_date": null
    },
    {
      "name": "唐揚げ　とり秀",
      "name_kana": "",
      "business_type": "飲食店営業",
      "address": "大分県日田市中ノ島町168－2",
      "lat": 33.31823,
      "lng": 130.93593,
      "geocoding_level": null,
      "phone": "",
      "license_no": "指令西保第900-149号",
      "license_date": null,
      "expire_date": null
    },
    {
      "name": "すてーき茶寮　和くら",
      "name_kana": "",
      "business_type": "飲食店営業",
      "address": "大分県日田市隈２丁目４－１３",
      "lat": 33.31566,
      "lng": 130.92996,
      "geocoding_level": null,
      "phone": "",
      "license_no": "指令西保第900-152号",
      "license_date": null,
      "expire_date": null
    },
    {
      "name": "すてーき茶寮　和くら",
      "name_kana": "",
      "business_type": "菓子製造業",
      "address": "大分県日田市隈２丁目４－１３",
      "lat": 33.31566,
      "lng": 130.92996,
      "geocoding_level": null,
      "phone": "",
      "license_no": "指令西保第900-153号",
      "license_date": null,
      "expire_date": null
    },
    {
      "name": "旅の宿さつき",
      "name_kana": "",
      "business_type": "飲食店営業",
      "address": "大分県日田市本町1－1",
      "lat": 33.3161,
      "lng": 130.93633,
      "geocoding_level": null,
      "phone": "",
      "license_no": "指令西保第700-1号",
      "license_date": null,
      "expire_date": null
    },
    {
      "name": "有限会社　日田醤油",
      "name_kana": "",
      "business_type": "そうざい製造業",
      "address": "大分県日田市丸の内町2－1",
      "lat": 33.32758,
      "lng": 130.93513,
      "geocoding_level": null,
      "phone": "",
      "license_no": "指令西保第700-9号",
      "license_date": null,
      "expire_date": null
    },
    {
      "name": "有限会社　日田醤油",
      "name_kana": "",
      "business_type": "菓子製造業",
      "address": "大分県日田市丸の内町692－5",
      "lat": 33.32809,
      "lng": 130.93254,
      "geocoding_level": null,
      "phone": "",
      "license_no": "指令西保第700-10号",
      "license_date": null,
      "expire_date": null
    },
    {
      "name": "喫茶もみの木",
      "name_kana": "",
      "business_type": "飲食店営業",
      "address": "大分県日田市隈2丁目8－15",
      "lat": 33.31565,
      "lng": 130.93059,
      "geocoding_level": null,
      "phone": "",
      "license_no": "指令西保第700-28号",
      "license_date": null,
      "expire_date": null
    },
    {
      "name": "「ニコニコ交流館」",
      "name_kana": "",
      "business_type": "飲食店営業",
      "address": "大分県日田市元町15－1",
      "lat": 33.31696,
      "lng": 130.93703,
      "geocoding_level": null,
      "phone": "",
      "license_no": "指令西保第700-41号",
      "license_date": null,
      "expire_date": null
    },