{
  "meta": {
    "updated": 1783906731,
    "sources": [
      {
        "source": "山口県食品営業許可施設情報一覧",
        "license": "CC BY"
      },
      {
        "source": "下関市食品営業許可施設一覧（マップ用）",
        "license": "CC BY"
      },
      {
        "source": "厚生労働省 食品衛生申請等システム（オープンデータ）",
        "license": "公共データ利用規約（第1.0版, PDL1.0）"
      }
    ]
  },
  "data": [
    {
      "name": "VESUVIANA",
      "name_kana": "",
      "business_type": "",
      "address": "山口県下関市千鳥ヶ丘町1-5",
      "lat": 34.033736182,
      "lng": 131.008500296,
      "geocoding_level": 8,
      "phone": "",
      "license_no": "",
      "license_date": "2021-05-20",
      "expire_date": null
    },
    {
      "name": "髙橋商店",
      "name_kana": "",
      "business_type": "魚介類販売業",
      "address": "下関市彦島田の首町二丁目28－61",
      "lat": 33.91325172,
      "lng": 130.9122435,
      "geocoding_level": null,
      "phone": "",
      "license_no": "40514",
      "license_date": "2022-11-15",
      "expire_date": "2027-12-31"
    },
    {
      "name": "café　Lemon",
      "name_kana": "",
      "business_type": "飲食店営業",
      "address": "下関市彦島田の首町一丁目3－8",
      "lat": 33.91778648,
      "lng": 130.9161047,
      "geocoding_level": null,
      "phone": "",
      "license_no": "60603",
      "license_date": "2025-01-28",
      "expire_date": "2031-03-31"
    },
    {
      "name": "ハイ　フォン　クァン",
      "name_kana": "",
      "business_type": "飲食店営業",
      "address": "下関市彦島向井町一丁目11－20",
      "lat": 33.91855111,
      "lng": 130.9211847,
      "geocoding_level": null,
      "phone": "",
      "license_no": "40610",
      "license_date": "2022-12-13",
      "expire_date": "2027-12-31"
    },
    {
      "name": "セブンイレブン下関彦島向井町店",
      "name_kana": "",
      "business_type": "飲食店営業",
      "address": "下関市彦島田の首町一丁目2－9",
      "lat": 33.91894939,
      "lng": 130.9149853,
      "geocoding_level": null,
      "phone": "083-266-3056",
      "license_no": "60550",
      "license_date": "2024-12-23",
      "expire_date": "2030-12-31"
    },
    {
      "name": "花咲　リブホール塩浜",
      "name_kana": "",
      "business_type": "飲食店営業",
      "address": "下関市彦島田の首町一丁目1－25",
      "lat": 33.91942299,
      "lng": 130.9155397,
      "geocoding_level": null,
      "phone": "083-266-3603",
      "license_no": "31495",
      "license_date": "2021-11-19",
      "expire_date": "2027-12-31"
    },
    {
      "name": "サークルフーズ　塩浜店",
      "name_kana": "",
      "business_type": "食肉販売業",
      "address": "下関市彦島田の首町一丁目1－25 塩浜店",
      "lat": 33.91942299,
      "lng": 130.9155397,
      "geocoding_level": null,
      "phone": "083-268-1711",
      "license_no": "31487",
      "license_date": "2021-11-16",
      "expire_date": "2027-12-31"
    },
    {
      "name": "最上鮮魚　塩浜店",
      "name_kana": "",
      "business_type": "魚介類販売業",
      "address": "下関市彦島田の首町一丁目1－25",
      "lat": 33.91942299,
      "lng": 130.9155397,
      "geocoding_level": null,
      "phone": "083-266-1140",
      "license_no": "20677",
      "license_date": "2020-12-08",
      "expire_date": "2025-12-31"
    },
    {
      "name": "最上鮮魚　塩浜店",
      "name_kana": "",
      "business_type": "飲食店営業(すし屋)",
      "address": "下関市彦島田の首町一丁目1－25",
      "lat": 33.91942299,
      "lng": 130.9155397,
      "geocoding_level": null,
      "phone": "083-266-1140",
      "license_no": "20678",
      "license_date": "2020-12-08",
      "expire_date": "2025-12-31"
    },
    {
      "name": "洋菓子工房　ひだまり",
      "name_kana": "",
      "business_type": "菓子製造業",
      "address": "下関市彦島塩浜町三丁目15－22 フジビル１Ｆ",
      "lat": 33.91947254,
      "lng": 130.9145441,
      "geocoding_level": null,
      "phone": "083-267-6086",
      "license_no": "31274",
      "license_date": "2021-08-26",
      "expire_date": "2027-09-30"
    },
    {
      "name": "またゆこ食堂",
      "name_kana": "",
      "business_type": "飲食店営業",
      "address": "下関市彦島塩浜町三丁目15－22",
      "lat": 33.91947254,
      "lng": 130.9145441,
      "geocoding_level": null,
      "phone": "083-265-7964",
      "license_no": "40411",
      "license_date": "2022-09-15",
      "expire_date": "2027-09-30"
    },
    {
      "name": "アミタ塩浜",
      "name_kana": "",
      "business_type": "飲食店営業(一般食堂)",
      "address": "下関市彦島塩浜町三丁目14－47 アイユウの苑しおはま",
      "lat": 33.91965704,
      "lng": 130.9125398,
      "geocoding_level": null,
      "phone": "083-250-9973",
      "license_no": "20153",
      "license_date": "2020-06-08",
      "expire_date": "2026-06-30"
    },
    {
      "name": "アイユウの苑喫茶しおはま",
      "name_kana": "",
      "business_type": "喫茶店営業",
      "address": "下関市彦島塩浜町三丁目14－47",
      "lat": 33.91965704,
      "lng": 130.9125398,
      "geocoding_level": null,
      "phone": "083-267-8800",
      "license_no": "20177",
      "license_date": "2020-06-05",
      "expire_date": "2026-06-30"
    },
    {
      "name": "アイユウの苑ＧＨ",
      "name_kana": "",
      "business_type": "飲食店営業",
      "address": "下関市彦島田の首町一丁目1－32",
      "lat": 33.91966366,
      "lng": 130.9161125,
      "geocoding_level": null,
      "phone": "083-266-5361",
      "license_no": "50308",
      "license_date": "2023-08-22",
      "expire_date": "2029-09-30"
    },
    {
      "name": "お食事処　おかあさん",
      "name_kana": "",
      "business_type": "飲食店営業",
      "address": "下関市彦島向井町二丁目10－36",
      "lat": 33.91970754,
      "lng": 130.9181281,
      "geocoding_level": null,
      "phone": "083-265-5888",
      "license_no": "31204",
      "license_date": "2021-08-03",
      "expire_date": "2026-09-30"
    },
    {
      "name": "中華料理　峯味閣",
      "name_kana": "",
      "business_type": "飲食店営業",
      "address": "下関市彦島向井町二丁目8－7",
      "lat": 33.92006474,
      "lng": 130.9152578,
      "geocoding_level": null,
      "phone": "",
      "license_no": "31058",
      "license_date": "2021-06-16",
      "expire_date": "2027-06-30"
    },
    {
      "name": "大日本パール工業株式会社",
      "name_kana": "",
      "business_type": "水産製品製造業",
      "address": "下関市彦島塩浜町二丁目1－6",
      "lat": 33.92025732,
      "lng": 130.9092024,
      "geocoding_level": null,
      "phone": "083-266-5331",
      "license_no": "31578",
      "license_date": "2021-12-28",
      "expire_date": "2026-12-31"
    },
    {
      "name": "和処　とらや",
      "name_kana": "",
      "business_type": "飲食店営業",
      "address": "下関市彦島向井町二丁目8－13",
      "lat": 33.92036038,
      "lng": 130.9150534,
      "geocoding_level": null,
      "phone": "083-266-1432",
      "license_no": "40397",
      "license_date": "2022-09-15",
      "expire_date": "2027-09-30"
    },
    {
      "name": "株式会社イリイチ食品",
      "name_kana": "",
      "business_type": "水産製品製造業",
      "address": "下関市彦島塩浜町一丁目5－17",
      "lat": 33.92078825,
      "lng": 130.9097683,
      "geocoding_level": null,
      "phone": "083-266-0099",
      "license_no": "31673",
      "license_date": "2022-02-10",
      "expire_date": "2028-03-31"
    },
    {
      "name": "はたぶ食品",
      "name_kana": "",
      "business_type": "飲食店営業",
      "address": "下関市彦島塩浜町一丁目16－17",
      "lat": 33.92100301,
      "lng": 130.9131819,
      "geocoding_level": null,
      "phone": "083-267-8516",
      "license_no": "60532",
      "license_date": "2024-12-13",
      "expire_date": "2029-12-31"
    },
    {
      "name": "はたぶ食品",
      "name_kana": "",
      "business_type": "魚介類販売業",
      "address": "下関市彦島塩浜町一丁目16－17",
      "lat": 33.92100301,
      "lng": 130.9131819,
      "geocoding_level": null,
      "phone": "083-267-8516",
      "license_no": "60534",
      "license_date": "2024-12-13",
      "expire_date": "2029-12-31"
    },
    {
      "name": "カフェテラス　汐望",
      "name_kana": "",
      "business_type": "飲食店営業",
      "address": "下関市彦島弟子待町三丁目2－8",
      "lat": 33.9215145,
      "lng": 130.9247547,
      "geocoding_level": null,
      "phone": "083-266-9156",
      "license_no": "40335",
      "license_date": "2022-08-22",
      "expire_date": "2028-09-30"
    },
    {
      "name": "株式会社　シティフーズ",
      "name_kana": "",
      "business_type": "水産製品製造業",
      "address": "下関市彦島塩浜町一丁目4－23",
      "lat": 33.92287953,
      "lng": 130.910074,
      "geocoding_level": null,
      "phone": "083-250-9657",
      "license_no": "31281",
      "license_date": "2021-09-10",
      "expire_date": "2026-09-30"
    },
    {
      "name": "食堂・喫茶バンブー",
      "name_kana": "",
      "business_type": "飲食店営業(一般食堂)",
      "address": "下関市彦島角倉町三丁目17－1－3",
      "lat": 33.92329065,
      "lng": 130.9187854,
      "geocoding_level": null,
      "phone": "083-250-8239",
      "license_no": "20555",
      "license_date": "2020-10-29",
      "expire_date": "2025-12-31"
    },
    {
      "name": "藤家",
      "name_kana": "",
      "business_type": "食肉販売業",
      "address": "下関市彦島山中町二丁目3－18",
      "lat": 33.92341471,
      "lng": 130.92104,
      "geocoding_level": null,
      "phone": "083-227-4224",
      "license_no": "31742",
      "license_date": "2022-03-14",
      "expire_date": "2027-03-31"
    },
    {
      "name": "藤家",
      "name_kana": "",
      "business_type": "飲食店営業",
      "address": "下関市彦島山中町二丁目3－18",
      "lat": 33.92341471,
      "lng": 130.92104,
      "geocoding_level": null,
      "phone": "083-227-4224",
      "license_no": "50098",
      "license_date": "2023-06-12",
      "expire_date": "2028-06-30"
    },
    {
      "name": "株式会社　美栄水産",
      "name_kana": "",
      "business_type": "水産製品製造業",
      "address": "下関市彦島福浦町一丁目2－20",
      "lat": 33.92347313,
      "lng": 130.9060622,
      "geocoding_level": null,
      "phone": "083-266-8635",
      "license_no": "60034",
      "license_date": "2024-05-01",
      "expire_date": "2030-06-30"
    },
    {
      "name": "日本マリンフーズ有限会社",
      "name_kana": "",
      "business_type": "水産製品製造業",
      "address": "下関市彦島福浦町一丁目2－20",
      "lat": 33.92347313,
      "lng": 130.9060622,
      "geocoding_level": null,
      "phone": "",
      "license_no": "70023",
      "license_date": "2025-05-02",
      "expire_date": "2031-06-30"
    },
    {
      "name": "株式会社　うお萬",
      "name_kana": "",
      "business_type": "水産製品製造業",
      "address": "下関市彦島福浦町一丁目2－20",
      "lat": 33.92347313,
      "lng": 130.9060622,
      "geocoding_level": null,
      "phone": "",
      "license_no": "70024",
      "license_date": "2025-05-02",
      "expire_date": "2031-06-30"
    },
    {
      "name": "株式会社　さえ喜",
      "name_kana": "",
      "business_type": "食品の冷凍又は冷蔵業",
      "address": "下関市彦島塩浜町一丁目2－20",
      "lat": 33.92426208,
      "lng": 130.9105355,
      "geocoding_level": null,
      "phone": "083-266-2031",
      "license_no": "20782",
      "license_date": "2021-01-27",
      "expire_date": "2027-03-31"
    },
    {
      "name": "株式会社　さえ喜",
      "name_kana": "",
      "business_type": "そうざい製造業",
      "address": "下関市彦島塩浜町一丁目2－20",
      "lat": 33.92426208,
      "lng": 130.9105355,
      "geocoding_level": null,
      "phone": "083-266-2031",
      "license_no": "20783",
      "license_date": "2021-01-27",
      "expire_date": "2027-03-31"
    },
    {
      "name": "株式会社　さえ喜",
      "name_kana": "",
      "business_type": "魚介類販売業",
      "address": "下関市彦島塩浜町一丁目2－20",
      "lat": 33.92426208,
      "lng": 130.9105355,
      "geocoding_level": null,
      "phone": "083-266-2031",
      "license_no": "20784",
      "license_date": "2021-01-27",
      "expire_date": "2027-03-31"
    },
    {
      "name": "ち佳まつ",
      "name_kana": "",
      "business_type": "飲食店営業",
      "address": "下関市彦島弟子待町二丁目2－8",
      "lat": 33.92557523,
      "lng": 130.9234214,
      "geocoding_level": null,
      "phone": "083-261-4185",
      "license_no": "31038",
      "license_date": "2021-06-09",
      "expire_date": "2026-06-30"
    },
    {
      "name": "お食事処　はっちゃん",
      "name_kana": "",
      "business_type": "飲食店営業",
      "address": "下関市彦島福浦町三丁目8－26",
      "lat": 33.92660606,
      "lng": 130.9106698,
      "geocoding_level": null,
      "phone": "083-267-4003",
      "license_no": "60493",
      "license_date": "2024-11-19",
      "expire_date": "2029-12-31"
    },
    {
      "name": "福福亭",
      "name_kana": "",
      "business_type": "飲食店営業",
      "address": "下関市彦島角倉町一丁目9－5",
      "lat": 33.92673107,
      "lng": 130.9159954,
      "geocoding_level": null,
      "phone": "083-267-4678",
      "license_no": "50024",
      "license_date": "2023-05-10",
      "expire_date": "2029-06-30"
    },
    {
      "name": "ごくらくとんぼ",
      "name_kana": "",
      "business_type": "飲食店営業(一般食堂)",
      "address": "下関市彦島角倉町四丁目5－6",
      "lat": 33.92676795,
      "lng": 130.9163425,
      "geocoding_level": null,
      "phone": "083-267-7078",
      "license_no": "20755",
      "license_date": "2021-02-25",
      "expire_date": "2026-03-31"
    },
    {
      "name": "タカトレーディング",
      "name_kana": "",
      "business_type": "魚介類販売業",
      "address": "下関市彦島福浦町二丁目16－15",
      "lat": 33.9271431,
      "lng": 130.9108014,
      "geocoding_level": null,
      "phone": "083-227-3100",
      "license_no": "50238",
      "license_date": "2023-07-20",
      "expire_date": "2028-09-30"
    },
    {
      "name": "有限会社　マルイチ彦島醸造工場",
      "name_kana": "",
      "business_type": "みそ又はしょうゆ製造業",
      "address": "下関市彦島福浦町三丁目7－27",
      "lat": 33.92725516,
      "lng": 130.9120343,
      "geocoding_level": null,
      "phone": "083-267-1131",
      "license_no": "31090",
      "license_date": "2021-06-25",
      "expire_date": "2026-06-30"
    },
    {
      "name": "住宅型有料老人ホームセービングひこしま",
      "name_kana": "",
      "business_type": "飲食店営業(一般食堂)",
      "address": "下関市彦島福浦町三丁目3－18",
      "lat": 33.9273086,
      "lng": 130.9134314,
      "geocoding_level": null,
      "phone": "083-250-8777",
      "license_no": "20670",
      "license_date": "2020-12-08",
      "expire_date": "2026-12-31"
    },
    {
      "name": "MYTH‐L&A",
      "name_kana": "",
      "business_type": "飲食店営業(旅館)",
      "address": "下関市彦島迫町一丁目20－11",
      "lat": 33.92741867,
      "lng": 130.8987845,
      "geocoding_level": null,
      "phone": "083-268-1133",
      "license_no": "21001",
      "license_date": "2021-03-30",
      "expire_date": "2026-03-31"
    },
    {
      "name": "OKASHI NO KOKORO",
      "name_kana": "",
      "business_type": "菓子製造業",
      "address": "下関市彦島杉田町一丁目3－18",
      "lat": 33.92744265,
      "lng": 130.9225372,
      "geocoding_level": null,
      "phone": "",
      "license_no": "60403",
      "license_date": "2024-10-07",
      "expire_date": "2029-12-31"
    },
    {
      "name": "彦島歳時記　ふく田",
      "name_kana": "",
      "business_type": "飲食店営業",
      "address": "下関市彦島福浦町三丁目3－1",
      "lat": 33.92746307,
      "lng": 130.913633,
      "geocoding_level": null,
      "phone": "083-266-3465",
      "license_no": "31419",
      "license_date": "2021-10-29",
      "expire_date": "2026-12-31"
    },
    {
      "name": "日本ゼネラルフード（１２７３）事業所",
      "name_kana": "",
      "business_type": "飲食店営業",
      "address": "下関市彦島杉田町一丁目6－35 三菱重工業　下関造船所至誠寮　食堂",
      "lat": 33.92752887,
      "lng": 130.9203227,
      "geocoding_level": null,
      "phone": "083-267-8270",
      "license_no": "60639",
      "license_date": "2025-03-24",
      "expire_date": "2030-03-31"
    },
    {
      "name": "Ｎａｉｌ＆Ｚａｋｋａ　Ｒｅｎｔａｌｓｐａｃｅ　ＮＩＣＯ",
      "name_kana": "",
      "business_type": "飲食店営業",
      "address": "下関市彦島福浦町三丁目1－19",
      "lat": 33.92792716,
      "lng": 130.912848,
      "geocoding_level": null,
      "phone": "",
      "license_no": "40677",
      "license_date": "2023-01-27",
      "expire_date": "2029-03-31"
    },
    {
      "name": "彦島第一保育園",
      "name_kana": "",
      "business_type": "飲食店営業",
      "address": "下関市彦島福浦町二丁目17－1",
      "lat": 33.92798422,
      "lng": 130.9107664,
      "geocoding_level": null,
      "phone": "083-266-3076",
      "license_no": "50198",
      "license_date": "2023-06-29",
      "expire_date": "2029-06-30"
    },
    {
      "name": "さくら",
      "name_kana": "",
      "business_type": "飲食店営業",
      "address": "下関市彦島福浦町三丁目1－23 朝見ビル１Ｆ",
      "lat": 33.92812971,
      "lng": 130.9131652,
      "geocoding_level": null,
      "phone": "083-266-7302",
      "license_no": "40535",
      "license_date": "2022-11-11",
      "expire_date": "2027-12-31"
    },
    {
      "name": "ほっともっと　彦島店",
      "name_kana": "",
      "business_type": "飲食店営業",
      "address": "下関市彦島福浦町二丁目27－7",
      "lat": 33.92832254,
      "lng": 130.9127444,
      "geocoding_level": null,
      "phone": "267-5320",
      "license_no": "31571",
      "license_date": "2021-12-08",
      "expire_date": "2027-12-31"
    },
    {
      "name": "お好み焼　なりしげ",
      "name_kana": "",
      "business_type": "飲食店営業",
      "address": "下関市彦島福浦町二丁目27－5",
      "lat": 33.92843886,
      "lng": 130.9130049,
      "geocoding_level": null,
      "phone": "083-267-8010",
      "license_no": "31347",
      "license_date": "2021-09-24",
      "expire_date": "2026-09-30"
    },
    {
      "name": "ふじもとパン",
      "name_kana": "",
      "business_type": "菓子製造業",
      "address": "下関市彦島杉田町一丁目12－14",
      "lat": 33.92848526,
      "lng": 130.9185075,
      "geocoding_level": null,
      "phone": "",
      "license_no": "20809",
      "license_date": "2021-02-05",
      "expire_date": "2027-03-31"
    },
    {
      "name": "アルク彦島店",
      "name_kana": "",
      "business_type": "飲食店営業(その他)",
      "address": "下関市彦島福浦町二丁目26－15",
      "lat": 33.92874123,
      "lng": 130.912828,
      "geocoding_level": null,
      "phone": "083-261-0909",
      "license_no": "20111",
      "license_date": "2020-05-25",
      "expire_date": "2026-06-30"
    },
    {
      "name": "アルク彦島店",
      "name_kana": "",
      "business_type": "魚介類販売業",
      "address": "下関市彦島福浦町二丁目26－15",
      "lat": 33.92874123,
      "lng": 130.912828,
      "geocoding_level": null,
      "phone": "083-261-0909",
      "license_no": "20113",
      "license_date": "2020-05-25",
      "expire_date": "2026-06-30"
    },
    {
      "name": "アルク彦島店",
      "name_kana": "",
      "business_type": "食肉販売業",
      "address": "下関市彦島福浦町二丁目26－15",
      "lat": 33.92874123,
      "lng": 130.912828,
      "geocoding_level": null,
      "phone": "083-261-0909",
      "license_no": "20114",
      "license_date": "2020-05-25",
      "expire_date": "2026-06-30"
    },
    {
      "name": "アルク彦島店",
      "name_kana": "",
      "business_type": "菓子製造業",
      "address": "下関市彦島福浦町二丁目26－15",
      "lat": 33.92874123,
      "lng": 130.912828,
      "geocoding_level": null,
      "phone": "083-261-0909",
      "license_no": "20115",
      "license_date": "2020-05-25",
      "expire_date": "2026-06-30"
    },
    {
      "name": "株式会社山根精肉店",
      "name_kana": "",
      "business_type": "食肉販売業",
      "address": "下関市彦島江の浦町九丁目7－8",
      "lat": 33.9288737,
      "lng": 130.9172495,
      "geocoding_level": null,
      "phone": "083-267-2354",
      "license_no": "20894",
      "license_date": "2021-03-15",
      "expire_date": "2026-03-31"
    },
    {
      "name": "ナナイロ",
      "name_kana": "",
      "business_type": "飲食店営業",
      "address": "下関市彦島江の浦町三丁目5－10",
      "lat": 33.92893208,
      "lng": 130.9144783,
      "geocoding_level": null,
      "phone": "083-267-1888",
      "license_no": "50538",
      "license_date": "2023-11-22",
      "expire_date": "2028-12-31"
    },
    {
      "name": "からあげ藤家　江の浦店",
      "name_kana": "",
      "business_type": "飲食店営業",
      "address": "下関市彦島江の浦町九丁目10－20",
      "lat": 33.92907825,
      "lng": 130.9152538,
      "geocoding_level": null,
      "phone": "080-6613-3366",
      "license_no": "60753",
      "license_date": "2025-05-02",
      "expire_date": "2030-06-30"
    },
    {
      "name": "からあげ藤家　江の浦店",
      "name_kana": "",
      "business_type": "食肉販売業",
      "address": "下関市彦島江の浦町九丁目10－20",
      "lat": 33.92907825,
      "lng": 130.9152538,
      "geocoding_level": null,
      "phone": "080-6613-3366",
      "license_no": "60754",
      "license_date": "2025-05-02",
      "expire_date": "2030-06-30"
    },
    {
      "name": "清林",
      "name_kana": "",
      "business_type": "飲食店営業",
      "address": "下関市彦島江の浦町三丁目6－25",
      "lat": 33.9292302,
      "lng": 130.9132935,
      "geocoding_level": null,
      "phone": "083-265-7151",
      "license_no": "40467",
      "license_date": "2022-10-11",
      "expire_date": "2027-12-31"
    },
    {
      "name": "セブンイレブン下関彦島福浦口店",
      "name_kana": "",
      "business_type": "飲食店営業",
      "address": "下関市彦島江の浦町三丁目9－19",
      "lat": 33.92976821,
      "lng": 130.9133326,
      "geocoding_level": null,
      "phone": "083-266-1523",
      "license_no": "31669",
      "license_date": "2022-02-04",
      "expire_date": "2028-03-31"
    },
    {
      "name": "山根製麺",
      "name_kana": "",
      "business_type": "麺類製造業",
      "address": "下関市彦島江の浦町八丁目14－8",
      "lat": 33.9298248,
      "lng": 130.9189222,
      "geocoding_level": null,
      "phone": "083-267-5265",
      "license_no": "20912",
      "license_date": "2021-03-15",
      "expire_date": "2026-03-31"
    },
    {
      "name": "ひのこ亭福浦店",
      "name_kana": "",
      "business_type": "飲食店営業",
      "address": "下関市彦島福浦町二丁目23－6",
      "lat": 33.92982672,
      "lng": 130.9127418,
      "geocoding_level": null,
      "phone": "083-266-7705",
      "license_no": "31203",
      "license_date": "2021-07-09",
      "expire_date": "2026-09-30"
    },
    {
      "name": "ハニードール野﨑",
      "name_kana": "",
      "business_type": "飲食店営業",
      "address": "下関市彦島江の浦町九丁目1－5",
      "lat": 33.93007151,
      "lng": 130.9186769,
      "geocoding_level": null,
      "phone": "083-268-0619",
      "license_no": "31331",
      "license_date": "2021-09-21",
      "expire_date": "2026-09-30"
    },
    {
      "name": "障害福祉サービス　結のところ",
      "name_kana": "",
      "business_type": "菓子製造業",
      "address": "下関市彦島江の浦町三丁目4－5",
      "lat": 33.93018769,
      "lng": 130.9162699,
      "geocoding_level": null,
      "phone": "083-242-0880",
      "license_no": "60026",
      "license_date": "2024-05-13",
      "expire_date": "2029-06-30"
    },
    {
      "name": "ホテルウェーブ",
      "name_kana": "",
      "business_type": "飲食店営業",
      "address": "下関市彦島迫町一丁目18－16",
      "lat": 33.93030217,
      "lng": 130.9019951,
      "geocoding_level": null,
      "phone": "",
      "license_no": "31649",
      "license_date": "2022-01-25",
      "expire_date": "2027-03-31"
    },
    {
      "name": "日本ゼネラルフード（１２７１）事業所",
      "name_kana": "",
      "business_type": "飲食店営業",
      "address": "下関市彦島江の浦町八丁目14－27 下関造船所彦島荘内調理センター",
      "lat": 33.93035734,
      "lng": 130.9196824,
      "geocoding_level": null,
      "phone": "083-266-4957",
      "license_no": "50761",
      "license_date": "2024-03-07",
      "expire_date": "2030-03-31"
    },
    {
      "name": "焼き鳥　友",
      "name_kana": "",
      "business_type": "飲食店営業",
      "address": "下関市彦島江の浦町三丁目3－22",
      "lat": 33.9304413,
      "lng": 130.9183682,
      "geocoding_level": null,
      "phone": "",
      "license_no": "60189",
      "license_date": "2024-06-24",
      "expire_date": "2029-06-30"
    },
    {
      "name": "デイサービス新遊楽",
      "name_kana": "",
      "business_type": "飲食店営業(一般食堂)",
      "address": "下関市彦島江の浦町三丁目11－12",
      "lat": 33.930568,
      "lng": 130.9144311,
      "geocoding_level": null,
      "phone": "083-266-0123",
      "license_no": "20669",
      "license_date": "2020-12-11",
      "expire_date": "2025-12-31"
    },
    {
      "name": "一休食堂",
      "name_kana": "",
      "business_type": "飲食店営業(一般食堂)",
      "address": "下関市彦島江の浦町八丁目6－4",
      "lat": 33.93072969,
      "lng": 130.9198895,
      "geocoding_level": null,
      "phone": "083-266-0948",
      "license_no": "20567",
      "license_date": "2020-11-05",
      "expire_date": "2025-12-31"
    },
    {
      "name": "日本ゼネラルフード（１２７４）事業所",
      "name_kana": "",
      "business_type": "飲食店営業",
      "address": "下関市彦島江の浦町八丁目6－10 下関造船所味処「舟島」",
      "lat": 33.93096229,
      "lng": 130.9200954,
      "geocoding_level": null,
      "phone": "083-266-8756",
      "license_no": "31505",
      "license_date": "2021-12-01",
      "expire_date": "2027-12-31"
    },
    {
      "name": "魚　　徳",
      "name_kana": "",
      "business_type": "飲食店営業",
      "address": "下関市彦島江の浦町三丁目12－10",
      "lat": 33.93111931,
      "lng": 130.9152964,
      "geocoding_level": null,
      "phone": "083-267-1368",
      "license_no": "40375",
      "license_date": "2022-09-15",
      "expire_date": "2027-09-30"
    },
    {
      "name": "な。",
      "name_kana": "",
      "business_type": "飲食店営業(その他)",
      "address": "下関市彦島迫町一丁目14－27",
      "lat": 33.93112012,
      "lng": 130.9019884,
      "geocoding_level": null,
      "phone": "083-267-9539",
      "license_no": "30008",
      "license_date": "2021-04-20",
      "expire_date": "2026-06-30"
    },
    {
      "name": "有限会社もずくセンター",
      "name_kana": "",
      "business_type": "そうざい製造業",
      "address": "下関市彦島迫町一丁目9－20",
      "lat": 33.93198556,
      "lng": 130.9041334,
      "geocoding_level": null,
      "phone": "083-267-1374",
      "license_no": "310763",
      "license_date": "2020-02-03",
      "expire_date": "2026-03-31"
    },
    {
      "name": "合同会社　高橋商店",
      "name_kana": "",
      "business_type": "水産製品製造業",
      "address": "下関市彦島緑町10－17",
      "lat": 33.93226334,
      "lng": 130.9090596,
      "geocoding_level": null,
      "phone": "",
      "license_no": "50558",
      "license_date": "2023-12-11",
      "expire_date": "2028-12-31"
    },
    {
      "name": "とみた",
      "name_kana": "",
      "business_type": "飲食店営業",
      "address": "下関市彦島竹ノ子島3－19",
      "lat": 33.93330588,
      "lng": 130.9301291,
      "geocoding_level": null,
      "phone": "",
      "license_no": "60526",
      "license_date": "2024-12-09",
      "expire_date": "2029-12-31"
    },
    {
      "name": "有限会社　前田造船所",
      "name_kana": "",
      "business_type": "調理機能を有する自動販売機",
      "address": "下関市彦島竹ノ子島3－17",
      "lat": 33.93330588,
      "lng": 130.9301291,
      "geocoding_level": null,
      "phone": "083-266-7610",
      "license_no": "40215",
      "license_date": "2022-06-20",
      "expire_date": "2027-06-30"
    },
    {
      "name": "三菱重工（株）電武装工場",
      "name_kana": "",
      "business_type": "喫茶店営業(自動販売機)",
      "address": "下関市彦島江の浦町六丁目16－1",
      "lat": 33.93342325,
      "lng": 130.9221346,
      "geocoding_level": null,
      "phone": "083-266-5904",
      "license_no": "20799",
      "license_date": "2021-02-15",
      "expire_date": "2026-03-31"
    },
    {
      "name": "三菱重工業株式会社　下関造船所　２号岸壁",
      "name_kana": "",
      "business_type": "調理機能を有する自動販売機",
      "address": "下関市彦島江の浦町六丁目16－1",
      "lat": 33.93342325,
      "lng": 130.9221346,
      "geocoding_level": null,
      "phone": "",
      "license_no": "31592",
      "license_date": "2021-12-24",
      "expire_date": "2026-12-31"
    },
    {
      "name": "三菱重工　船殻課",
      "name_kana": "",
      "business_type": "調理機能を有する自動販売機",
      "address": "下関市彦島江の浦町六丁目16－1",
      "lat": 33.93342325,
      "lng": 130.9221346,
      "geocoding_level": null,
      "phone": "",
      "license_no": "31772",
      "license_date": "2022-03-03",
      "expire_date": "2027-03-31"
    },
    {
      "name": "三菱重工下関　工作部",
      "name_kana": "",
      "business_type": "喫茶店営業(自動販売機)",
      "address": "下関市彦島江の浦町六丁目16－1",
      "lat": 33.93342325,
      "lng": 130.9221346,
      "geocoding_level": null,
      "phone": "",
      "license_no": "20636",
      "license_date": "2020-12-01",
      "expire_date": "2025-12-31"
    },
    {
      "name": "三菱重工下関　舟艇工場",
      "name_kana": "",
      "business_type": "喫茶店営業(自動販売機)",
      "address": "下関市彦島江の浦町六丁目16－1",
      "lat": 33.93342325,
      "lng": 130.9221346,
      "geocoding_level": null,
      "phone": "",
      "license_no": "20637",
      "license_date": "2020-12-01",
      "expire_date": "2025-12-31"
    },
    {
      "name": "三菱重工下関関門ドッグ食堂",
      "name_kana": "",
      "business_type": "喫茶店営業(自動販売機)",
      "address": "下関市彦島江の浦町六丁目16－1",
      "lat": 33.93342325,
      "lng": 130.9221346,
      "geocoding_level": null,
      "phone": "",
      "license_no": "20638",
      "license_date": "2020-12-01",
      "expire_date": "2025-12-31"
    },
    {
      "name": "三菱重工業下関造船所生産技術課",
      "name_kana": "",
      "business_type": "喫茶店営業(自動販売機)",
      "address": "下関市彦島江の浦町六丁目16－1",
      "lat": 33.93342325,
      "lng": 130.9221346,
      "geocoding_level": null,
      "phone": "",
      "license_no": "20958",
      "license_date": "2021-03-25",
      "expire_date": "2026-03-31"
    },
    {
      "name": "三菱重工（株）江の浦船体課",
      "name_kana": "",
      "business_type": "調理機能を有する自動販売機",
      "address": "下関市彦島江の浦町六丁目16－1",
      "lat": 33.93342325,
      "lng": 130.9221346,
      "geocoding_level": null,
      "phone": "083-266-5978",
      "license_no": "31590",
      "license_date": "2021-12-24",
      "expire_date": "2026-12-31"
    },
    {
      "name": "日本ゼネラルフード（１２６９）事業所",
      "name_kana": "",
      "business_type": "飲食店営業",
      "address": "下関市彦島江の浦町六丁目16－1 三菱重工江の浦工場　うどんコーナー１号店",
      "lat": 33.93342325,
      "lng": 130.9221346,
      "geocoding_level": null,
      "phone": "",
      "license_no": "31761",
      "license_date": "2022-03-14",
      "expire_date": "2028-03-31"
    },
    {
      "name": "日本ゼネラルフード（１２６９－１）事業所",
      "name_kana": "",
      "business_type": "飲食店営業",
      "address": "下関市彦島江の浦町六丁目16－1 三菱重工江の浦工場　うどんコーナー２号店",
      "lat": 33.93342325,
      "lng": 130.9221346,
      "geocoding_level": null,
      "phone": "",
      "license_no": "31762",
      "license_date": "2022-03-14",
      "expire_date": "2028-03-31"
    },
    {
      "name": "三菱重工（株）下関工場",
      "name_kana": "",
      "business_type": "調理機能を有する自動販売機",
      "address": "下関市彦島江の浦町六丁目16－1",
      "lat": 33.93342325,
      "lng": 130.9221346,
      "geocoding_level": null,
      "phone": "",
      "license_no": "60499",
      "license_date": "2024-11-21",
      "expire_date": "2029-12-31"
    },
    {
      "name": "ローソン彦島江の浦五丁目店",
      "name_kana": "",
      "business_type": "飲食店営業",
      "address": "下関市彦島江の浦町五丁目5－14",
      "lat": 33.93389335,
      "lng": 130.9210656,
      "geocoding_level": null,
      "phone": "083-266-1381",
      "license_no": "60670",
      "license_date": "2025-03-03",
      "expire_date": "2031-03-31"
    },
    {
      "name": "と　り　良",
      "name_kana": "",
      "business_type": "飲食店営業",
      "address": "下関市彦島江の浦町五丁目4－20",
      "lat": 33.93428799,
      "lng": 130.9209366,
      "geocoding_level": null,
      "phone": "083-267-4481",
      "license_no": "31255",
      "license_date": "2021-09-15",
      "expire_date": "2026-09-30"
    },
    {
      "name": "福田荘",
      "name_kana": "",
      "business_type": "飲食店営業",
      "address": "下関市彦島江の浦町四丁目11－20",
      "lat": 33.93474291,
      "lng": 130.9188182,
      "geocoding_level": null,
      "phone": "083-266-4073",
      "license_no": "40740",
      "license_date": "2023-02-24",
      "expire_date": "2028-03-31"
    },
    {
      "name": "小料理　かめ",
      "name_kana": "",
      "business_type": "飲食店営業",
      "address": "下関市彦島江の浦町六丁目13－8",
      "lat": 33.93509874,
      "lng": 130.9205754,
      "geocoding_level": null,
      "phone": "083-267-2365",
      "license_no": "31744",
      "license_date": "2022-03-01",
      "expire_date": "2027-03-31"
    },
    {
      "name": "はせ川うどん",
      "name_kana": "",
      "business_type": "飲食店営業",
      "address": "下関市彦島江の浦町六丁目13－19",
      "lat": 33.93515299,
      "lng": 130.9207218,
      "geocoding_level": null,
      "phone": "083-267-5838",
      "license_no": "50385",
      "license_date": "2023-09-08",
      "expire_date": "2028-09-30"
    },
    {
      "name": "台湾料理　福源",
      "name_kana": "",
      "business_type": "飲食店営業(一般食堂)",
      "address": "下関市彦島江の浦町二丁目1－13",
      "lat": 33.93570825,
      "lng": 130.9112988,
      "geocoding_level": null,
      "phone": "083-266-0455",
      "license_no": "30044",
      "license_date": "2021-05-19",
      "expire_date": "2026-06-30"
    },
    {
      "name": "居酒屋　さくら",
      "name_kana": "",
      "business_type": "飲食店営業",
      "address": "下関市彦島江の浦町一丁目5－2 １階１０７号",
      "lat": 33.93643781,
      "lng": 130.9120501,
      "geocoding_level": null,
      "phone": "083-266-2166",
      "license_no": "60127",
      "license_date": "2024-06-06",
      "expire_date": "2029-06-30"
    },
    {
      "name": "大鯨倶楽部",
      "name_kana": "",
      "business_type": "飲食店営業",
      "address": "下関市彦島本村町七丁目2－5",
      "lat": 33.93669979,
      "lng": 130.9118413,
      "geocoding_level": null,
      "phone": "083-267-1299",
      "license_no": "31040",
      "license_date": "2021-06-28",
      "expire_date": "2027-06-30"
    },
    {
      "name": "うま久",
      "name_kana": "",
      "business_type": "飲食店営業",
      "address": "下関市彦島江の浦町一丁目20－6",
      "lat": 33.93697903,
      "lng": 130.9167121,
      "geocoding_level": null,
      "phone": "083-266-6801",
      "license_no": "40804",
      "license_date": "2023-03-31",
      "expire_date": "2028-03-31"
    },
    {
      "name": "株式会社　みとも",
      "name_kana": "",
      "business_type": "菓子製造業",
      "address": "下関市彦島本村町七丁目1－19",
      "lat": 33.93716641,
      "lng": 130.9120973,
      "geocoding_level": null,
      "phone": "083-227-4631",
      "license_no": "20726",
      "license_date": "2021-01-08",
      "expire_date": "2026-03-31"
    },
    {
      "name": "味菜",
      "name_kana": "",
      "business_type": "飲食店営業",
      "address": "下関市彦島迫町三丁目3054 マルショク内",
      "lat": 33.93763893,
      "lng": 130.9004125,
      "geocoding_level": null,
      "phone": "083-266-0790",
      "license_no": "31453",
      "license_date": "2021-11-17",
      "expire_date": "2027-12-31"
    },
    {
      "name": "スマイルカフェ　彦島店",
      "name_kana": "",
      "business_type": "飲食店営業(一般食堂)",
      "address": "下関市彦島江の浦町六丁目1－30 ロータリーパワーステーション内",
      "lat": 33.93794724,
      "lng": 130.9155671,
      "geocoding_level": null,
      "phone": "083-266-8171",
      "license_no": "20915",
      "license_date": "2021-03-15",
      "expire_date": "2026-03-31"
    },
    {
      "name": "和　楽",
      "name_kana": "",
      "business_type": "飲食店営業",
      "address": "下関市彦島本村町六丁目12－6",
      "lat": 33.93800643,
      "lng": 130.9126794,
      "geocoding_level": null,
      "phone": "083-267-2235",
      "license_no": "40175",
      "license_date": "2022-06-16",
      "expire_date": "2027-06-30"
    },
    {
      "name": "三瓶珈琲　焙煎所",
      "name_kana": "",
      "business_type": "菓子製造業",
      "address": "下関市彦島迫町三丁目6－19",
      "lat": 33.93834009,
      "lng": 130.8982907,
      "geocoding_level": null,
      "phone": "",
      "license_no": "50763",
      "license_date": "2024-02-27",
      "expire_date": "2029-03-31"
    },
    {
      "name": "アイユウの苑",
      "name_kana": "",
      "business_type": "飲食店営業",
      "address": "下関市彦島迫町三丁目17－2",
      "lat": 33.93836759,
      "lng": 130.9005737,
      "geocoding_level": null,
      "phone": "083-266-6370",
      "license_no": "50022",
      "license_date": "2023-05-10",
      "expire_date": "2029-06-30"
    },
    {
      "name": "ホ－ム喫茶　蘭",
      "name_kana": "",
      "business_type": "飲食店営業",
      "address": "下関市彦島迫町三丁目17－2",
      "lat": 33.93836759,
      "lng": 130.9005737,
      "geocoding_level": null,
      "phone": "083-266-8287",
      "license_no": "40419",
      "license_date": "2022-09-15",
      "expire_date": "2027-09-30"
    },
    {
      "name": "デイサービス華",
      "name_kana": "",
      "business_type": "飲食店営業(一般食堂)",
      "address": "下関市彦島本村町六丁目12－15",
      "lat": 33.93841745,
      "lng": 130.9125425,
      "geocoding_level": null,
      "phone": "083-227-2885",
      "license_no": "20408",
      "license_date": "2020-09-09",
      "expire_date": "2026-09-30"
    },
    {
      "name": "有限会社　雨森商店",
      "name_kana": "",
      "business_type": "飲食店営業",
      "address": "下関市彦島西山町一丁目1 彦島製錬内食堂",
      "lat": 33.93854194,
      "lng": 130.8889153,
      "geocoding_level": null,
      "phone": "083-266-6777",
      "license_no": "40478",
      "license_date": "2022-10-14",
      "expire_date": "2028-12-31"
    },
    {
      "name": "株式会社　カネヒ",
      "name_kana": "",
      "business_type": "水産製品製造業",
      "address": "下関市彦島本村町六丁目15－7",
      "lat": 33.93855932,
      "lng": 130.913575,
      "geocoding_level": null,
      "phone": "083-227-4138",
      "license_no": "60491",
      "license_date": "2024-11-19",
      "expire_date": "2029-12-31"
    },
    {
      "name": "海神　わたつみ",
      "name_kana": "",
      "business_type": "そうざい製造業",
      "address": "下関市彦島本村町六丁目15－7",
      "lat": 33.93855932,
      "lng": 130.913575,
      "geocoding_level": null,
      "phone": "083-227-4138",
      "license_no": "60199",
      "license_date": "2024-07-03",
      "expire_date": "2029-09-30"
    },
    {
      "name": "海神　わたつみ",
      "name_kana": "",
      "business_type": "飲食店営業",
      "address": "下関市彦島本村町六丁目15－7",
      "lat": 33.93855932,
      "lng": 130.913575,
      "geocoding_level": null,
      "phone": "083-227-4138",
      "license_no": "60490",
      "license_date": "2024-11-19",
      "expire_date": "2029-12-31"
    },
    {
      "name": "ファミリーマート下関彦島迫町店",
      "name_kana": "",
      "business_type": "飲食店営業",
      "address": "下関市彦島迫町三丁目8－23",
      "lat": 33.93949091,
      "lng": 130.8974257,
      "geocoding_level": null,
      "phone": "083-261-2000",
      "license_no": "60489",
      "license_date": "2024-12-06",
      "expire_date": "2030-12-31"
    },
    {
      "name": "株式会社　ほんぽ",
      "name_kana": "",
      "business_type": "そうざい製造業",
      "address": "下関市東大和町二丁目15－10",
      "lat": 33.93970829,
      "lng": 130.9222147,
      "geocoding_level": null,
      "phone": "083-266-4225",
      "license_no": "31248",
      "license_date": "2021-08-24",
      "expire_date": "2027-09-30"
    },
    {
      "name": "セブンイレブン下関彦島水門店",
      "name_kana": "",
      "business_type": "飲食店営業",
      "address": "下関市彦島本村町六丁目839－12",
      "lat": 33.93977261,
      "lng": 130.9140023,
      "geocoding_level": null,
      "phone": "083-267-7570",
      "license_no": "31172",
      "license_date": "2021-06-30",
      "expire_date": "2027-06-30"
    },
    {
      "name": "下関西典礼会館",
      "name_kana": "",
      "business_type": "飲食店営業",
      "address": "下関市大和町二丁目10－10",
      "lat": 33.93977606,
      "lng": 130.9154019,
      "geocoding_level": null,
      "phone": "083-261-0494",
      "license_no": "40402",
      "license_date": "2022-09-08",
      "expire_date": "2028-09-30"
    },
    {
      "name": "ジョイフル下関彦島",
      "name_kana": "",
      "business_type": "飲食店営業",
      "address": "下関市彦島本村町六丁目8－8",
      "lat": 33.93980531,
      "lng": 130.9134215,
      "geocoding_level": null,
      "phone": "083-261-4315",
      "license_no": "60537",
      "license_date": "2024-12-06",
      "expire_date": "2030-12-31"
    },
    {
      "name": "美美　お好み焼",
      "name_kana": "",
      "business_type": "飲食店営業",
      "address": "下関市彦島迫町五丁目10－12",
      "lat": 33.94005137,
      "lng": 130.8971372,
      "geocoding_level": null,
      "phone": "083-267-6041",
      "license_no": "50633",
      "license_date": "2023-12-14",
      "expire_date": "2028-12-31"
    },
    {
      "name": "三菱重工（株）大和町工場事務所棟",
      "name_kana": "",
      "business_type": "調理機能を有する自動販売機",
      "address": "下関市東大和町二丁目16－1",
      "lat": 33.94006164,
      "lng": 130.922798,
      "geocoding_level": null,
      "phone": "083-266-2111",
      "license_no": "31587",
      "license_date": "2021-12-24",
      "expire_date": "2026-12-31"
    },
    {
      "name": "日本ゼネラルフード（１２６８）事業所",
      "name_kana": "",
      "business_type": "飲食店営業",
      "address": "下関市東大和町二丁目16－1 三菱重工業　下関造船所給食センター",
      "lat": 33.94006164,
      "lng": 130.922798,
      "geocoding_level": null,
      "phone": "083-266-2246",
      "license_no": "60640",
      "license_date": "2025-03-24",
      "expire_date": "2031-03-31"
    },
    {
      "name": "日本ゼネラルフード（１２６８－１）事業所",
      "name_kana": "",
      "business_type": "飲食店営業",
      "address": "下関市東大和町二丁目16－1 三菱重工業大和町工場うどんコーナー",
      "lat": 33.94006164,
      "lng": 130.922798,
      "geocoding_level": null,
      "phone": "",
      "license_no": "40623",
      "license_date": "2022-12-19",
      "expire_date": "2028-12-31"
    },
    {
      "name": "松岡シーフーズ株式会社",
      "name_kana": "",
      "business_type": "複合型冷凍食品製造業",
      "address": "下関市東大和町二丁目14－20",
      "lat": 33.94042427,
      "lng": 130.9222763,
      "geocoding_level": null,
      "phone": "083-261-1188",
      "license_no": "40106",
      "license_date": "2022-06-09",
      "expire_date": "2028-06-30"
    },
    {
      "name": "有限会社鮮翔迫町店",
      "name_kana": "",
      "business_type": "魚介類販売業",
      "address": "下関市彦島迫町三丁目11－1 リブホール迫町店内",
      "lat": 33.94046109,
      "lng": 130.898527,
      "geocoding_level": null,
      "phone": "083-267-2447",
      "license_no": "60678",
      "license_date": "2025-03-18",
      "expire_date": "2031-03-31"
    },
    {
      "name": "（株）サンリブ迫店",
      "name_kana": "",
      "business_type": "調理機能を有する自動販売機",
      "address": "下関市彦島迫町三丁目11－1",
      "lat": 33.94046109,
      "lng": 130.898527,
      "geocoding_level": null,
      "phone": "",
      "license_no": "60289",
      "license_date": "2024-08-15",
      "expire_date": "2029-09-30"
    },
    {
      "name": "サークルフーズ　迫町店",
      "name_kana": "",
      "business_type": "食肉販売業",
      "address": "下関市彦島迫町三丁目11－1",
      "lat": 33.94046109,
      "lng": 130.898527,
      "geocoding_level": null,
      "phone": "083-266-0298",
      "license_no": "31593",
      "license_date": "2021-12-17",
      "expire_date": "2027-12-31"
    },
    {
      "name": "松本削節工業株式会社",
      "name_kana": "",
      "business_type": "缶詰又は瓶詰食品製造業",
      "address": "下関市東大和町二丁目19－29",
      "lat": 33.94069208,
      "lng": 130.9271664,
      "geocoding_level": null,
      "phone": "083-261-5025",
      "license_no": "20536",
      "license_date": "2020-10-23",
      "expire_date": "2026-12-31"
    },
    {
      "name": "松本削節工業株式会社",
      "name_kana": "",
      "business_type": "水産製品製造業",
      "address": "下関市東大和町二丁目19－29",
      "lat": 33.94069208,
      "lng": 130.9271664,
      "geocoding_level": null,
      "phone": "083-261-5025",
      "license_no": "50252",
      "license_date": "2023-07-24",
      "expire_date": "2029-09-30"
    },
    {
      "name": "ラーメン大学",
      "name_kana": "",
      "business_type": "飲食店営業",
      "address": "下関市大和町二丁目14－1",
      "lat": 33.94081622,
      "lng": 130.9162553,
      "geocoding_level": null,
      "phone": "083-266-2359",
      "license_no": "40633",
      "license_date": "2022-12-13",
      "expire_date": "2027-12-31"
    },
    {
      "name": "マルハニチロ株式会社下関工場",
      "name_kana": "",
      "business_type": "乳製品製造業",
      "address": "下関市東大和町二丁目17－33 乾燥食品課乾燥食品第二工場",
      "lat": 33.9411843,
      "lng": 130.9246876,
      "geocoding_level": null,
      "phone": "083-267-4610",
      "license_no": "20609",
      "license_date": "2020-12-14",
      "expire_date": "2026-12-31"
    },
    {
      "name": "マルハニチロ株式会社下関工場",
      "name_kana": "",
      "business_type": "食肉製品製造業",
      "address": "下関市東大和町二丁目17－33 乾燥食品課乾燥食品第一工場",
      "lat": 33.9411843,
      "lng": 130.9246876,
      "geocoding_level": null,
      "phone": "083-267-5311",
      "license_no": "20611",
      "license_date": "2020-12-14",
      "expire_date": "2026-12-31"
    },
    {
      "name": "マルハニチロ株式会社　下関工場",
      "name_kana": "",
      "business_type": "複合型そうざい製造業",
      "address": "下関市東大和町二丁目17－33 乾燥食品課　乾燥食品第一工場、第二工場",
      "lat": 33.9411843,
      "lng": 130.9246876,
      "geocoding_level": null,
      "phone": "083-267-4610",
      "license_no": "50749",
      "license_date": "2024-03-04",
      "expire_date": "2030-03-31"
    },
    {
      "name": "マルハニチロ株式会社下関工場",
      "name_kana": "",
      "business_type": "魚肉練り製品製造業",
      "address": "下関市東大和町二丁目17－33 煉製品課",
      "lat": 33.9411843,
      "lng": 130.9246876,
      "geocoding_level": null,
      "phone": "083-266-0816",
      "license_no": "20311",
      "license_date": "2020-09-28",
      "expire_date": "2026-09-30"
    },
    {
      "name": "マルハニチロ株式会社　下関工場",
      "name_kana": "",
      "business_type": "複合型そうざい製造業",
      "address": "下関市東大和町二丁目17－33 乾燥食品課　乾燥食品第三工場",
      "lat": 33.9411843,
      "lng": 130.9246876,
      "geocoding_level": null,
      "phone": "083-267-4610",
      "license_no": "50750",
      "license_date": "2024-03-04",
      "expire_date": "2030-03-31"
    },
    {
      "name": "大和食品株式会社",
      "name_kana": "",
      "business_type": "魚介類販売業",
      "address": "下関市東大和町二丁目13－8",
      "lat": 33.94164386,
      "lng": 130.9228248,
      "geocoding_level": null,
      "phone": "083-261-0955",
      "license_no": "20198",
      "license_date": "2020-06-24",
      "expire_date": "2026-06-30"
    },
    {
      "name": "大和食品株式会社",
      "name_kana": "",
      "business_type": "そうざい製造業",
      "address": "下関市東大和町二丁目13－8",
      "lat": 33.94164386,
      "lng": 130.9228248,
      "geocoding_level": null,
      "phone": "083-261-0955",
      "license_no": "20359",
      "license_date": "2020-09-01",
      "expire_date": "2026-09-30"
    },
    {
      "name": "大和食品株式会社",
      "name_kana": "",
      "business_type": "食品の冷凍又は冷蔵業",
      "address": "下関市東大和町二丁目13－8",
      "lat": 33.94164386,
      "lng": 130.9228248,
      "geocoding_level": null,
      "phone": "083-261-0955",
      "license_no": "20656",
      "license_date": "2020-12-25",
      "expire_date": "2026-12-31"
    },
    {
      "name": "大和食品株式会社",
      "name_kana": "",
      "business_type": "漬物製造業",
      "address": "下関市東大和町二丁目13－8",
      "lat": 33.94164386,
      "lng": 130.9228248,
      "geocoding_level": null,
      "phone": "083-261-0955",
      "license_no": "50753",
      "license_date": "2024-03-12",
      "expire_date": "2030-03-31"
    },
    {
      "name": "業務スーパー　東大和店",
      "name_kana": "",
      "business_type": "食肉販売業",
      "address": "下関市東大和町二丁目13－20",
      "lat": 33.94181141,
      "lng": 130.9224703,
      "geocoding_level": null,
      "phone": "083-266-9713",
      "license_no": "31343",
      "license_date": "2021-09-15",
      "expire_date": "2026-09-30"
    },
    {
      "name": "業務スーパー　東大和店",
      "name_kana": "",
      "business_type": "魚介類販売業",
      "address": "下関市東大和町二丁目13－20",
      "lat": 33.94181141,
      "lng": 130.9224703,
      "geocoding_level": null,
      "phone": "083-267-9230",
      "license_no": "50165",
      "license_date": "2023-06-21",
      "expire_date": "2028-06-30"
    },
    {
      "name": "林兼産業株式会社",
      "name_kana": "",
      "business_type": "複合型そうざい製造業",
      "address": "下関市大和町二丁目7－1",
      "lat": 33.94181174,
      "lng": 130.9152397,
      "geocoding_level": null,
      "phone": "",
      "license_no": "50209",
      "license_date": "2023-06-30",
      "expire_date": "2028-06-30"
    },
    {
      "name": "林兼産業株式会社",
      "name_kana": "",
      "business_type": "添加物製造業",
      "address": "下関市大和町二丁目7－1",
      "lat": 33.94181174,
      "lng": 130.9152397,
      "geocoding_level": null,
      "phone": "",
      "license_no": "50210",
      "license_date": "2023-06-30",
      "expire_date": "2028-06-30"
    },
    {
      "name": "林兼産業株式会社",
      "name_kana": "",
      "business_type": "食肉製品製造業",
      "address": "下関市大和町二丁目7－1",
      "lat": 33.94181174,
      "lng": 130.9152397,
      "geocoding_level": null,
      "phone": "",
      "license_no": "50208",
      "license_date": "2023-06-30",
      "expire_date": "2028-06-30"
    },
    {
      "name": "林兼フーズ株式会社",
      "name_kana": "",
      "business_type": "複合型冷凍食品製造業",
      "address": "下関市大和町二丁目7－1 （林兼産業株式会社　第二工場　3F)",
      "lat": 33.94181174,
      "lng": 130.9152397,
      "geocoding_level": null,
      "phone": "",
      "license_no": "31440",
      "license_date": "2021-11-04",
      "expire_date": "2026-12-31"
    },
    {
      "name": "みちしお",
      "name_kana": "",
      "business_type": "飲食店営業",
      "address": "下関市東大和町二丁目13－22",
      "lat": 33.94189907,
      "lng": 130.9228957,
      "geocoding_level": null,
      "phone": "083-267-5828",
      "license_no": "40586",
      "license_date": "2022-12-05",
      "expire_date": "2027-12-31"
    },
    {
      "name": "うちくる夕食宅配サービス　セントラルキッチン",
      "name_kana": "",
      "business_type": "飲食店営業",
      "address": "下関市東大和町二丁目13－22",
      "lat": 33.94189907,
      "lng": 130.9228957,
      "geocoding_level": null,
      "phone": "083-227-2375",
      "license_no": "31175",
      "license_date": "2021-07-16",
      "expire_date": "2027-09-30"
    },
    {
      "name": "エームＳＪ１７２４",
      "name_kana": "",
      "business_type": "飲食店営業",
      "address": "下関市大和町二丁目5－1 林兼産業㈱　社員食堂",
      "lat": 33.94256715,
      "lng": 130.9161924,
      "geocoding_level": null,
      "phone": "083-266-8160",
      "license_no": "60542",
      "license_date": "2024-12-10",
      "expire_date": "2030-12-31"
    },
    {
      "name": "林兼産業株式会社第一工場",
      "name_kana": "",
      "business_type": "複合型そうざい製造業",
      "address": "下関市大和町二丁目5－1",
      "lat": 33.94256715,
      "lng": 130.9161924,
      "geocoding_level": null,
      "phone": "",
      "license_no": "40104",
      "license_date": "2022-06-15",
      "expire_date": "2028-06-30"
    },
    {
      "name": "軽食喫茶マリン＆マリン",
      "name_kana": "",
      "business_type": "飲食店営業",
      "address": "下関市彦島迫町四丁目10－32",
      "lat": 33.94258036,
      "lng": 130.9023713,
      "geocoding_level": null,
      "phone": "083-261-4835",
      "license_no": "40036",
      "license_date": "2022-05-27",
      "expire_date": "2027-06-30"
    },
    {
      "name": "(有)お茶の赤星園　大和町工場",
      "name_kana": "",
      "business_type": "菓子製造業",
      "address": "下関市大和町二丁目6－1 林兼冷蔵（株）５Ｆ",
      "lat": 33.94267004,
      "lng": 130.9155252,
      "geocoding_level": null,
      "phone": "",
      "license_no": "60251",
      "license_date": "2024-08-26",
      "expire_date": "2030-09-30"
    },
    {
      "name": "Hokkori Cafe",
      "name_kana": "",
      "business_type": "飲食店営業",
      "address": "下関市彦島本村町四丁目6－7",
      "lat": 33.94276755,
      "lng": 130.9103872,
      "geocoding_level": null,
      "phone": "080-4262-7008",
      "license_no": "40064",
      "license_date": "2022-05-11",
      "expire_date": "2027-06-30"
    },
    {
      "name": "三池屋",
      "name_kana": "",
      "business_type": "菓子製造業",
      "address": "下関市彦島迫町五丁目2－24",
      "lat": 33.94293619,
      "lng": 130.8986531,
      "geocoding_level": null,
      "phone": "083-266-3615",
      "license_no": "50164",
      "license_date": "2023-06-30",
      "expire_date": "2028-06-30"
    },
    {
      "name": "セブン—イレブン下関彦島迫町店",
      "name_kana": "",
      "business_type": "飲食店営業",
      "address": "下関市彦島迫町六丁目6－35",
      "lat": 33.94344256,
      "lng": 130.8977554,
      "geocoding_level": null,
      "phone": "083-267-8221",
      "license_no": "40753",
      "license_date": "2023-02-24",
      "expire_date": "2029-03-31"
    },
    {
      "name": "ファミリーマート下関彦島店",
      "name_kana": "",
      "business_type": "飲食店営業",
      "address": "下関市彦島西山町二丁目1－15",
      "lat": 33.94381172,
      "lng": 130.8924328,
      "geocoding_level": null,
      "phone": "083-261-1028",
      "license_no": "60397",
      "license_date": "2024-10-24",
      "expire_date": "2030-12-31"
    },
    {
      "name": "ＥＡＧＬＥ",
      "name_kana": "",
      "business_type": "飲食店営業",
      "address": "下関市大和町二丁目4－1 やまと斎場内　３階",
      "lat": 33.94384849,
      "lng": 130.9168238,
      "geocoding_level": null,
      "phone": "083-266-0375",
      "license_no": "40815",
      "license_date": "2023-03-10",
      "expire_date": "2029-03-31"
    },
    {
      "name": "真鍋商店",
      "name_kana": "",
      "business_type": "魚介類販売業",
      "address": "下関市彦島西山町二丁目3－12",
      "lat": 33.94388389,
      "lng": 130.8903159,
      "geocoding_level": null,
      "phone": "083-266-1018",
      "license_no": "50025",
      "license_date": "2023-05-24",
      "expire_date": "2028-06-30"
    },
    {
      "name": "KAI株式会社",
      "name_kana": "",
      "business_type": "水産製品製造業",
      "address": "下関市彦島本村町三丁目12－5",
      "lat": 33.94398968,
      "lng": 130.9112325,
      "geocoding_level": null,
      "phone": "",
      "license_no": "40502",
      "license_date": "2022-11-10",
      "expire_date": "2028-12-31"
    },
    {
      "name": "ハヤシパン",
      "name_kana": "",
      "business_type": "菓子製造業",
      "address": "下関市彦島本村町三丁目2－1",
      "lat": 33.94408187,
      "lng": 130.9115681,
      "geocoding_level": null,
      "phone": "083-242-4939",
      "license_no": "60624",
      "license_date": "2025-02-18",
      "expire_date": "2031-03-31"
    },
    {
      "name": "有限会社海商　製品加工場",
      "name_kana": "",
      "business_type": "水産製品製造業",
      "address": "下関市彦島西山町二丁目1－23",
      "lat": 33.94418348,
      "lng": 130.8922033,
      "geocoding_level": null,
      "phone": "083-261-1717",
      "license_no": "50185",
      "license_date": "2023-06-23",
      "expire_date": "2028-06-30"
    },
    {
      "name": "山賀第２工場",
      "name_kana": "",
      "business_type": "水産製品製造業",
      "address": "下関市彦島西山町二丁目1－23",
      "lat": 33.94418348,
      "lng": 130.8922033,
      "geocoding_level": null,
      "phone": "083-250-5025",
      "license_no": "60239",
      "license_date": "2024-08-02",
      "expire_date": "2030-09-30"
    },
    {
      "name": "彦島製錬㈱独身寮プレミール彦島寮",
      "name_kana": "",
      "business_type": "飲食店営業",
      "address": "下関市彦島西山町二丁目1－50",
      "lat": 33.94440219,
      "lng": 130.8911421,
      "geocoding_level": null,
      "phone": "083-266-3116",
      "license_no": "60044",
      "license_date": "2024-05-10",
      "expire_date": "2029-06-30"
    },
    {
      "name": "ホテルH＆G",
      "name_kana": "",
      "business_type": "飲食店営業",
      "address": "下関市大和町二丁目2－12",
      "lat": 33.94442549,
      "lng": 130.916221,
      "geocoding_level": null,
      "phone": "083-249-5150",
      "license_no": "60605",
      "license_date": "2025-02-12",
      "expire_date": "2031-03-31"
    },
    {
      "name": "フロイデ彦島",
      "name_kana": "",
      "business_type": "飲食店営業",
      "address": "下関市彦島西山町三丁目12－1",
      "lat": 33.94474375,
      "lng": 130.8797,
      "geocoding_level": null,
      "phone": "083-261-5539",
      "license_no": "40865",
      "license_date": "2023-03-23",
      "expire_date": "2029-03-31"
    },
    {
      "name": "株式会社　門司ベース　下関キッチン",
      "name_kana": "",
      "business_type": "そうざい製造業",
      "address": "下関市大和町二丁目2－5",
      "lat": 33.94475624,
      "lng": 130.9164471,
      "geocoding_level": null,
      "phone": "083-267-3226",
      "license_no": "50057",
      "license_date": "2023-05-24",
      "expire_date": "2029-06-30"
    },
    {
      "name": "株式会社　門司ベース　下関キッチン",
      "name_kana": "",
      "business_type": "水産製品製造業",
      "address": "下関市大和町二丁目2－5",
      "lat": 33.94475624,
      "lng": 130.9164471,
      "geocoding_level": null,
      "phone": "083-267-3226",
      "license_no": "50080",
      "license_date": "2023-05-24",
      "expire_date": "2029-06-30"
    },
    {
      "name": "株式会社　門司ベース　下関キッチン",
      "name_kana": "",
      "business_type": "冷凍食品製造業",
      "address": "下関市大和町二丁目2－5",
      "lat": 33.94475624,
      "lng": 130.9164471,
      "geocoding_level": null,
      "phone": "083-267-3226",
      "license_no": "60519",
      "license_date": "2024-11-28",
      "expire_date": "2030-12-31"
    },
    {
      "name": "株式会社　山口",
      "name_kana": "",
      "business_type": "魚介類販売業",
      "address": "下関市大和町一丁目11－11",
      "lat": 33.94492217,
      "lng": 130.9181836,
      "geocoding_level": null,
      "phone": "083-266-5174",
      "license_no": "50289",
      "license_date": "2023-08-09",
      "expire_date": "2029-09-30"
    },
    {
      "name": "KALIAGE　BAKERY",
      "name_kana": "",
      "business_type": "菓子製造業",
      "address": "下関市彦島西山町二丁目18－10",
      "lat": 33.94511695,
      "lng": 130.8851933,
      "geocoding_level": null,
      "phone": "",
      "license_no": "50846",
      "license_date": "2024-04-01",
      "expire_date": "2029-06-30"
    },
    {
      "name": "セブンイレブン下関漁港前店",
      "name_kana": "",
      "business_type": "飲食店営業",
      "address": "下関市大和町一丁目12－1",
      "lat": 33.94548516,
      "lng": 130.9177368,
      "geocoding_level": null,
      "phone": "083-267-5338",
      "license_no": "31357",
      "license_date": "2021-09-10",
      "expire_date": "2027-09-30"
    },
    {
      "name": "株式会社　山賀",
      "name_kana": "",
      "business_type": "水産製品製造業",
      "address": "下関市彦島西山町二丁目1－24",
      "lat": 33.94549716,
      "lng": 130.8911485,
      "geocoding_level": null,
      "phone": "083-250-5025",
      "license_no": "60362",
      "license_date": "2024-09-25",
      "expire_date": "2030-09-30"
    },
    {
      "name": "株式会社　山賀",
      "name_kana": "",
      "business_type": "そうざい製造業",
      "address": "下関市彦島西山町二丁目1－24",
      "lat": 33.94549716,
      "lng": 130.8911485,
      "geocoding_level": null,
      "phone": "083-250-5025",
      "license_no": "60388",
      "license_date": "2024-09-25",
      "expire_date": "2030-09-30"
    },
    {
      "name": "農水フーヅ株式会社本社工場",
      "name_kana": "",
      "business_type": "清涼飲料水製造業",
      "address": "下関市彦島西山町二丁目1－24",
      "lat": 33.94549716,
      "lng": 130.8911485,
      "geocoding_level": null,
      "phone": "083-267-1144",
      "license_no": "20910",
      "license_date": "2021-03-10",
      "expire_date": "2027-03-31"
    },
    {
      "name": "農水フーヅ株式会社本社工場",
      "name_kana": "",
      "business_type": "複合型そうざい製造業",
      "address": "下関市彦島西山町二丁目1－24",
      "lat": 33.94549716,
      "lng": 130.8911485,
      "geocoding_level": null,
      "phone": "083-267-1144",
      "license_no": "31225",
      "license_date": "2021-08-10",
      "expire_date": "2027-09-30"
    },
    {
      "name": "農水フーヅ株式会社　下関工場",
      "name_kana": "",
      "business_type": "複合型そうざい製造業",
      "address": "下関市彦島西山町二丁目1－25",
      "lat": 33.9455541,
      "lng": 130.8920888,
      "geocoding_level": null,
      "phone": "083-267-1144",
      "license_no": "31133",
      "license_date": "2021-06-30",
      "expire_date": "2027-06-30"
    },
    {
      "name": "日本給食品（株）",
      "name_kana": "",
      "business_type": "水産製品製造業",
      "address": "下関市彦島西山町二丁目1－25",
      "lat": 33.9455541,
      "lng": 130.8920888,
      "geocoding_level": null,
      "phone": "083-267-1136",
      "license_no": "31290",
      "license_date": "2021-09-28",
      "expire_date": "2027-09-30"
    },
    {
      "name": "株式会社タケショー",
      "name_kana": "",
      "business_type": "飲食店営業",
      "address": "下関市東大和町一丁目8－6",
      "lat": 33.94577695,
      "lng": 130.9226869,
      "geocoding_level": null,
      "phone": "",
      "license_no": "60076",
      "license_date": "2024-06-10",
      "expire_date": "2030-06-30"
    },
    {
      "name": "マリンフーズ株式会社",
      "name_kana": "",
      "business_type": "魚介類販売業",
      "address": "下関市大和町一丁目13－9",
      "lat": 33.94583861,
      "lng": 130.91824,
      "geocoding_level": null,
      "phone": "083-266-0623",
      "license_no": "40273",
      "license_date": "2022-08-09",
      "expire_date": "2028-09-30"
    },
    {
      "name": "希望",
      "name_kana": "",
      "business_type": "飲食店営業",
      "address": "下関市東大和町一丁目4－32 カネミツビル1F",
      "lat": 33.94599235,
      "lng": 130.921985,
      "geocoding_level": null,
      "phone": "",
      "license_no": "60019",
      "license_date": "2024-05-02",
      "expire_date": "2029-06-30"
    },
    {
      "name": "ファディプロダクツ株式会社　下関加工センター",
      "name_kana": "",
      "business_type": "そうざい製造業",
      "address": "下関市東大和町一丁目8－11",
      "lat": 33.94620343,
      "lng": 130.9226418,
      "geocoding_level": null,
      "phone": "083-266-3166",
      "license_no": "20092",
      "license_date": "2020-05-25",
      "expire_date": "2026-06-30"
    },
    {
      "name": "ファディプロダクツ株式会社　下関加工センター",
      "name_kana": "",
      "business_type": "菓子製造業",
      "address": "下関市東大和町一丁目8－11",
      "lat": 33.94620343,
      "lng": 130.9226418,
      "geocoding_level": null,
      "phone": "083-266-3166",
      "license_no": "20093",
      "license_date": "2020-05-25",
      "expire_date": "2026-06-30"
    },
    {
      "name": "ファディプロダクツ株式会社　下関加工センター",
      "name_kana": "",
      "business_type": "密封包装食品製造業",
      "address": "下関市東大和町一丁目8－11",
      "lat": 33.94620343,
      "lng": 130.9226418,
      "geocoding_level": null,
      "phone": "083-266-3166",
      "license_no": "60047",
      "license_date": "2024-05-15",
      "expire_date": "2030-06-30"
    },
    {
      "name": "下関市勤労青少年ホーム",
      "name_kana": "",
      "business_type": "飲食店営業(一般食堂)",
      "address": "下関市彦島老の山公園1－1",
      "lat": 33.94652054,
      "lng": 130.906248,
      "geocoding_level": null,
      "phone": "083-267-1146",
      "license_no": "20660",
      "license_date": "2020-12-08",
      "expire_date": "2025-12-31"
    },
    {
      "name": "有限会社サンライズフーズ",
      "name_kana": "",
      "business_type": "水産製品製造業",
      "address": "下関市大和町一丁目7－18",
      "lat": 33.94654244,
      "lng": 130.919311,
      "geocoding_level": null,
      "phone": "083-261-1500",
      "license_no": "40101",
      "license_date": "2022-06-01",
      "expire_date": "2027-06-30"
    },
    {
      "name": "ｔｅｔｏ　ｔｅｔｏ",
      "name_kana": "",
      "business_type": "飲食店営業",
      "address": "下関市彦島老町一丁目8－6",
      "lat": 33.94658748,
      "lng": 130.9137641,
      "geocoding_level": null,
      "phone": "083-292-1131",
      "license_no": "40408",
      "license_date": "2022-09-15",
      "expire_date": "2027-09-30"
    },
    {
      "name": "MR.CEYLON",
      "name_kana": "",
      "business_type": "飲食店営業",
      "address": "下関市東大和町一丁目1－1 大本ビル",
      "lat": 33.94700315,
      "lng": 130.9220146,
      "geocoding_level": null,
      "phone": "070-9157-1070",
      "license_no": "50821",
      "license_date": "2024-03-15",
      "expire_date": "2029-03-31"
    },
    {
      "name": "ブランチハウス大和町店",
      "name_kana": "",
      "business_type": "飲食店営業",
      "address": "下関市東大和町一丁目2－11",
      "lat": 33.94701592,
      "lng": 130.9214498,
      "geocoding_level": null,
      "phone": "083-267-1117",
      "license_no": "50117",
      "license_date": "2023-06-06",
      "expire_date": "2028-06-30"
    },
    {
      "name": "合同会社ナカノ水産",
      "name_kana": "",
      "business_type": "水産製品製造業",
      "address": "下関市彦島西山町三丁目23－16",
      "lat": 33.9470855,
      "lng": 130.8796264,
      "geocoding_level": null,
      "phone": "",
      "license_no": "60132",
      "license_date": "2024-06-11",
      "expire_date": "2029-06-30"
    },
    {
      "name": "下関唐戸魚市場株式会社",
      "name_kana": "",
      "business_type": "魚介類競り売り営業",
      "address": "下関市大和町一丁目16－1",
      "lat": 33.94728054,
      "lng": 130.9184218,
      "geocoding_level": null,
      "phone": "083-261-5500",
      "license_no": "20513",
      "license_date": "2020-10-23",
      "expire_date": "2025-12-31"
    },
    {
      "name": "下関中央魚市場",
      "name_kana": "",
      "business_type": "魚介類競り売り営業",
      "address": "下関市大和町一丁目16－1",
      "lat": 33.94728054,
      "lng": 130.9184218,
      "geocoding_level": null,
      "phone": "083-266-1212",
      "license_no": "40527",
      "license_date": "2022-11-21",
      "expire_date": "2027-12-31"
    },
    {
      "name": "ミールタイム",
      "name_kana": "",
      "business_type": "飲食店営業",
      "address": "下関市大和町一丁目16－1 福利厚生施設",
      "lat": 33.94728054,
      "lng": 130.9184218,
      "geocoding_level": null,
      "phone": "083-267-5261",
      "license_no": "60683",
      "license_date": "2025-03-04",
      "expire_date": "2030-03-31"
    },
    {
      "name": "漁港ビル本館南加工室",
      "name_kana": "",
      "business_type": "魚介類販売業",
      "address": "下関市大和町一丁目16－1",
      "lat": 33.94728054,
      "lng": 130.9184218,
      "geocoding_level": null,
      "phone": "",
      "license_no": "60390",
      "license_date": "2024-09-27",
      "expire_date": "2030-09-30"
    },
    {
      "name": "下関製氷協同組合",
      "name_kana": "",
      "business_type": "氷雪製造業",
      "address": "下関市大和町一丁目16－1",
      "lat": 33.94728054,
      "lng": 130.9184218,
      "geocoding_level": null,
      "phone": "083-242-1201",
      "license_no": "20939",
      "license_date": "2021-03-26",
      "expire_date": "2027-03-31"
    },
    {
      "name": "株式会社　ヤマモ水産",
      "name_kana": "",
      "business_type": "水産製品製造業",
      "address": "下関市彦島西山町四丁目15－33",
      "lat": 33.94754365,
      "lng": 130.8840563,
      "geocoding_level": null,
      "phone": "083-266-0252",
      "license_no": "31131",
      "license_date": "2021-06-30",
      "expire_date": "2026-06-30"
    },
    {
      "name": "有限会社　森本商店",
      "name_kana": "",
      "business_type": "食品の冷凍又は冷蔵業",
      "address": "下関市彦島西山町四丁目15－33",
      "lat": 33.94754365,
      "lng": 130.8840563,
      "geocoding_level": null,
      "phone": "083-266-0252",
      "license_no": "20244",
      "license_date": "2020-07-07",
      "expire_date": "2026-09-30"
    },
    {
      "name": "有限会社　森本商店",
      "name_kana": "",
      "business_type": "水産製品製造業",
      "address": "下関市彦島西山町四丁目15－33",
      "lat": 33.94754365,
      "lng": 130.8840563,
      "geocoding_level": null,
      "phone": "083-266-0252",
      "license_no": "31132",
      "license_date": "2021-06-30",
      "expire_date": "2026-06-30"
    },
    {
      "name": "三十六萬石",
      "name_kana": "",
      "business_type": "飲食店営業",
      "address": "下関市東大和町一丁目1－7",
      "lat": 33.94755003,
      "lng": 130.9219575,
      "geocoding_level": null,
      "phone": "090-9509-4058",
      "license_no": "31469",
      "license_date": "2021-12-14",
      "expire_date": "2026-12-31"
    },
    {
      "name": "株式会社ふく衛門第２工場",
      "name_kana": "",
      "business_type": "水産製品製造業",
      "address": "下関市彦島西山町四丁目15－18",
      "lat": 33.94759453,
      "lng": 130.8833892,
      "geocoding_level": null,
      "phone": "083-261-2929",
      "license_no": "31583",
      "license_date": "2021-12-08",
      "expire_date": "2027-12-31"
    },
    {
      "name": "Ｓｏｎ　Ｒｉｓｅ　Ｃａｆｅ",
      "name_kana": "",
      "business_type": "飲食店営業",
      "address": "下関市大和町一丁目6－7",
      "lat": 33.94762979,
      "lng": 130.9199642,
      "geocoding_level": null,
      "phone": "083-267-1884",
      "license_no": "50050",
      "license_date": "2023-05-26",
      "expire_date": "2029-06-30"
    },
    {
      "name": "やまぐち旬彩　海峡本舗",
      "name_kana": "",
      "business_type": "水産製品製造業",
      "address": "下関市彦島西山町二丁目15－19",
      "lat": 33.94773375,
      "lng": 130.8848891,
      "geocoding_level": null,
      "phone": "083-227-2861",
      "license_no": "31233",
      "license_date": "2021-08-03",
      "expire_date": "2027-09-30"
    },
    {
      "name": "有限会社　エムズコーポレーション",
      "name_kana": "",
      "business_type": "水産製品製造業",
      "address": "下関市彦島西山町四丁目3－1",
      "lat": 33.94778197,
      "lng": 130.8812277,
      "geocoding_level": null,
      "phone": "083-249-6538",
      "license_no": "50424",
      "license_date": "2023-09-28",
      "expire_date": "2028-09-30"
    },
    {
      "name": "株式会社ふく衛門",
      "name_kana": "",
      "business_type": "水産製品製造業",
      "address": "下関市彦島西山町四丁目14－28",
      "lat": 33.94778629,
      "lng": 130.8830812,
      "geocoding_level": null,
      "phone": "083-261-2929",
      "license_no": "60325",
      "license_date": "2024-09-17",
      "expire_date": "2030-09-30"
    },
    {
      "name": "株式会社　天白ひらこし",
      "name_kana": "",
      "business_type": "水産製品製造業",
      "address": "下関市彦島西山町四丁目15－27",
      "lat": 33.94780229,
      "lng": 130.8837398,
      "geocoding_level": null,
      "phone": "083-267-4998",
      "license_no": "31529",
      "license_date": "2021-12-07",
      "expire_date": "2027-12-31"
    },
    {
      "name": "株式会社　平越商店",
      "name_kana": "",
      "business_type": "水産製品製造業",
      "address": "下関市彦島西山町四丁目15－27",
      "lat": 33.94780229,
      "lng": 130.8837398,
      "geocoding_level": null,
      "phone": "083-267-4871",
      "license_no": "40154",
      "license_date": "2022-06-06",
      "expire_date": "2028-06-30"
    },
    {
      "name": "田中屋",
      "name_kana": "",
      "business_type": "飲食店営業",
      "address": "下関市大和町一丁目6－10",
      "lat": 33.94783541,
      "lng": 130.9201132,
      "geocoding_level": null,
      "phone": "083-267-0991",
      "license_no": "40608",
      "license_date": "2022-12-12",
      "expire_date": "2027-12-31"
    },
    {
      "name": "野水産株式会社",
      "name_kana": "",
      "business_type": "そうざい製造業",
      "address": "下関市彦島西山町四丁目14－37",
      "lat": 33.94784112,
      "lng": 130.8827748,
      "geocoding_level": null,
      "phone": "083-267-0004",
      "license_no": "40051",
      "license_date": "2022-05-19",
      "expire_date": "2027-06-30"
    },
    {
      "name": "山口県立下関中等教育学校",
      "name_kana": "",
      "business_type": "飲食店営業",
      "address": "下関市彦島老町二丁目21－1",
      "lat": 33.94787912,
      "lng": 130.9070436,
      "geocoding_level": null,
      "phone": "",
      "license_no": "50783",
      "license_date": "2024-03-07",
      "expire_date": "2030-03-31"
    },
    {
      "name": "ゴールドジム　シーモール下関",
      "name_kana": "",
      "business_type": "飲食店営業",
      "address": "下関市東大和町一丁目1－47",
      "lat": 33.94789883,
      "lng": 130.9224684,
      "geocoding_level": null,
      "phone": "083-224-5046",
      "license_no": "50746",
      "license_date": "2024-02-19",
      "expire_date": "2029-03-31"
    },
    {
      "name": "野水産株式会社",
      "name_kana": "",
      "business_type": "そうざい製造業",
      "address": "下関市彦島西山町四丁目9－6",
      "lat": 33.94793885,
      "lng": 130.8805417,
      "geocoding_level": null,
      "phone": "083-267-0004",
      "license_no": "31367",
      "license_date": "2021-10-12",
      "expire_date": "2026-09-30"
    },
    {
      "name": "有限会社　昇水産",
      "name_kana": "",
      "business_type": "水産製品製造業",
      "address": "下関市彦島西山町四丁目10－10",
      "lat": 33.94795104,
      "lng": 130.8792748,
      "geocoding_level": null,
      "phone": "083-267-3440",
      "license_no": "50497",
      "license_date": "2023-11-06",
      "expire_date": "2028-12-31"
    },
    {
      "name": "株式会社知播弥",
      "name_kana": "",
      "business_type": "水産製品製造業",
      "address": "下関市彦島西山町四丁目14－39",
      "lat": 33.94795292,
      "lng": 130.8828424,
      "geocoding_level": null,
      "phone": "083-267-0008",
      "license_no": "40699",
      "license_date": "2023-01-24",
      "expire_date": "2029-03-31"
    },
    {
      "name": "前田海産　株式会社",
      "name_kana": "",
      "business_type": "複合型冷凍食品製造業",
      "address": "下関市彦島西山町四丁目13－33",
      "lat": 33.9481894,
      "lng": 130.8822363,
      "geocoding_level": null,
      "phone": "083-267-5151",
      "license_no": "60092",
      "license_date": "2024-05-20",
      "expire_date": "2030-06-30"
    },
    {
      "name": "株式会社ハートフーズ２１",
      "name_kana": "",
      "business_type": "水産製品製造業",
      "address": "下関市彦島西山町四丁目11－27",
      "lat": 33.94833215,
      "lng": 130.8809263,
      "geocoding_level": null,
      "phone": "083-267-8671",
      "license_no": "31518",
      "license_date": "2021-12-08",
      "expire_date": "2027-12-31"
    },
    {
      "name": "株式会社ハートフーズ２１",
      "name_kana": "",
      "business_type": "複合型冷凍食品製造業",
      "address": "下関市彦島西山町四丁目11－27",
      "lat": 33.94833215,
      "lng": 130.8809263,
      "geocoding_level": null,
      "phone": "083-267-8671",
      "license_no": "31519",
      "license_date": "2021-12-08",
      "expire_date": "2027-12-31"
    },
    {
      "name": "マリン食堂",
      "name_kana": "",
      "business_type": "飲食店営業",
      "address": "下関市竹崎町四丁目6－8 関光ビル５階",
      "lat": 33.94836504,
      "lng": 130.9270089,
      "geocoding_level": null,
      "phone": "083-231-7382",
      "license_no": "60689",
      "license_date": "2025-03-13",
      "expire_date": "2030-03-31"
    },
    {
      "name": "シーモールホールパントリー",
      "name_kana": "",
      "business_type": "菓子製造業",
      "address": "下関市竹崎町四丁目4－8 シーモール下関ショッピングセンター4階シーモールホール内",
      "lat": 33.94839295,
      "lng": 130.9231839,
      "geocoding_level": null,
      "phone": "083-232-1118",
      "license_no": "50087",
      "license_date": "2023-05-31",
      "expire_date": "2028-06-30"
    },
    {
      "name": "シーモールホールパントリー",
      "name_kana": "",
      "business_type": "飲食店営業",
      "address": "下関市竹崎町四丁目4－8 シーモール下関ショッピングセンター4階シーモールホール内",
      "lat": 33.94839295,
      "lng": 130.9231839,
      "geocoding_level": null,
      "phone": "083-232-1118",
      "license_no": "50088",
      "license_date": "2023-05-31",
      "expire_date": "2028-06-30"
    },
    {
      "name": "シーモール２Ｆセントラルコート催事場",
      "name_kana": "",
      "business_type": "飲食店営業",
      "address": "下関市竹崎町四丁目4－8",
      "lat": 33.94839295,
      "lng": 130.9231839,
      "geocoding_level": null,
      "phone": "083-232-1118",
      "license_no": "60627",
      "license_date": "2025-03-12",
      "expire_date": "2030-03-31"
    },
    {
      "name": "か　め　や",
      "name_kana": "",
      "business_type": "飲食店営業",
      "address": "下関市竹崎町四丁目4－8 シーモール地下１Ｆ",
      "lat": 33.94839295,
      "lng": 130.9231839,
      "geocoding_level": null,
      "phone": "083-223-0233",
      "license_no": "50524",
      "license_date": "2023-11-27",
      "expire_date": "2028-12-31"
    },
    {
      "name": "シーモールパレス",
      "name_kana": "",
      "business_type": "菓子製造業",
      "address": "下関市竹崎町四丁目4－8 シーモールパレス３F",
      "lat": 33.94839295,
      "lng": 130.9231839,
      "geocoding_level": null,
      "phone": "083-231-7000",
      "license_no": "50300",
      "license_date": "2023-08-16",
      "expire_date": "2028-09-30"
    },
    {
      "name": "シーモールパレス３F",
      "name_kana": "",
      "business_type": "飲食店営業",
      "address": "下関市竹崎町四丁目4－8 シーモールパレス３Ｆ",
      "lat": 33.94839295,
      "lng": 130.9231839,
      "geocoding_level": null,
      "phone": "083-231-7000",
      "license_no": "50301",
      "license_date": "2023-08-16",
      "expire_date": "2028-09-30"
    },
    {
      "name": "シーモールパレス４F",
      "name_kana": "",
      "business_type": "飲食店営業",
      "address": "下関市竹崎町四丁目4－8 シーモールパレス４F",
      "lat": 33.94839295,
      "lng": 130.9231839,
      "geocoding_level": null,
      "phone": "083-231-7000",
      "license_no": "50302",
      "license_date": "2023-08-16",
      "expire_date": "2028-09-30"
    },
    {
      "name": "モン・レーブ",
      "name_kana": "",
      "business_type": "飲食店営業(一般食堂)",
      "address": "下関市竹崎町四丁目4－8 シーモールパレス４Ｆ",
      "lat": 33.94839295,
      "lng": 130.9231839,
      "geocoding_level": null,
      "phone": "083-232-4867",
      "license_no": "20548",
      "license_date": "2020-10-30",
      "expire_date": "2026-12-31"
    },
    {
      "name": "ZETTERIA　シーモール下関店",
      "name_kana": "",
      "business_type": "飲食店営業",
      "address": "下関市竹崎町四丁目4－8 シーモールフードコート内",
      "lat": 33.94839295,
      "lng": 130.9231839,
      "geocoding_level": null,
      "phone": "083-250-8482",
      "license_no": "50728",
      "license_date": "2024-02-13",
      "expire_date": "2030-03-31"
    },
    {
      "name": "ご飯ととろろ　とろ麦",
      "name_kana": "",
      "business_type": "飲食店営業",
      "address": "下関市竹崎町四丁目4－8 シーモール下関4階",
      "lat": 33.94839295,
      "lng": 130.9231839,
      "geocoding_level": null,
      "phone": "083-242-2230",
      "license_no": "50725",
      "license_date": "2024-02-27",
      "expire_date": "2030-03-31"
    },
    {
      "name": "丸亀製麺シーモール下関",
      "name_kana": "",
      "business_type": "飲食店営業",
      "address": "下関市竹崎町四丁目4－8 シーモール下関1F",
      "lat": 33.94839295,
      "lng": 130.9231839,
      "geocoding_level": null,
      "phone": "083-231-3700",
      "license_no": "50778",
      "license_date": "2024-03-05",
      "expire_date": "2030-03-31"
    },
    {
      "name": "リンガーハットシーモール下関店",
      "name_kana": "",
      "business_type": "飲食店営業",
      "address": "下関市竹崎町四丁目4－8 シーモール下関店1階",
      "lat": 33.94839295,
      "lng": 130.9231839,
      "geocoding_level": null,
      "phone": "083-249-5811",
      "license_no": "50744",
      "license_date": "2024-02-27",
      "expire_date": "2030-03-31"
    },
    {
      "name": "自家製麺　杵屋",
      "name_kana": "",
      "business_type": "飲食店営業",
      "address": "下関市竹崎町四丁目4－8 シーモール下関４F",
      "lat": 33.94839295,
      "lng": 130.9231839,
      "geocoding_level": null,
      "phone": "083-231-7332",
      "license_no": "50730",
      "license_date": "2024-03-28",
      "expire_date": "2030-03-31"
    },
    {
      "name": "ミスタードーナツ　シーモール下関ショップ",
      "name_kana": "",
      "business_type": "飲食店営業",
      "address": "下関市竹崎町四丁目4－8",
      "lat": 33.94839295,
      "lng": 130.9231839,
      "geocoding_level": null,
      "phone": "083-222-1072",
      "license_no": "50723",
      "license_date": "2024-02-16",
      "expire_date": "2030-03-31"
    },
    {
      "name": "ミスタードーナツ　シーモール下関ショップ",
      "name_kana": "",
      "business_type": "菓子製造業",
      "address": "下関市竹崎町四丁目4－8",
      "lat": 33.94839295,
      "lng": 130.9231839,
      "geocoding_level": null,
      "phone": "083-222-1072",
      "license_no": "50724",
      "license_date": "2024-02-16",
      "expire_date": "2030-03-31"
    },
    {
      "name": "中国料理　龍鳳閣",
      "name_kana": "",
      "business_type": "飲食店営業",
      "address": "下関市竹崎町四丁目4－8 シーモール４F",
      "lat": 33.94839295,
      "lng": 130.9231839,
      "geocoding_level": null,
      "phone": "083-227-4177",
      "license_no": "40749",
      "license_date": "2023-02-24",
      "expire_date": "2028-03-31"
    },
    {
      "name": "サイゼリヤ　シーモール下関店",
      "name_kana": "",
      "business_type": "飲食店営業",
      "address": "下関市竹崎町四丁目4－8 シーモール下関4F",
      "lat": 33.94839295,
      "lng": 130.9231839,
      "geocoding_level": null,
      "phone": "083-228-3900",
      "license_no": "50732",
      "license_date": "2024-02-22",
      "expire_date": "2030-03-31"
    },
    {
      "name": "サーティワンアイスクリーム　シーモール下関店",
      "name_kana": "",
      "business_type": "飲食店営業",
      "address": "下関市竹崎町四丁目4－8 シーモール1F",
      "lat": 33.94839295,
      "lng": 130.9231839,
      "geocoding_level": null,
      "phone": "083-235-1631",
      "license_no": "50768",
      "license_date": "2024-02-27",
      "expire_date": "2030-03-31"
    },
    {
      "name": "カフェテラス・ロワール",
      "name_kana": "",
      "business_type": "飲食店営業",
      "address": "下関市竹崎町四丁目4－8",
      "lat": 33.94839295,
      "lng": 130.9231839,
      "geocoding_level": null,
      "phone": "083-232-4735",
      "license_no": "50606",
      "license_date": "2023-12-14",
      "expire_date": "2028-12-31"
    },
    {
      "name": "マックスバリュ　シーモール店",
      "name_kana": "",
      "business_type": "飲食店営業",
      "address": "下関市竹崎町四丁目4－7",
      "lat": 33.94839295,
      "lng": 130.9231839,
      "geocoding_level": null,
      "phone": "083-228-2380",
      "license_no": "60437",
      "license_date": "2024-11-12",
      "expire_date": "2030-12-31"
    },
    {
      "name": "マックスバリュ　シーモール店",
      "name_kana": "",
      "business_type": "魚介類販売業",
      "address": "下関市竹崎町四丁目4－7",
      "lat": 33.94839295,
      "lng": 130.9231839,
      "geocoding_level": null,
      "phone": "083-228-2380",
      "license_no": "60438",
      "license_date": "2024-11-12",
      "expire_date": "2030-12-31"
    },
    {
      "name": "マックスバリュ　シーモール店",
      "name_kana": "",
      "business_type": "食肉販売業",
      "address": "下関市竹崎町四丁目4－7",
      "lat": 33.94839295,
      "lng": 130.9231839,
      "geocoding_level": null,
      "phone": "083-228-2380",
      "license_no": "60439",
      "license_date": "2024-11-12",
      "expire_date": "2030-12-31"
    },
    {
      "name": "春光亭　シーモール下関店",
      "name_kana": "",
      "business_type": "飲食店営業",
      "address": "下関市竹崎町四丁目4－8 シーモール下関Ｂ１Ｆ",
      "lat": 33.94839295,
      "lng": 130.9231839,
      "geocoding_level": null,
      "phone": "",
      "license_no": "60426",
      "license_date": "2024-10-31",
      "expire_date": "2030-12-31"
    },
    {
      "name": "春光亭　シーモール惣菜工場",
      "name_kana": "",
      "business_type": "そうざい製造業",
      "address": "下関市竹崎町四丁目4－8 シーモール下関Ｂ１Ｆ",
      "lat": 33.94839295,
      "lng": 130.9231839,
      "geocoding_level": null,
      "phone": "",
      "license_no": "60547",
      "license_date": "2024-11-29",
      "expire_date": "2030-12-31"
    },
    {
      "name": "ゴーゴーカレー　下関パーク",
      "name_kana": "",
      "business_type": "飲食店営業(一般食堂)",
      "address": "下関市竹崎町四丁目4－8 シーモール下関　１階",
      "lat": 33.94839295,
      "lng": 130.9231839,
      "geocoding_level": null,
      "phone": "",
      "license_no": "310997",
      "license_date": "2020-04-23",
      "expire_date": "2026-06-30"
    },
    {
      "name": "シナボン・シアトルズベストコーヒー",
      "name_kana": "",
      "business_type": "飲食店営業(一般食堂)",
      "address": "下関市竹崎町四丁目4－8 シーモール１F",
      "lat": 33.94839295,
      "lng": 130.9231839,
      "geocoding_level": null,
      "phone": "",
      "license_no": "30002",
      "license_date": "2021-04-28",
      "expire_date": "2027-06-30"
    },
    {
      "name": "シナボン・シアトルズベストコーヒー",
      "name_kana": "",
      "business_type": "菓子製造業",
      "address": "下関市竹崎町四丁目4－8 シーモール１F",
      "lat": 33.94839295,
      "lng": 130.9231839,
      "geocoding_level": null,
      "phone": "",
      "license_no": "30003",
      "license_date": "2021-04-28",
      "expire_date": "2027-06-30"
    },
    {
      "name": "シーモール　サンパティオ",
      "name_kana": "",
      "business_type": "飲食店営業",
      "address": "下関市竹崎町四丁目4－8 サンパティオ",
      "lat": 33.94839295,
      "lng": 130.9231839,
      "geocoding_level": null,
      "phone": "083-232-1118",
      "license_no": "31613",
      "license_date": "2022-01-11",
      "expire_date": "2027-03-31"
    },
    {
      "name": "あい菜農家ときドキ市場",
      "name_kana": "",
      "business_type": "飲食店営業",
      "address": "下関市竹崎町四丁目4－8",
      "lat": 33.94839295,
      "lng": 130.9231839,
      "geocoding_level": null,
      "phone": "080-2900-2888",
      "license_no": "40238",
      "license_date": "2022-07-06",
      "expire_date": "2027-09-30"
    },
    {
      "name": "肉彩工房　小川精肉店　下関シーモール店",
      "name_kana": "",
      "business_type": "食肉販売業",
      "address": "下関市竹崎町四丁目4－8",
      "lat": 33.94839295,
      "lng": 130.9231839,
      "geocoding_level": null,
      "phone": "083-242-8529",
      "license_no": "40361",
      "license_date": "2022-08-24",
      "expire_date": "2028-09-30"
    },
    {
      "name": "肉彩工房　小川精肉店　シーモール下関店",
      "name_kana": "",
      "business_type": "飲食店営業",
      "address": "下関市竹崎町四丁目4－8",
      "lat": 33.94839295,
      "lng": 130.9231839,
      "geocoding_level": null,
      "phone": "083-242-8529",
      "license_no": "40453",
      "license_date": "2022-09-28",
      "expire_date": "2028-09-30"
    },
    {
      "name": "京都利休の生わらび餅　シーモール下関店",
      "name_kana": "",
      "business_type": "飲食店営業",
      "address": "下関市竹崎町四丁目4－8 1階フードコート　第128号",
      "lat": 33.94839295,
      "lng": 130.9231839,
      "geocoding_level": null,
      "phone": "080-8015-7500",
      "license_no": "40599",
      "license_date": "2022-12-08",
      "expire_date": "2028-12-31"
    },
    {
      "name": "秀光　シーモール下関店",
      "name_kana": "",
      "business_type": "飲食店営業",
      "address": "下関市竹崎町四丁目4－8 シーモール下関　フードコート内",
      "lat": 33.94839295,
      "lng": 130.9231839,
      "geocoding_level": null,
      "phone": "083-242-0101",
      "license_no": "50138",
      "license_date": "2023-06-05",
      "expire_date": "2029-06-30"
    },
    {
      "name": "インド料理ニューナンダン",
      "name_kana": "",
      "business_type": "飲食店営業",
      "address": "下関市竹崎町四丁目4－8 シーモール４F",
      "lat": 33.94839295,
      "lng": 130.9231839,
      "geocoding_level": null,
      "phone": "083-223-7788",
      "license_no": "50853",
      "license_date": "2024-03-29",
      "expire_date": "2030-03-31"
    },
    {
      "name": "シャトレーゼ　シーモール下関店",
      "name_kana": "",
      "business_type": "菓子製造業",
      "address": "下関市竹崎町四丁目4－8",
      "lat": 33.94839295,
      "lng": 130.9231839,
      "geocoding_level": null,
      "phone": "083-242-1111",
      "license_no": "60137",
      "license_date": "2024-06-10",
      "expire_date": "2030-06-30"
    },
    {
      "name": "おむらいす亭",
      "name_kana": "",
      "business_type": "飲食店営業",
      "address": "下関市竹崎町四丁目4－8 シーモール下関1階",
      "lat": 33.94839295,
      "lng": 130.9231839,
      "geocoding_level": null,
      "phone": "083-250-9898",
      "license_no": "60205",
      "license_date": "2024-07-16",
      "expire_date": "2030-09-30"
    },
    {
      "name": "IJOOZ自動販売機　シーモール下関",
      "name_kana": "",
      "business_type": "調理機能を有する自動販売機",
      "address": "下関市竹崎町四丁目4－8",
      "lat": 33.94839295,
      "lng": 130.9231839,
      "geocoding_level": null,
      "phone": "",
      "license_no": "60384",
      "license_date": "2024-09-20",
      "expire_date": "2030-09-30"
    },
    {
      "name": "関門から揚げ　から山",
      "name_kana": "",
      "business_type": "飲食店営業",
      "address": "下関市竹崎町四丁目4－8 B1F",
      "lat": 33.94839295,
      "lng": 130.9231839,
      "geocoding_level": null,
      "phone": "",
      "license_no": "60481",
      "license_date": "2024-11-08",
      "expire_date": "2029-12-31"
    },
    {
      "name": "IJOOZ自動販売機　シーモール1F",
      "name_kana": "",
      "business_type": "調理機能を有する自動販売機",
      "address": "下関市竹崎町四丁目4－8",
      "lat": 33.94839295,
      "lng": 130.9231839,
      "geocoding_level": null,
      "phone": "",
      "license_no": "60595",
      "license_date": "2025-01-20",
      "expire_date": "2031-03-31"
    },
    {
      "name": "共立商事株式会社",
      "name_kana": "",
      "business_type": "食品の冷凍又は冷蔵業",
      "address": "下関市彦島西山町四丁目12－24",
      "lat": 33.94845357,
      "lng": 130.8817591,
      "geocoding_level": null,
      "phone": "083-267-0003",
      "license_no": "310506",
      "license_date": "2019-11-01",
      "expire_date": "2025-12-31"
    },
    {
      "name": "共立商事株式会社",
      "name_kana": "",
      "business_type": "魚介類販売業",
      "address": "下関市彦島西山町四丁目12－24",
      "lat": 33.94845357,
      "lng": 130.8817591,
      "geocoding_level": null,
      "phone": "083-267-0003",
      "license_no": "20810",
      "license_date": "2021-02-08",
      "expire_date": "2027-03-31"
    },
    {
      "name": "株式会社　海",
      "name_kana": "",
      "business_type": "水産製品製造業",
      "address": "下関市彦島西山町四丁目16－14",
      "lat": 33.94847298,
      "lng": 130.8843301,
      "geocoding_level": null,
      "phone": "083-266-2666",
      "license_no": "50355",
      "license_date": "2023-09-28",
      "expire_date": "2028-09-30"
    },
    {
      "name": "m10289",
      "name_kana": "",
      "business_type": "飲食店営業",
      "address": "下関市彦島西山町四丁目10－6",
      "lat": 33.94853732,
      "lng": 130.8796424,
      "geocoding_level": null,
      "phone": "",
      "license_no": "50044",
      "license_date": "2023-05-24",
      "expire_date": "2029-06-30"
    },
    {
      "name": "株式会社　中冷",
      "name_kana": "",
      "business_type": "魚肉練り製品製造業",
      "address": "下関市彦島西山町四丁目10－6",
      "lat": 33.94853732,
      "lng": 130.8796424,
      "geocoding_level": null,
      "phone": "083-266-4102",
      "license_no": "20015",
      "license_date": "2020-04-17",
      "expire_date": "2026-06-30"
    },
    {
      "name": "株式会社　中冷",
      "name_kana": "",
      "business_type": "複合型冷凍食品製造業",
      "address": "下関市彦島西山町四丁目10－6",
      "lat": 33.94853732,
      "lng": 130.8796424,
      "geocoding_level": null,
      "phone": "083-266-4102",
      "license_no": "31168",
      "license_date": "2021-06-30",
      "expire_date": "2027-06-30"
    },
    {
      "name": "株式会社モリシゲ",
      "name_kana": "",
      "business_type": "食品の冷凍又は冷蔵業",
      "address": "下関市彦島西山町四丁目12－22",
      "lat": 33.94871722,
      "lng": 130.8817719,
      "geocoding_level": null,
      "phone": "083-267-9121",
      "license_no": "20825",
      "license_date": "2021-04-06",
      "expire_date": "2026-03-31"
    },
    {
      "name": "株式会社モリシゲ",
      "name_kana": "",
      "business_type": "魚介類販売業",
      "address": "下関市彦島西山町四丁目12－22",
      "lat": 33.94871722,
      "lng": 130.8817719,
      "geocoding_level": null,
      "phone": "083-267-9121",
      "license_no": "20826",
      "license_date": "2021-04-06",
      "expire_date": "2026-03-31"
    },
    {
      "name": "株式会社モリシゲ",
      "name_kana": "",
      "business_type": "そうざい製造業",
      "address": "下関市彦島西山町四丁目12－22",
      "lat": 33.94871722,
      "lng": 130.8817719,
      "geocoding_level": null,
      "phone": "083-267-9121",
      "license_no": "20827",
      "license_date": "2021-04-06",
      "expire_date": "2026-03-31"
    },
    {
      "name": "株式会社モリシゲ",
      "name_kana": "",
      "business_type": "飲食店営業(弁当屋)",
      "address": "下関市彦島西山町四丁目12－22",
      "lat": 33.94871722,
      "lng": 130.8817719,
      "geocoding_level": null,
      "phone": "083-267-9121",
      "license_no": "20828",
      "license_date": "2021-04-06",
      "expire_date": "2026-03-31"
    },
    {
      "name": "ケンタッキーフライドチキン下関駅前店",
      "name_kana": "",
      "business_type": "飲食店営業",
      "address": "下関市竹崎町四丁目3－1",
      "lat": 33.94876817,
      "lng": 130.9210073,
      "geocoding_level": null,
      "phone": "083-228-1361",
      "license_no": "60645",
      "license_date": "2025-02-21",
      "expire_date": "2031-03-31"
    },
    {
      "name": "味庵しものせき",
      "name_kana": "",
      "business_type": "飲食店営業(一般食堂)",
      "address": "下関市竹崎町四丁目3－1",
      "lat": 33.94876817,
      "lng": 130.9210073,
      "geocoding_level": null,
      "phone": "083-228-1877",
      "license_no": "310767",
      "license_date": "2020-02-03",
      "expire_date": "2026-03-31"
    },
    {
      "name": "セブン-イレブンハートインJR下関駅東口店",
      "name_kana": "",
      "business_type": "飲食店営業(その他)",
      "address": "下関市竹崎町四丁目3－1",
      "lat": 33.94876817,
      "lng": 130.9210073,
      "geocoding_level": null,
      "phone": "083-228-1677",
      "license_no": "20303",
      "license_date": "2020-07-29",
      "expire_date": "2026-09-30"
    },
    {
      "name": "モスバーガーＪＲ下関店",
      "name_kana": "",
      "business_type": "飲食店営業",
      "address": "下関市竹崎町四丁目3－1 ＪＲ下関駅ビル１Ｆ",
      "lat": 33.94876817,
      "lng": 130.9210073,
      "geocoding_level": null,
      "phone": "083-228-0390",
      "license_no": "60685",
      "license_date": "2025-03-17",
      "expire_date": "2031-03-31"
    },
    {
      "name": "ゆめマート下関駅",
      "name_kana": "",
      "business_type": "飲食店営業",
      "address": "下関市竹崎町四丁目3－1",
      "lat": 33.94876817,
      "lng": 130.9210073,
      "geocoding_level": null,
      "phone": "083-228-1661",
      "license_no": "60656",
      "license_date": "2025-02-27",
      "expire_date": "2031-03-31"
    },
    {
      "name": "ゆめマート下関駅",
      "name_kana": "",
      "business_type": "食肉販売業",
      "address": "下関市竹崎町四丁目3－1",
      "lat": 33.94876817,
      "lng": 130.9210073,
      "geocoding_level": null,
      "phone": "083-228-1661",
      "license_no": "60657",
      "license_date": "2025-02-27",
      "expire_date": "2031-03-31"
    },
    {
      "name": "ゆめマート下関駅",
      "name_kana": "",
      "business_type": "魚介類販売業",
      "address": "下関市竹崎町四丁目3－1",
      "lat": 33.94876817,
      "lng": 130.9210073,
      "geocoding_level": null,
      "phone": "083-228-1661",
      "license_no": "60658",
      "license_date": "2025-02-27",
      "expire_date": "2031-03-31"
    },
    {
      "name": "おみやげ街道　下関改札内店",
      "name_kana": "",
      "business_type": "飲食店営業",
      "address": "下関市竹崎町四丁目3－1",
      "lat": 33.94876817,
      "lng": 130.9210073,
      "geocoding_level": null,
      "phone": "083-228-5881",
      "license_no": "40795",
      "license_date": "2023-03-14",
      "expire_date": "2029-03-31"
    },
    {
      "name": "おにぎり　烏はこ",
      "name_kana": "",
      "business_type": "飲食店営業",
      "address": "下関市竹崎町四丁目3－1",
      "lat": 33.94876817,
      "lng": 130.9210073,
      "geocoding_level": null,
      "phone": "083-227-2332",
      "license_no": "50787",
      "license_date": "2024-02-28",
      "expire_date": "2029-03-31"
    },
    {
      "name": "マル幸商事株式会社　工場",
      "name_kana": "",
      "business_type": "水産製品製造業",
      "address": "下関市彦島西山町四丁目13－48",
      "lat": 33.94901372,
      "lng": 130.8832159,
      "geocoding_level": null,
      "phone": "083-267-3727",
      "license_no": "31645",
      "license_date": "2022-03-24",
      "expire_date": "2028-06-30"
    },
    {
      "name": "ドーミーインPREMIUM下関",
      "name_kana": "",
      "business_type": "飲食店営業",
      "address": "下関市細江新町3－40",
      "lat": 33.9490258,
      "lng": 130.9276073,
      "geocoding_level": null,
      "phone": "083-223-5489",
      "license_no": "40045",
      "license_date": "2022-05-11",
      "expire_date": "2028-06-30"
    },
    {
      "name": "有限会社　肥塚水産加工",
      "name_kana": "",
      "business_type": "水産製品製造業",
      "address": "下関市彦島西山町四丁目12－15",
      "lat": 33.94910249,
      "lng": 130.8820798,
      "geocoding_level": null,
      "phone": "083-266-2385",
      "license_no": "50294",
      "license_date": "2023-08-30",
      "expire_date": "2028-09-30"
    },
    {
      "name": "スーパーホテル　Ｐｒｅｍｉｅｒ　下関",
      "name_kana": "",
      "business_type": "飲食店営業",
      "address": "下関市細江新町3－50",
      "lat": 33.94916377,
      "lng": 130.9286633,
      "geocoding_level": null,
      "phone": "083-229-9000",
      "license_no": "60571",
      "license_date": "2024-12-23",
      "expire_date": "2029-12-31"
    },
    {
      "name": "株式会社　なかお",
      "name_kana": "",
      "business_type": "水産製品製造業",
      "address": "下関市彦島西山町四丁目11－18",
      "lat": 33.94919369,
      "lng": 130.8817885,
      "geocoding_level": null,
      "phone": "083-250-9955",
      "license_no": "60372",
      "license_date": "2024-09-25",
      "expire_date": "2030-09-30"
    },
    {
      "name": "有限会社　マルヨ水産",
      "name_kana": "",
      "business_type": "水産製品製造業",
      "address": "下関市彦島西山町四丁目11－18",
      "lat": 33.94919369,
      "lng": 130.8817885,
      "geocoding_level": null,
      "phone": "083-266-7777",
      "license_no": "31101",
      "license_date": "2021-06-25",
      "expire_date": "2027-06-30"
    },
    {
      "name": "春帆楼南風泊宅配センター",
      "name_kana": "",
      "business_type": "水産製品製造業",
      "address": "下関市彦島西山町四丁目11－19",
      "lat": 33.94919369,
      "lng": 130.8817885,
      "geocoding_level": null,
      "phone": "083-249-5329",
      "license_no": "60348",
      "license_date": "2024-09-26",
      "expire_date": "2029-09-30"
    },
    {
      "name": "有限会社　玄洋社",
      "name_kana": "",
      "business_type": "菓子製造業",
      "address": "下関市彦島西山町四丁目11－18",
      "lat": 33.94919369,
      "lng": 130.8817885,
      "geocoding_level": null,
      "phone": "",
      "license_no": "50434",
      "license_date": "2023-10-20",
      "expire_date": "2029-12-31"
    },
    {
      "name": "シネマサンシャイン下関",
      "name_kana": "",
      "business_type": "飲食店営業(その他)",
      "address": "下関市竹崎町四丁目1－37",
      "lat": 33.94921285,
      "lng": 130.9224012,
      "geocoding_level": null,
      "phone": "083-235-7777",
      "license_no": "20448",
      "license_date": "2020-09-09",
      "expire_date": "2026-09-30"
    },
    {
      "name": "シネマサンシャイン下関",
      "name_kana": "",
      "business_type": "菓子製造業",
      "address": "下関市竹崎町四丁目1－37",
      "lat": 33.94921285,
      "lng": 130.9224012,
      "geocoding_level": null,
      "phone": "083-235-7777",
      "license_no": "20449",
      "license_date": "2020-09-09",
      "expire_date": "2026-09-30"
    },
    {
      "name": "天白ひらこしふく楽舎",
      "name_kana": "",
      "business_type": "飲食店営業",
      "address": "下関市彦島西山町五丁目2－1",
      "lat": 33.94922255,
      "lng": 130.8873722,
      "geocoding_level": null,
      "phone": "083-267-4998",
      "license_no": "31528",
      "license_date": "2021-12-07",
      "expire_date": "2027-12-31"
    },
    {
      "name": "小萩",
      "name_kana": "",
      "business_type": "飲食店営業(一般食堂)",
      "address": "下関市大和町一丁目3－10",
      "lat": 33.94926773,
      "lng": 130.9210292,
      "geocoding_level": null,
      "phone": "",
      "license_no": "30042",
      "license_date": "2021-05-20",
      "expire_date": "2026-06-30"
    },
    {
      "name": "ドンク",
      "name_kana": "",
      "business_type": "菓子製造業",
      "address": "下関市竹崎町四丁目4－10 地階",
      "lat": 33.9494062,
      "lng": 130.9231989,
      "geocoding_level": null,
      "phone": "",
      "license_no": "31199",
      "license_date": "2021-06-30",
      "expire_date": "2027-06-30"
    },
    {
      "name": "カトルセゾン",
      "name_kana": "",
      "business_type": "菓子製造業",
      "address": "下関市竹崎町四丁目4－10 地階",
      "lat": 33.9494062,
      "lng": 130.9231989,
      "geocoding_level": null,
      "phone": "083-232-1111",
      "license_no": "31752",
      "license_date": "2022-03-07",
      "expire_date": "2028-03-31"
    },
    {
      "name": "キョーワズ珈琲",
      "name_kana": "",
      "business_type": "飲食店営業",
      "address": "下関市竹崎町四丁目4－10 地階",
      "lat": 33.9494062,
      "lng": 130.9231989,
      "geocoding_level": null,
      "phone": "083-232-1111",
      "license_no": "31194",
      "license_date": "2021-06-30",
      "expire_date": "2027-06-30"
    },
    {
      "name": "果子乃季",
      "name_kana": "",
      "business_type": "飲食店営業(一般食堂)",
      "address": "下関市竹崎町四丁目4－10 地階",
      "lat": 33.9494062,
      "lng": 130.9231989,
      "geocoding_level": null,
      "phone": "083-232-1111",
      "license_no": "20664",
      "license_date": "2020-12-01",
      "expire_date": "2026-12-31"
    },
    {
      "name": "スターバックスコーヒー下関大丸店",
      "name_kana": "",
      "business_type": "飲食店営業(一般食堂)",
      "address": "下関市竹崎町四丁目4－10 下関大丸１Ｆ",
      "lat": 33.9494062,
      "lng": 130.9231989,
      "geocoding_level": null,
      "phone": "083-232-1111",
      "license_no": "20663",
      "license_date": "2020-12-16",
      "expire_date": "2026-12-31"
    },
    {
      "name": "Smile",
      "name_kana": "",
      "business_type": "飲食店営業",
      "address": "下関市竹崎町四丁目4－10 地下１階",
      "lat": 33.9494062,
      "lng": 130.9231989,
      "geocoding_level": null,
      "phone": "083-232-1111",
      "license_no": "60309",
      "license_date": "2024-09-17",
      "expire_date": "2030-09-30"
    },
    {
      "name": "下関丸福",
      "name_kana": "",
      "business_type": "魚介類販売業",
      "address": "下関市竹崎町四丁目4－10 地階",
      "lat": 33.9494062,
      "lng": 130.9231989,
      "geocoding_level": null,
      "phone": "083-232-1111",
      "license_no": "31201",
      "license_date": "2021-06-30",
      "expire_date": "2027-06-30"
    },
    {
      "name": "中国料理　耕治",
      "name_kana": "",
      "business_type": "飲食店営業",
      "address": "下関市竹崎町四丁目4－10 下関大丸７階",
      "lat": 33.9494062,
      "lng": 130.9231989,
      "geocoding_level": null,
      "phone": "083-229-5000",
      "license_no": "40390",
      "license_date": "2022-09-05",
      "expire_date": "2027-09-30"
    },
    {
      "name": "古市庵",
      "name_kana": "",
      "business_type": "飲食店営業",
      "address": "下関市竹崎町四丁目4－10 地階",
      "lat": 33.9494062,
      "lng": 130.9231989,
      "geocoding_level": null,
      "phone": "083-232-1111",
      "license_no": "40768",
      "license_date": "2023-03-02",
      "expire_date": "2029-03-31"
    },