{
  "meta": {
    "updated": 1783906731,
    "sources": [
      {
        "source": "兵庫県食品関係営業施設リスト（許可）",
        "license": "要確認"
      },
      {
        "source": "厚生労働省 食品衛生申請等システム（オープンデータ）",
        "license": "公共データ利用規約（第1.0版, PDL1.0）"
      }
    ]
  },
  "data": [
    {
      "name": "スタート喫茶",
      "name_kana": "",
      "business_type": "飲食店営業(1)一般食堂・レストラン等",
      "address": "川辺郡猪名川町杉生字岩掛１－１３関西軽井沢ゴルフ倶楽部内",
      "lat": 34.894966,
      "lng": 135.376164,
      "geocoding_level": 2,
      "phone": "0727690207",
      "license_no": "神北(伊健)第1-366",
      "license_date": null,
      "expire_date": null
    },
    {
      "name": "関西軽井沢ゴルフ倶楽部  レストラン　しげ",
      "name_kana": "",
      "business_type": "飲食店営業(1)一般食堂・レストラン等",
      "address": "川辺郡猪名川町杉生字岩掛１－１３関西軽井沢ゴルフ倶楽部内",
      "lat": 34.894966,
      "lng": 135.376164,
      "geocoding_level": 2,
      "phone": "0727690207",
      "license_no": "神北(伊健)第1-391",
      "license_date": null,
      "expire_date": null
    },
    {
      "name": "喜多商店",
      "name_kana": "",
      "business_type": "魚介類販売業",
      "address": "川辺郡猪名川町清水字広瀬９－１",
      "lat": 34.894966,
      "lng": 135.376164,
      "geocoding_level": 2,
      "phone": "",
      "license_no": "神北(伊健)第22-41",
      "license_date": null,
      "expire_date": null
    },
    {
      "name": "すし好",
      "name_kana": "",
      "business_type": "飲食店営業(1)一般食堂・レストラン等",
      "address": "川辺郡猪名川町清水字広瀬９－１",
      "lat": 34.894966,
      "lng": 135.376164,
      "geocoding_level": 2,
      "phone": "",
      "license_no": "神北(伊健)第27-289",
      "license_date": null,
      "expire_date": null
    },
    {
      "name": "酒菜お食事処　しまや",
      "name_kana": "",
      "business_type": "飲食店営業(1)一般食堂・レストラン等",
      "address": "川辺郡猪名川町島字前田１１",
      "lat": 34.894966,
      "lng": 135.376164,
      "geocoding_level": 2,
      "phone": "0727690408",
      "license_no": "神北(伊健)第1-429",
      "license_date": null,
      "expire_date": null
    },
    {
      "name": "里の家",
      "name_kana": "",
      "business_type": "飲食店営業(3)旅館",
      "address": "川辺郡猪名川町島字内垣内２３",
      "lat": 34.894966,
      "lng": 135.376164,
      "geocoding_level": 2,
      "phone": "",
      "license_no": "神北(伊健)第27-285",
      "license_date": null,
      "expire_date": null
    },
    {
      "name": "仲しい茸園",
      "name_kana": "",
      "business_type": "飲食店営業(4)その他",
      "address": "川辺郡猪名川町木間生字西山１－１",
      "lat": 34.894966,
      "lng": 135.376164,
      "geocoding_level": 2,
      "phone": "0727680055",
      "license_no": "神北(伊健)第1-353",
      "license_date": null,
      "expire_date": null
    },
    {
      "name": "株式会社いながわフレッシュパーク  道の駅　いながわ",
      "name_kana": "",
      "business_type": "飲食店営業(1)一般食堂・レストラン等",
      "address": "川辺郡猪名川町万善字竹添７０－１",
      "lat": 34.919179258,
      "lng": 135.352207165,
      "geocoding_level": 8,
      "phone": "0727678600",
      "license_no": "神北(伊健)第1-507",
      "license_date": null,
      "expire_date": null
    },
    {
      "name": "株式会社いながわフレッシュパーク  道の駅　いながわ",
      "name_kana": "",
      "business_type": "麺類製造業",
      "address": "川辺郡猪名川町万善字竹添７０－１",
      "lat": 34.919179258,
      "lng": 135.352207165,
      "geocoding_level": 8,
      "phone": "0727678600",
      "license_no": "神北(伊健)第19-2",
      "license_date": null,
      "expire_date": null
    },
    {
      "name": "株式会社いながわフレッシュパーク  道の駅　いながわ",
      "name_kana": "",
      "business_type": "菓子製造業",
      "address": "川辺郡猪名川町万善字竹添７０－１",
      "lat": 34.919179258,
      "lng": 135.352207165,
      "geocoding_level": 8,
      "phone": "0727678600",
      "license_no": "神北(伊健)第6-44",
      "license_date": null,
      "expire_date": null
    },
    {
      "name": "かわら屋",
      "name_kana": "",
      "business_type": "飲食店営業(1)一般食堂・レストラン等",
      "address": "川辺郡猪名川町紫合字街東６４５－１",
      "lat": 34.894966,
      "lng": 135.376164,
      "geocoding_level": 2,
      "phone": "0727667374",
      "license_no": "神北(伊健)第1-132",
      "license_date": null,
      "expire_date": null
    },
    {
      "name": "木かげ",
      "name_kana": "",
      "business_type": "飲食店営業(1)一般食堂・レストラン等",
      "address": "川辺郡猪名川町北田原字宮ノ西４０９",
      "lat": 34.894966,
      "lng": 135.376164,
      "geocoding_level": 2,
      "phone": "0727660577",
      "license_no": "神北(伊健)第1-478",
      "license_date": null,
      "expire_date": null
    },
    {
      "name": "まんか旅館",
      "name_kana": "",
      "business_type": "飲食店営業(3)旅館",
      "address": "川辺郡猪名川町上野字西垣内３９－１",
      "lat": 34.89231,
      "lng": 135.378514,
      "geocoding_level": 3,
      "phone": "0727660011",
      "license_no": "神北(伊健)第1-605",
      "license_date": null,
      "expire_date": null
    },
    {
      "name": "料理旅館　おくだ屋",
      "name_kana": "",
      "business_type": "飲食店営業(3)旅館",
      "address": "川辺郡猪名川町上野字北畑２",
      "lat": 34.895694927,
      "lng": 135.377123896,
      "geocoding_level": 8,
      "phone": "0727660026",
      "license_no": "神北(伊健)第1-419",
      "license_date": null,
      "expire_date": null
    },
    {
      "name": "松弥食堂",
      "name_kana": "",
      "business_type": "飲食店営業(1)一般食堂・レストラン等",
      "address": "川辺郡猪名川町上野字北畑４２",
      "lat": 34.896016347,
      "lng": 135.376717268,
      "geocoding_level": 8,
      "phone": "",
      "license_no": "神北(伊健)第1-231",
      "license_date": null,
      "expire_date": null
    },
    {
      "name": "かっぱ鎌倉",
      "name_kana": "",
      "business_type": "飲食店営業(1)一般食堂・レストラン等",
      "address": "川辺郡猪名川町若葉１丁目２－６三栄パークタウンビル２Ｆ２０６号",
      "lat": 34.900246,
      "lng": 135.368772,
      "geocoding_level": 3,
      "phone": "",
      "license_no": "神北(伊健)第1-176",
      "license_date": null,
      "expire_date": null
    },
    {
      "name": "阪急オアシス日生中央店",
      "name_kana": "",
      "business_type": "食肉販売業",
      "address": "川辺郡猪名川町松尾台１丁目２－１",
      "lat": 34.906286,
      "lng": 135.392613,
      "geocoding_level": 3,
      "phone": "",
      "license_no": "神北(伊健)第3-10",
      "license_date": null,
      "expire_date": null
    },
    {
      "name": "阪急オアシス日生中央店",
      "name_kana": "",
      "business_type": "魚介類販売業",
      "address": "川辺郡猪名川町松尾台１丁目２－１",
      "lat": 34.906286,
      "lng": 135.392613,
      "geocoding_level": 3,
      "phone": "",
      "license_no": "神北(伊健)第4-9",
      "license_date": null,
      "expire_date": null
    },
    {
      "name": "鮨ひなせ",
      "name_kana": "",
      "business_type": "飲食店営業(1)一般食堂・レストラン等",
      "address": "川辺郡猪名川町松尾台４丁目２－６",
      "lat": 34.900956768,
      "lng": 135.387660182,
      "geocoding_level": 8,
      "phone": "",
      "license_no": "神北(伊健)第83-23",
      "license_date": null,
      "expire_date": null
    },
    {
      "name": "福屋",
      "name_kana": "",
      "business_type": "飲食店営業(1)一般食堂・レストラン等",
      "address": "川辺郡猪名川町上野字西垣内３９－１",
      "lat": 34.89231,
      "lng": 135.378514,
      "geocoding_level": 3,
      "phone": "0727660011",
      "license_no": "神北(伊健)第1-56",
      "license_date": null,
      "expire_date": null
    },
    {
      "name": "本家かまどや　イワヤ店",
      "name_kana": "",
      "business_type": "飲食店営業(2)仕出し屋・弁当屋",
      "address": "川辺郡猪名川町万善字岩屋１６２－５",
      "lat": 34.917148786,
      "lng": 135.356355452,
      "geocoding_level": 8,
      "phone": "0727678978",
      "license_no": "神北(伊健)第1-51",
      "license_date": null,
      "expire_date": null
    },
    {
      "name": "照月堂",
      "name_kana": "",
      "business_type": "菓子製造業",
      "address": "川辺郡猪名川町猪渕字蔵元１０１",
      "lat": 34.894966,
      "lng": 135.376164,
      "geocoding_level": 2,
      "phone": "0727660823",
      "license_no": "神北(伊健)第3-32",
      "license_date": null,
      "expire_date": null
    },
    {
      "name": "阪急オアシス日生中央店（寿司コーナー）",
      "name_kana": "",
      "business_type": "飲食店営業(4)その他",
      "address": "川辺郡猪名川町松尾台１丁目２－１",
      "lat": 34.906286,
      "lng": 135.392613,
      "geocoding_level": 3,
      "phone": "0727661931",
      "license_no": "神北(伊健)第1-511",
      "license_date": null,
      "expire_date": null
    },
    {
      "name": "セブン-イレブン　猪名川北田原店",
      "name_kana": "",
      "business_type": "飲食店営業(4)その他",
      "address": "川辺郡猪名川町北田原３１１－７",
      "lat": 34.917851,
      "lng": 135.366003,
      "geocoding_level": 3,
      "phone": "",
      "license_no": "神北(伊健)第27-114",
      "license_date": null,
      "expire_date": null
    },
    {
      "name": "ローソン猪名川町差組店",
      "name_kana": "",
      "business_type": "飲食店営業(4)その他",
      "address": "川辺郡猪名川町差組字向イ１８４",
      "lat": 34.881124385,
      "lng": 135.378884554,
      "geocoding_level": 8,
      "phone": "",
      "license_no": "神北(伊健)第1-243",
      "license_date": null,
      "expire_date": null
    },
    {
      "name": "サン・エトワール猪名川店",
      "name_kana": "",
      "business_type": "菓子製造業",
      "address": "川辺郡猪名川町紫合字堂田３３９－１",
      "lat": 34.90561688,
      "lng": 135.374790175,
      "geocoding_level": 8,
      "phone": "",
      "license_no": "神北(伊健)第6-40",
      "license_date": null,
      "expire_date": null
    },
    {
      "name": "ユウカリ福祉会猪名川園",
      "name_kana": "",
      "business_type": "飲食店営業(1)一般食堂・レストラン等",
      "address": "川辺郡猪名川町清水字寺ノ前５１",
      "lat": 34.894966,
      "lng": 135.376164,
      "geocoding_level": 2,
      "phone": "",
      "license_no": "神北(伊健)第1-337",
      "license_date": null,
      "expire_date": null
    },
    {
      "name": "八番館",
      "name_kana": "",
      "business_type": "飲食店営業(1)一般食堂・レストラン等",
      "address": "川辺郡猪名川町白金３丁目１６－２",
      "lat": 34.896756,
      "lng": 135.361108,
      "geocoding_level": 3,
      "phone": "",
      "license_no": "神北(伊健)第1-80",
      "license_date": null,
      "expire_date": null
    },
    {
      "name": "猪名川町障害者多機能型事業所  希望の家　すばる",
      "name_kana": "",
      "business_type": "菓子製造業",
      "address": "川辺郡猪名川町北田原字南山１４－２",
      "lat": 34.91108446100001,
      "lng": 135.370614736,
      "geocoding_level": 8,
      "phone": "",
      "license_no": "神北(伊健)第6-18",
      "license_date": null,
      "expire_date": null
    },
    {
      "name": "和菓子処　うませ",
      "name_kana": "",
      "business_type": "菓子製造業",
      "address": "川辺郡猪名川町木津字御所垣内１５－１",
      "lat": 34.894966,
      "lng": 135.376164,
      "geocoding_level": 2,
      "phone": "",
      "license_no": "神北(伊健)第6-17",
      "license_date": null,
      "expire_date": null
    },
    {
      "name": "株式会社リュバン・アン・プリュス",
      "name_kana": "",
      "business_type": "食品の小分け業",
      "address": "川辺郡猪名川町笹尾字加門田５－１－２",
      "lat": 34.894966,
      "lng": 135.376164,
      "geocoding_level": 2,
      "phone": "",
      "license_no": "神北(伊健)第26-3",
      "license_date": null,
      "expire_date": null
    },
    {
      "name": "わらべ",
      "name_kana": "",
      "business_type": "飲食店営業(1)一般食堂・レストラン等",
      "address": "川辺郡猪名川町清水字中久保６",
      "lat": 34.894966,
      "lng": 135.376164,
      "geocoding_level": 2,
      "phone": "0727690813",
      "license_no": "神北(伊健)第1-317",
      "license_date": null,
      "expire_date": null
    },
    {
      "name": "イタリアンレストランテ　トリトン",
      "name_kana": "",
      "business_type": "飲食店営業(1)一般食堂・レストラン等",
      "address": "川辺郡猪名川町差組字向イ２０１－２",
      "lat": 34.881715125,
      "lng": 135.37858032,
      "geocoding_level": 8,
      "phone": "0727672550",
      "license_no": "神北(伊健)第1-420",
      "license_date": null,
      "expire_date": null
    },
    {
      "name": "イオンリテール株式会社イオン猪名川店  （畜産）",
      "name_kana": "",
      "business_type": "食肉販売業",
      "address": "川辺郡猪名川町白金２丁目１",
      "lat": 34.898607,
      "lng": 135.356898,
      "geocoding_level": 3,
      "phone": "0727651111",
      "license_no": "神北(伊健)第12-7",
      "license_date": null,
      "expire_date": null
    },
    {
      "name": "株式会社　珉王　猪名川店",
      "name_kana": "",
      "business_type": "飲食店営業(1)一般食堂・レストラン等",
      "address": "川辺郡猪名川町差組字向イ２０２－１",
      "lat": 34.881623853,
      "lng": 135.378255564,
      "geocoding_level": 8,
      "phone": "0727663039",
      "license_no": "神北(伊健)第1-185",
      "license_date": null,
      "expire_date": null
    },
    {
      "name": "珈琲舗マッククイーン",
      "name_kana": "",
      "business_type": "飲食店営業(1)一般食堂・レストラン等",
      "address": "川辺郡猪名川町白金２丁目１イオンモール猪名川２Ｆ",
      "lat": 34.898607,
      "lng": 135.356898,
      "geocoding_level": 3,
      "phone": "0727651146",
      "license_no": "神北(伊健)第1-189",
      "license_date": null,
      "expire_date": null
    },
    {
      "name": "イオンリテール株式会社イオン猪名川店  （ダイリキ）",
      "name_kana": "",
      "business_type": "食肉販売業",
      "address": "川辺郡猪名川町白金２丁目１",
      "lat": 34.898607,
      "lng": 135.356898,
      "geocoding_level": 3,
      "phone": "0727651111",
      "license_no": "神北(伊健)第12-8",
      "license_date": null,
      "expire_date": null
    },
    {
      "name": "イオンリテール株式会社イオン猪名川店  （水産）",
      "name_kana": "",
      "business_type": "魚介類販売業",
      "address": "川辺郡猪名川町白金２丁目１",
      "lat": 34.898607,
      "lng": 135.356898,
      "geocoding_level": 3,
      "phone": "0727651111",
      "license_no": "神北(伊健)第5-2",
      "license_date": null,
      "expire_date": null
    },
    {
      "name": "イオンリテール株式会社イオン猪名川店  （パン工場）",
      "name_kana": "",
      "business_type": "菓子製造業",
      "address": "川辺郡猪名川町白金２丁目１",
      "lat": 34.898607,
      "lng": 135.356898,
      "geocoding_level": 3,
      "phone": "0727651111",
      "license_no": "神北(伊健)第3-18",
      "license_date": null,
      "expire_date": null
    },
    {
      "name": "イオンリテール株式会社イオン猪名川店  （デリカ寿司）",
      "name_kana": "",
      "business_type": "飲食店営業(4)その他",
      "address": "川辺郡猪名川町白金２丁目１",
      "lat": 34.898607,
      "lng": 135.356898,
      "geocoding_level": 3,
      "phone": "0727651111",
      "license_no": "神北(伊健)第1-235",
      "license_date": null,
      "expire_date": null
    },
    {
      "name": "イオンリテール株式会社イオン猪名川店  （デリカ揚げ物）",
      "name_kana": "",
      "business_type": "飲食店営業(4)その他",
      "address": "川辺郡猪名川町白金２丁目１",
      "lat": 34.898607,
      "lng": 135.356898,
      "geocoding_level": 3,
      "phone": "0727651111",
      "license_no": "神北(伊健)第1-236",
      "license_date": null,
      "expire_date": null
    },
    {
      "name": "おおがまや　猪名川店",
      "name_kana": "",
      "business_type": "飲食店営業(1)一般食堂・レストラン等",
      "address": "川辺郡猪名川町白金２丁目１イオンモール猪名川３Ｆ",
      "lat": 34.898607,
      "lng": 135.356898,
      "geocoding_level": 3,
      "phone": "0727666016",
      "license_no": "神北(伊健)第1-190",
      "license_date": null,
      "expire_date": null
    },
    {
      "name": "ミスタ－ド－ナツ猪名川店",
      "name_kana": "",
      "business_type": "飲食店営業(4)その他",
      "address": "川辺郡猪名川町白金２丁目１イオンモール猪名川３Ｆ",
      "lat": 34.898607,
      "lng": 135.356898,
      "geocoding_level": 3,
      "phone": "",
      "license_no": "神北(伊健)第27-77",
      "license_date": null,
      "expire_date": null
    },
    {
      "name": "ミスタ－ド－ナツ猪名川店",
      "name_kana": "",
      "business_type": "菓子製造業",
      "address": "川辺郡猪名川町白金２丁目１イオンモール猪名川３Ｆ",
      "lat": 34.898607,
      "lng": 135.356898,
      "geocoding_level": 3,
      "phone": "",
      "license_no": "神北(伊健)第3-45",
      "license_date": null,
      "expire_date": null
    },
    {
      "name": "サーティワンアイスクリーム  イオンモール猪名川店",
      "name_kana": "",
      "business_type": "飲食店営業(4)その他",
      "address": "川辺郡猪名川町白金２丁目１イオンモール猪名川３Ｆ",
      "lat": 34.898607,
      "lng": 135.356898,
      "geocoding_level": 3,
      "phone": "0727652009",
      "license_no": "神北(伊健)第1-186",
      "license_date": null,
      "expire_date": null
    },
    {
      "name": "手打麺匠　ぎんざん",
      "name_kana": "",
      "business_type": "飲食店営業(1)一般食堂・レストラン等",
      "address": "川辺郡猪名川町白金２丁目１イオンモール猪名川３Ｆ",
      "lat": 34.898607,
      "lng": 135.356898,
      "geocoding_level": 3,
      "phone": "0727651176",
      "license_no": "神北(伊健)第1-187",
      "license_date": null,
      "expire_date": null
    },
    {
      "name": "チェリーゴルフ猪名川コース",
      "name_kana": "",
      "business_type": "飲食店営業(1)一般食堂・レストラン等",
      "address": "川辺郡猪名川町柏原字西ノ山１",
      "lat": 34.894966,
      "lng": 135.376164,
      "geocoding_level": 2,
      "phone": "0727690301",
      "license_no": "神北(伊健)第1-510",
      "license_date": null,
      "expire_date": null
    },
    {
      "name": "アンクル",
      "name_kana": "",
      "business_type": "飲食店営業(1)一般食堂・レストラン等",
      "address": "川辺郡猪名川町木津字茶垣内１７－１",
      "lat": 34.938182,
      "lng": 135.33949783,
      "geocoding_level": 8,
      "phone": "0727680788",
      "license_no": "神北(伊健)第1-479",
      "license_date": null,
      "expire_date": null
    },
    {
      "name": "炭火焼肉　牛楽",
      "name_kana": "",
      "business_type": "飲食店営業(1)一般食堂・レストラン等",
      "address": "川辺郡猪名川町差組字向イ２１１－２",
      "lat": 34.882142733,
      "lng": 135.377832573,
      "geocoding_level": 8,
      "phone": "0727661029",
      "license_no": "神北(伊健)第1-506",
      "license_date": null,
      "expire_date": null
    },
    {
      "name": "ベーカリー　カフェ　コンネ",
      "name_kana": "",
      "business_type": "菓子製造業",
      "address": "川辺郡猪名川町万善字畑溝５９－１猪名川グルメプラザ内",
      "lat": 34.92010142,
      "lng": 135.351320969,
      "geocoding_level": 8,
      "phone": "0727682001",
      "license_no": "神北(伊健)第3-4",
      "license_date": null,
      "expire_date": null
    },
    {
      "name": "ベーカリー　カフェ　コンネ",
      "name_kana": "",
      "business_type": "飲食店営業(1)一般食堂・レストラン等",
      "address": "川辺郡猪名川町万善字畑溝５９－１猪名川グルメプラザ内",
      "lat": 34.92010142,
      "lng": 135.351320969,
      "geocoding_level": 8,
      "phone": "0727682001",
      "license_no": "神北(伊健)第1-39",
      "license_date": null,
      "expire_date": null
    },
    {
      "name": "シフォン川西",
      "name_kana": "",
      "business_type": "菓子製造業",
      "address": "川辺郡猪名川町万善字神屋田２５５－２",
      "lat": 34.928043143,
      "lng": 135.346635563,
      "geocoding_level": 8,
      "phone": "",
      "license_no": "神北(伊健)第3-41",
      "license_date": null,
      "expire_date": null
    },
    {
      "name": "リンガーハット  イオンモール猪名川店",
      "name_kana": "",
      "business_type": "飲食店営業(4)その他",
      "address": "川辺郡猪名川町白金２丁目１イオンモール猪名川３Ｆ",
      "lat": 34.898607,
      "lng": 135.356898,
      "geocoding_level": 3,
      "phone": "",
      "license_no": "神北(伊健)第27-237",
      "license_date": null,
      "expire_date": null
    },
    {
      "name": "加地農園加工部  （米粉スイーツ猪名すずめ）",
      "name_kana": "",
      "business_type": "菓子製造業",
      "address": "川辺郡猪名川町広根字清水２－４",
      "lat": 34.894966,
      "lng": 135.376164,
      "geocoding_level": 2,
      "phone": "",
      "license_no": "神北(伊健)第6-8",
      "license_date": null,
      "expire_date": null
    },
    {
      "name": "猪名・ブロート",
      "name_kana": "",
      "business_type": "菓子製造業",
      "address": "川辺郡猪名川町旭ケ丘１丁目１１５",
      "lat": 34.969218,
      "lng": 135.334938,
      "geocoding_level": 3,
      "phone": "",
      "license_no": "神北(伊健)第6-11",
      "license_date": null,
      "expire_date": null
    },
    {
      "name": "Villabli Garden Cafe  （ビラブリガーデンカフェ）",
      "name_kana": "",
      "business_type": "飲食店営業(3)旅館",
      "address": "川辺郡猪名川町笹尾字向山１",
      "lat": 34.894966,
      "lng": 135.376164,
      "geocoding_level": 2,
      "phone": "",
      "license_no": "神北(伊健)第1-125",
      "license_date": null,
      "expire_date": null
    },
    {
      "name": "サイゼリヤ　イオンモール猪名川店",
      "name_kana": "",
      "business_type": "飲食店営業(1)一般食堂・レストラン等",
      "address": "川辺郡猪名川町白金２丁目１イオン猪名川SC３F",
      "lat": 34.898607,
      "lng": 135.356898,
      "geocoding_level": 3,
      "phone": "",
      "license_no": "神北(伊健)第1-303",
      "license_date": null,
      "expire_date": null
    },
    {
      "name": "手打麺匠　ぎんざん",
      "name_kana": "",
      "business_type": "飲食店営業(1)一般食堂・レストラン等",
      "address": "川辺郡猪名川町松尾台１丁目２－１",
      "lat": 34.906286,
      "lng": 135.392613,
      "geocoding_level": 3,
      "phone": "",
      "license_no": "神北(伊健)第1-214",
      "license_date": null,
      "expire_date": null
    },
    {
      "name": "オッハァーのおか",
      "name_kana": "",
      "business_type": "菓子製造業",
      "address": "川辺郡猪名川町杤原字田中廻１７",
      "lat": 34.949249925,
      "lng": 135.337331102,
      "geocoding_level": 8,
      "phone": "",
      "license_no": "神北(伊健)第6-68",
      "license_date": null,
      "expire_date": null
    },
    {
      "name": "オッハァーのおか",
      "name_kana": "",
      "business_type": "そうざい製造業",
      "address": "川辺郡猪名川町杤原字田中廻１７",
      "lat": 34.949249925,
      "lng": 135.337331102,
      "geocoding_level": 8,
      "phone": "",
      "license_no": "神北(伊健)第20-16",
      "license_date": null,
      "expire_date": null
    },
    {
      "name": "茶寮　百灯瀬",
      "name_kana": "",
      "business_type": "飲食店営業(2)仕出し屋・弁当屋",
      "address": "川辺郡猪名川町伏見台１丁目１－９２",
      "lat": 34.908975,
      "lng": 135.390371,
      "geocoding_level": 3,
      "phone": "",
      "license_no": "神北(伊健)第1-51",
      "license_date": null,
      "expire_date": null
    },
    {
      "name": "レトロなお店トントントン",
      "name_kana": "",
      "business_type": "飲食店営業(4)その他",
      "address": "川辺郡猪名川町銀山字大口１８",
      "lat": 34.895144484,
      "lng": 135.351903035,
      "geocoding_level": 8,
      "phone": "",
      "license_no": "神北(伊健)第1-256",
      "license_date": null,
      "expire_date": null
    },
    {
      "name": "ｐｉｒｉｃａ（ピリカ）",
      "name_kana": "",
      "business_type": "菓子製造業",
      "address": "川辺郡猪名川町白金１丁目１１６－１１",
      "lat": 34.90316,
      "lng": 135.360841,
      "geocoding_level": 3,
      "phone": "",
      "license_no": "神北(伊健)第6-32",
      "license_date": null,
      "expire_date": null
    },
    {
      "name": "阪急オアシス日生中央店（焼魚）",
      "name_kana": "",
      "business_type": "飲食店営業(4)その他",
      "address": "川辺郡猪名川町松尾台１丁目２－１",
      "lat": 34.906286,
      "lng": 135.392613,
      "geocoding_level": 3,
      "phone": "",
      "license_no": "神北(伊健)第1-370",
      "license_date": null,
      "expire_date": null
    },
    {
      "name": "阪急オアシス日生中央店（ミートデリカ）",
      "name_kana": "",
      "business_type": "飲食店営業(4)その他",
      "address": "川辺郡猪名川町松尾台１丁目２－１",
      "lat": 34.906286,
      "lng": 135.392613,
      "geocoding_level": 3,
      "phone": "",
      "license_no": "神北(伊健)第1-371",
      "license_date": null,
      "expire_date": null
    },
    {
      "name": "阪急オアシス日生中央店（パン）",
      "name_kana": "",
      "business_type": "菓子製造業",
      "address": "川辺郡猪名川町松尾台１丁目２－１",
      "lat": 34.906286,
      "lng": 135.392613,
      "geocoding_level": 3,
      "phone": "",
      "license_no": "神北(伊健)第6-33",
      "license_date": null,
      "expire_date": null
    },
    {
      "name": "阪急オアシス日生中央店（デリカ）",
      "name_kana": "",
      "business_type": "飲食店営業(4)その他",
      "address": "川辺郡猪名川町松尾台１丁目２－１",
      "lat": 34.906286,
      "lng": 135.392613,
      "geocoding_level": 3,
      "phone": "",
      "license_no": "神北(伊健)第1-372",
      "license_date": null,
      "expire_date": null
    },
    {
      "name": "ブランジュリー　ラボンダンス",
      "name_kana": "",
      "business_type": "菓子製造業",
      "address": "川辺郡猪名川町伏見台１丁目１－７１ミュー日生中央駅前　１０３号",
      "lat": 34.908975,
      "lng": 135.390371,
      "geocoding_level": 3,
      "phone": "",
      "license_no": "神北(伊健)第6-45",
      "license_date": null,
      "expire_date": null
    },
    {
      "name": "ＹＵＭＩＮＩ",
      "name_kana": "",
      "business_type": "菓子製造業",
      "address": "川辺郡猪名川町つつじが丘５丁目２３－１",
      "lat": 34.884637000000005,
      "lng": 135.360561,
      "geocoding_level": 3,
      "phone": "0727676542",
      "license_no": "神北(伊健)第6-6",
      "license_date": null,
      "expire_date": null
    },
    {
      "name": "お食事処　ちゃこ亭",
      "name_kana": "",
      "business_type": "飲食店営業(1)一般食堂・レストラン等",
      "address": "川辺郡猪名川町広根字北野尻９－２",
      "lat": 34.894966,
      "lng": 135.376164,
      "geocoding_level": 2,
      "phone": "0727672828",
      "license_no": "神北(伊健)第1-278",
      "license_date": null,
      "expire_date": null
    },
    {
      "name": "ニュー古都",
      "name_kana": "",
      "business_type": "飲食店営業(4)その他",
      "address": "川辺郡猪名川町差組字向イ２１１－２",
      "lat": 34.882142733,
      "lng": 135.377832573,
      "geocoding_level": 8,
      "phone": "0727668576",
      "license_no": "神北(伊健)第1-480",
      "license_date": null,
      "expire_date": null
    },
    {
      "name": "ｐａｓｔａ　Ｐａｓｓｏ　ａ　Ｐａｓｓｏ",
      "name_kana": "",
      "business_type": "飲食店営業(1)一般食堂・レストラン等",
      "address": "川辺郡猪名川町紫合字白山前５８９－１",
      "lat": 34.90488655,
      "lng": 135.373261925,
      "geocoding_level": 8,
      "phone": "0727650724",
      "license_no": "神北(伊健)第1-591",
      "license_date": null,
      "expire_date": null
    },
    {
      "name": "Ｃａｆｅ　ｍａｎｎａ",
      "name_kana": "",
      "business_type": "飲食店営業(1)一般食堂・レストラン等",
      "address": "川辺郡猪名川町万善字佐保姫８６－１",
      "lat": 34.919022047,
      "lng": 135.35315565,
      "geocoding_level": 8,
      "phone": "0727680220",
      "license_no": "神北(伊健)第1-132",
      "license_date": null,
      "expire_date": null
    },
    {
      "name": "ＹＭＣＡしろがね保育園",
      "name_kana": "",
      "business_type": "飲食店営業(1)一般食堂・レストラン等",
      "address": "川辺郡猪名川町白金３丁目２－１",
      "lat": 34.896756,
      "lng": 135.361108,
      "geocoding_level": 3,
      "phone": "0727653611",
      "license_no": "神北(伊健)第1-33",
      "license_date": null,
      "expire_date": null
    },
    {
      "name": "コミュニｔｅａ ｒｏｏｍ きらら",
      "name_kana": "",
      "business_type": "飲食店営業(1)一般食堂・レストラン等",
      "address": "川辺郡猪名川町白金１丁目７４－１６中央公民館内",
      "lat": 34.90316,
      "lng": 135.360841,
      "geocoding_level": 3,
      "phone": "0727690750",
      "license_no": "神北(伊健)第1-60",
      "license_date": null,
      "expire_date": null
    },
    {
      "name": "照月堂",
      "name_kana": "",
      "business_type": "そうざい製造業",
      "address": "川辺郡猪名川町猪渕字蔵元１０１－１",
      "lat": 34.894966,
      "lng": 135.376164,
      "geocoding_level": 2,
      "phone": "0727660823",
      "license_no": "神北(伊健)第20-4",
      "license_date": null,
      "expire_date": null
    },
    {
      "name": "道の駅いながわ",
      "name_kana": "",
      "business_type": "飲食店営業(1)一般食堂・レストラン等",
      "address": "川辺郡猪名川町万善字竹添７０番地の１",
      "lat": 34.919179258,
      "lng": 135.352207165,
      "geocoding_level": 8,
      "phone": "0727678600",
      "license_no": "神北(伊健)第1-375",
      "license_date": null,
      "expire_date": null
    },
    {
      "name": "カフェ・プーランク",
      "name_kana": "",
      "business_type": "飲食店営業(1)一般食堂・レストラン等",
      "address": "川辺郡猪名川町伏見台１丁目１－７１ミュー日生中央２０２",
      "lat": 34.908975,
      "lng": 135.390371,
      "geocoding_level": 3,
      "phone": "0727650508",
      "license_no": "神北(伊健)第1-50",
      "license_date": null,
      "expire_date": null
    },
    {
      "name": "セブン－イレブン猪名川パークタウン　店",
      "name_kana": "",
      "business_type": "飲食店営業(4)その他",
      "address": "川辺郡猪名川町若葉１丁目４－５",
      "lat": 34.900246,
      "lng": 135.368772,
      "geocoding_level": 3,
      "phone": "0727652220",
      "license_no": "神北(伊健)第1-388",
      "license_date": null,
      "expire_date": null
    },
    {
      "name": "ジェラード",
      "name_kana": "",
      "business_type": "アイスクリーム類製造業",
      "address": "川辺郡猪名川町万善字畑溝５９－１猪名川グルメプラザ内",
      "lat": 34.92010142,
      "lng": 135.351320969,
      "geocoding_level": 8,
      "phone": "09056687690",
      "license_no": "神北(伊健)第10-1",
      "license_date": null,
      "expire_date": null
    },
    {
      "name": "阪急オアシス　日生中央店",
      "name_kana": "",
      "business_type": "飲食店営業(4)その他",
      "address": "川辺郡猪名川町松尾台１丁目２－１",
      "lat": 34.906286,
      "lng": 135.392613,
      "geocoding_level": 3,
      "phone": "0727661931",
      "license_no": "神北(伊健)第1-87",
      "license_date": null,
      "expire_date": null
    },
    {
      "name": "ＪＡ兵庫六甲いなの郷グループ",
      "name_kana": "",
      "business_type": "飲食店営業(4)その他",
      "address": "川辺郡猪名川町笹尾字黒添エ２１",
      "lat": 34.951419528,
      "lng": 135.327438976,
      "geocoding_level": 8,
      "phone": "0727682666",
      "license_no": "神北(伊健)第1-48",
      "license_date": null,
      "expire_date": null
    },
    {
      "name": "ＪＡ兵庫六甲いなの郷グループ",
      "name_kana": "",
      "business_type": "みそ又はしょうゆ製造業",
      "address": "川辺郡猪名川町笹尾字黒添エ２１",
      "lat": 34.951419528,
      "lng": 135.327438976,
      "geocoding_level": 8,
      "phone": "0727682666",
      "license_no": "神北(伊健)第15-1",
      "license_date": null,
      "expire_date": null
    },
    {
      "name": "ＪＡ兵庫六甲いなの郷グループ",
      "name_kana": "",
      "business_type": "そうざい製造業",
      "address": "川辺郡猪名川町笹尾字黒添エ２１",
      "lat": 34.951419528,
      "lng": 135.327438976,
      "geocoding_level": 8,
      "phone": "0727682666",
      "license_no": "神北(伊健)第20-2",
      "license_date": null,
      "expire_date": null
    },
    {
      "name": "ＪＡ兵庫六甲いなの郷グループ",
      "name_kana": "",
      "business_type": "菓子製造業",
      "address": "川辺郡猪名川町笹尾字黒添エ２１",
      "lat": 34.951419528,
      "lng": 135.327438976,
      "geocoding_level": 8,
      "phone": "0727682666",
      "license_no": "神北(伊健)第3-5",
      "license_date": null,
      "expire_date": null
    },
    {
      "name": "空からこんぺいとう",
      "name_kana": "",
      "business_type": "飲食店営業(1)一般食堂・レストラン等",
      "address": "川辺郡猪名川町木津字戸塚尻７－１",
      "lat": 34.936665756,
      "lng": 135.339741811,
      "geocoding_level": 8,
      "phone": "",
      "license_no": "神北(伊健)第27-143",
      "license_date": null,
      "expire_date": null
    },
    {
      "name": "空からこんぺいとう",
      "name_kana": "",
      "business_type": "菓子製造業",
      "address": "川辺郡猪名川町木津字戸塚尻７－１",
      "lat": 34.936665756,
      "lng": 135.339741811,
      "geocoding_level": 8,
      "phone": "",
      "license_no": "神北(伊健)第3-44",
      "license_date": null,
      "expire_date": null
    },
    {
      "name": "居酒屋ひかり",
      "name_kana": "",
      "business_type": "飲食店営業(4)その他",
      "address": "川辺郡猪名川町笹尾字箱石２９－９",
      "lat": 34.955205883,
      "lng": 135.325700968,
      "geocoding_level": 8,
      "phone": "",
      "license_no": "神北(伊健)第27-290",
      "license_date": null,
      "expire_date": null
    },
    {
      "name": "中元かしわ店",
      "name_kana": "",
      "business_type": "食肉販売業",
      "address": "川辺郡猪名川町万善字対津２８０－２",
      "lat": 34.926133372,
      "lng": 135.347356748,
      "geocoding_level": 8,
      "phone": "",
      "license_no": "神北(伊健)第3-3",
      "license_date": null,
      "expire_date": null
    },
    {
      "name": "お菓子の小屋　Ｐｅｔｉｔｅ",
      "name_kana": "",
      "business_type": "菓子製造業",
      "address": "川辺郡猪名川町白金２丁目７６－１０",
      "lat": 34.898607,
      "lng": 135.356898,
      "geocoding_level": 3,
      "phone": "",
      "license_no": "神北(伊健)第6-28",
      "license_date": null,
      "expire_date": null
    },
    {
      "name": "いなかふぇ",
      "name_kana": "",
      "business_type": "飲食店営業(4)その他",
      "address": "川辺郡猪名川町西畑字畑ヶ田７",
      "lat": 34.988770262,
      "lng": 135.326054927,
      "geocoding_level": 8,
      "phone": "",
      "license_no": "神北(伊健)第1-124",
      "license_date": null,
      "expire_date": null
    },
    {
      "name": "いなかふぇ",
      "name_kana": "",
      "business_type": "菓子製造業",
      "address": "川辺郡猪名川町西畑字畑ヶ田７",
      "lat": 34.988770262,
      "lng": 135.326054927,
      "geocoding_level": 8,
      "phone": "",
      "license_no": "神北(伊健)第6-31",
      "license_date": null,
      "expire_date": null
    },
    {
      "name": "焼肉いな川亭",
      "name_kana": "",
      "business_type": "飲食店営業(1)一般食堂・レストラン等",
      "address": "川辺郡猪名川町柏梨田イハノ谷２６０",
      "lat": 34.900778929,
      "lng": 135.374768903,
      "geocoding_level": 8,
      "phone": "",
      "license_no": "神北(伊健)第1-251",
      "license_date": null,
      "expire_date": null
    },
    {
      "name": "茶寮　百灯瀬",
      "name_kana": "",
      "business_type": "菓子製造業",
      "address": "川辺郡猪名川町伏見台１丁目１－９２",
      "lat": 34.908975,
      "lng": 135.390371,
      "geocoding_level": 3,
      "phone": "",
      "license_no": "神北(伊健)第6-50",
      "license_date": null,
      "expire_date": null
    },
    {
      "name": "Ｃａｆｅ　ｍａｎｎａ（カフェ　マンナ）",
      "name_kana": "",
      "business_type": "菓子製造業",
      "address": "川辺郡猪名川町万善字佐保姫８６－１",
      "lat": 34.919022047,
      "lng": 135.35315565,
      "geocoding_level": 8,
      "phone": "",
      "license_no": "神北(伊健)第6-42",
      "license_date": null,
      "expire_date": null
    },
    {
      "name": "肉の根木",
      "name_kana": "",
      "business_type": "食肉処理業",
      "address": "川辺郡猪名川町万善字祈祷面９７－１",
      "lat": 34.920493,
      "lng": 135.348264,
      "geocoding_level": 3,
      "phone": "",
      "license_no": "神北(伊健)第5-1",
      "license_date": null,
      "expire_date": null
    },
    {
      "name": "ソーシャルファームかがやき",
      "name_kana": "",
      "business_type": "菓子製造業",
      "address": "川辺郡猪名川町若葉２丁目４１",
      "lat": 34.894999,
      "lng": 135.371935,
      "geocoding_level": 3,
      "phone": "",
      "license_no": "神北(伊健)第6-57",
      "license_date": null,
      "expire_date": null
    },
    {
      "name": "旬惣菜の前中",
      "name_kana": "",
      "business_type": "そうざい製造業",
      "address": "川辺郡猪名川町杤原字柏ノ木８",
      "lat": 34.949356015,
      "lng": 135.340283407,
      "geocoding_level": 8,
      "phone": "",
      "license_no": "神北(伊健)第20-2",
      "license_date": null,
      "expire_date": null
    },
    {
      "name": "ＴＳＫサービス株式会社  奥猪名健康の郷事業所",
      "name_kana": "",
      "business_type": "飲食店営業(1)一般食堂・レストラン等",
      "address": "川辺郡猪名川町杉生字奥山１－２２兵庫県立奥猪名健康の郷",
      "lat": 34.894966,
      "lng": 135.376164,
      "geocoding_level": 2,
      "phone": "",
      "license_no": "神北(伊健)第1-99",
      "license_date": null,
      "expire_date": null
    },
    {
      "name": "ｃａｆｅ　ＳＡＲＡ　ｔｏ　ＴＥＮ  （カフェ　サラとテン）",
      "name_kana": "",
      "business_type": "飲食店営業(1)一般食堂・レストラン等",
      "address": "川辺郡猪名川町笹尾大薮３",
      "lat": 34.959933413,
      "lng": 135.323065875,
      "geocoding_level": 8,
      "phone": "",
      "license_no": "神北(伊健)第1-213",
      "license_date": null,
      "expire_date": null
    },
    {
      "name": "天神釣池",
      "name_kana": "",
      "business_type": "飲食店営業(1)一般食堂・レストラン等",
      "address": "川辺郡猪名川町差組字天神１０",
      "lat": 34.894966,
      "lng": 135.376164,
      "geocoding_level": 2,
      "phone": "",
      "license_no": "神北(伊健)第1-175",
      "license_date": null,
      "expire_date": null
    },
    {
      "name": "ソーシャルファームかがやき",
      "name_kana": "",
      "business_type": "飲食店営業(1)一般食堂・レストラン等",
      "address": "川辺郡猪名川町若葉２丁目４１",
      "lat": 34.894999,
      "lng": 135.371935,
      "geocoding_level": 3,
      "phone": "",
      "license_no": "神北(伊健)第1-353",
      "license_date": null,
      "expire_date": null
    },
    {
      "name": "グッド・サマリタン・ホーム",
      "name_kana": "",
      "business_type": "飲食店営業(1)一般食堂・レストラン等",
      "address": "川辺郡猪名川町若葉２丁目４１",
      "lat": 34.894999,
      "lng": 135.371935,
      "geocoding_level": 3,
      "phone": "",
      "license_no": "神北(伊健)第1-352",
      "license_date": null,
      "expire_date": null
    },
    {
      "name": "介護福祉施設　天河草子",
      "name_kana": "",
      "business_type": "飲食店営業(1)一般食堂・レストラン等",
      "address": "川辺郡猪名川町伏見台１丁目１－７０",
      "lat": 34.908975,
      "lng": 135.390371,
      "geocoding_level": 3,
      "phone": "",
      "license_no": "神北(伊健)第1-390",
      "license_date": null,
      "expire_date": null
    },
    {
      "name": "カフェ山の駅",
      "name_kana": "",
      "business_type": "飲食店営業(1)一般食堂・レストラン等",
      "address": "川辺郡猪名川町肝川字西の前１２５",
      "lat": 34.883651792,
      "lng": 135.369283026,
      "geocoding_level": 8,
      "phone": "",
      "license_no": "神北(伊健)第1-354",
      "license_date": null,
      "expire_date": null
    },
    {
      "name": "レインボーハイツ",
      "name_kana": "",
      "business_type": "飲食店営業(1)一般食堂・レストラン等",
      "address": "川辺郡猪名川町伏見台１丁目１－２４",
      "lat": 34.908975,
      "lng": 135.390371,
      "geocoding_level": 3,
      "phone": "0727661188",
      "license_no": "神北(伊健)第1-463",
      "license_date": null,
      "expire_date": null
    },
    {
      "name": "おいしい食卓　柚葉",
      "name_kana": "",
      "business_type": "飲食店営業(1)一般食堂・レストラン等",
      "address": "川辺郡猪名川町つつじが丘５丁目１４－４",
      "lat": 34.884637000000005,
      "lng": 135.360561,
      "geocoding_level": 3,
      "phone": "",
      "license_no": "神北(伊健)第1-490",
      "license_date": null,
      "expire_date": null
    },
    {
      "name": "株式会社リュバン・アン・プリュス（製造）",
      "name_kana": "",
      "business_type": "菓子製造業",
      "address": "川辺郡猪名川町笹尾字加門田５－１－２",
      "lat": 34.894966,
      "lng": 135.376164,
      "geocoding_level": 2,
      "phone": "",
      "license_no": "神北(伊健)第6-58",
      "license_date": null,
      "expire_date": null
    },
    {
      "name": "セブン－イレブン猪名川伏見台１丁目店",
      "name_kana": "",
      "business_type": "飲食店営業(4)その他",
      "address": "川辺郡猪名川町伏見台１丁目１－７４",
      "lat": 34.908975,
      "lng": 135.390371,
      "geocoding_level": 3,
      "phone": "",
      "license_no": "神北(伊健)第1-561",
      "license_date": null,
      "expire_date": null
    },
    {
      "name": "ゆうあいセンター",
      "name_kana": "",
      "business_type": "飲食店営業(1)一般食堂・レストラン等",
      "address": "川辺郡猪名川町北田原字南山１４－２",
      "lat": 34.91108446100001,
      "lng": 135.370614736,
      "geocoding_level": 8,
      "phone": "0727661200",
      "license_no": "神北(伊健)第1-114",
      "license_date": null,
      "expire_date": null
    },
    {
      "name": "メモリアルホール日生中央飛翔殿",
      "name_kana": "",
      "business_type": "飲食店営業(1)一般食堂・レストラン等",
      "address": "川辺郡猪名川町伏見台１丁目１－３２",
      "lat": 34.908975,
      "lng": 135.390371,
      "geocoding_level": 3,
      "phone": "0727660142",
      "license_no": "神北(伊健)第1-73",
      "license_date": null,
      "expire_date": null
    },
    {
      "name": "イオン猪名川店水産売場",
      "name_kana": "",
      "business_type": "飲食店営業(4)その他",
      "address": "川辺郡猪名川町白金２丁目１",
      "lat": 34.898607,
      "lng": 135.356898,
      "geocoding_level": 3,
      "phone": "0727651111",
      "license_no": "神北(伊健)第1-71",
      "license_date": null,
      "expire_date": null
    },
    {
      "name": "そば太鼓亭　日生中央店",
      "name_kana": "",
      "business_type": "飲食店営業(1)一般食堂・レストラン等",
      "address": "川辺郡猪名川町松尾台１丁目２－２",
      "lat": 34.906286,
      "lng": 135.392613,
      "geocoding_level": 3,
      "phone": "0727663855",
      "license_no": "神北(伊健)第1-324",
      "license_date": null,
      "expire_date": null
    },
    {
      "name": "こひつじアトリエ",
      "name_kana": "",
      "business_type": "菓子製造業",
      "address": "川辺郡猪名川町若葉２丁目４５－５",
      "lat": 34.894999,
      "lng": 135.371935,
      "geocoding_level": 3,
      "phone": "09051377220",
      "license_no": "神北(伊健)第6-16",
      "license_date": null,
      "expire_date": null
    },
    {
      "name": "パン工房ゆっくり",
      "name_kana": "",
      "business_type": "飲食店営業(4)その他",
      "address": "川辺郡猪名川町木津字中島１０",
      "lat": 34.931197638,
      "lng": 135.343999296,
      "geocoding_level": 8,
      "phone": "0727681525",
      "license_no": "神北(伊健)第1-262",
      "license_date": null,
      "expire_date": null
    },
    {
      "name": "パン工房ゆっくり",
      "name_kana": "",
      "business_type": "菓子製造業",
      "address": "川辺郡猪名川町木津字中島１０",
      "lat": 34.931197638,
      "lng": 135.343999296,
      "geocoding_level": 8,
      "phone": "0727681525",
      "license_no": "神北(伊健)第6-13",
      "license_date": null,
      "expire_date": null
    },
    {
      "name": "酒呑よこちゃん",
      "name_kana": "",
      "business_type": "飲食店営業(1)一般食堂・レストラン等",
      "address": "川辺郡猪名川町松尾台４丁目２－６",
      "lat": 34.900956768,
      "lng": 135.387660182,
      "geocoding_level": 8,
      "phone": "",
      "license_no": "神北(伊健)第1-206",
      "license_date": null,
      "expire_date": null
    },
    {
      "name": "猪名川国際カントリークラブ  ハウスレストラン",
      "name_kana": "",
      "business_type": "飲食店営業(1)一般食堂・レストラン等",
      "address": "川辺郡猪名川町北田原字釜ヶ谷１",
      "lat": 34.917851,
      "lng": 135.366003,
      "geocoding_level": 3,
      "phone": "0727672670",
      "license_no": "神北(伊健)第1-471",
      "license_date": null,
      "expire_date": null
    },
    {
      "name": "猪名川グリーンカントリークラブ  クラブハウスレストラン",
      "name_kana": "",
      "business_type": "飲食店営業(1)一般食堂・レストラン等",
      "address": "川辺郡猪名川町下阿古谷字賀屋４",
      "lat": 34.894966,
      "lng": 135.376164,
      "geocoding_level": 2,
      "phone": "0727673232",
      "license_no": "神北(伊健)第1-472",
      "license_date": null,
      "expire_date": null
    },
    {
      "name": "観光農園　ＢＥＲＲＹ　ＨＯＵＳＥ",
      "name_kana": "",
      "business_type": "飲食店営業(1)一般食堂・レストラン等",
      "address": "川辺郡猪名川町北田原字東山田２８",
      "lat": 34.913545022,
      "lng": 135.368356209,
      "geocoding_level": 8,
      "phone": "",
      "license_no": "神北(伊健)第1-400",
      "license_date": null,
      "expire_date": null
    },
    {
      "name": "上野ベーカリー柿の木",
      "name_kana": "",
      "business_type": "菓子製造業",
      "address": "川辺郡猪名川町上野字釜床２８－３",
      "lat": 34.894373074,
      "lng": 135.378607708,
      "geocoding_level": 8,
      "phone": "0727665539",
      "license_no": "神北(伊健)第6-36",
      "license_date": null,
      "expire_date": null
    },
    {
      "name": "上野ベーカリー柿の木",
      "name_kana": "",
      "business_type": "飲食店営業(4)その他",
      "address": "川辺郡猪名川町上野字釜床２８－３",
      "lat": 34.894373074,
      "lng": 135.378607708,
      "geocoding_level": 8,
      "phone": "0727665539",
      "license_no": "神北(伊健)第1-493",
      "license_date": null,
      "expire_date": null
    },
    {
      "name": "きたうえ農園",
      "name_kana": "",
      "business_type": "みそ又はしょうゆ製造業",
      "address": "川辺郡猪名川町北田原字長竿４６",
      "lat": 34.894966,
      "lng": 135.376164,
      "geocoding_level": 2,
      "phone": "09097141182",
      "license_no": "神北(伊健)第15-1",
      "license_date": null,
      "expire_date": null
    },
    {
      "name": "ＨＯＴＥＬ　ＧＥＮ　猪名川店",
      "name_kana": "",
      "business_type": "飲食店営業(3)旅館",
      "address": "川辺郡猪名川町民田字コケナシ土手内３６５－１",
      "lat": 34.942228556,
      "lng": 135.409486578,
      "geocoding_level": 8,
      "phone": "0727650050",
      "license_no": "神北(伊健)第1-576",
      "license_date": null,
      "expire_date": null
    },
    {
      "name": "阿古谷みらい",
      "name_kana": "",
      "business_type": "菓子製造業",
      "address": "川辺郡猪名川町上阿古谷字畑ヶ芝５６－３",
      "lat": 34.894966,
      "lng": 135.376164,
      "geocoding_level": 2,
      "phone": "0727672266",
      "license_no": "神北(伊健)第6-5",
      "license_date": null,
      "expire_date": null
    },
    {
      "name": "玻璃厨房",
      "name_kana": "",
      "business_type": "飲食店営業(2)仕出し屋・弁当屋",
      "address": "川辺郡猪名川町伏見台１丁目１－４０",
      "lat": 34.908975,
      "lng": 135.390371,
      "geocoding_level": 3,
      "phone": "0727440828",
      "license_no": "神北(伊健)第1-55",
      "license_date": null,
      "expire_date": null
    },
    {
      "name": "中元かしわ店",
      "name_kana": "",
      "business_type": "飲食店営業(4)その他",
      "address": "川辺郡猪名川町万善字対津２８０－２",
      "lat": 34.926133372,
      "lng": 135.347356748,
      "geocoding_level": 8,
      "phone": "0727680046",
      "license_no": "神北(伊健)第1-133",
      "license_date": null,
      "expire_date": null
    },
    {
      "name": "阪急オアシス日生中央店",
      "name_kana": "",
      "business_type": "飲食店営業(4)その他",
      "address": "川辺郡猪名川町松尾台１丁目２－１",
      "lat": 34.906286,
      "lng": 135.392613,
      "geocoding_level": 3,
      "phone": "0727661931",
      "license_no": "神北(伊健)第1-395",
      "license_date": null,
      "expire_date": null
    },
    {
      "name": "スーパーマルハチ　日生中央店",
      "name_kana": "",
      "business_type": "食肉販売業",
      "address": "川辺郡猪名川町伏見台１丁目１－５６",
      "lat": 34.908975,
      "lng": 135.390371,
      "geocoding_level": 3,
      "phone": "0727650881",
      "license_no": "神北(伊健)第3-9",
      "license_date": null,
      "expire_date": null
    },
    {
      "name": "スーパーマルハチ　日生中央店",
      "name_kana": "",
      "business_type": "魚介類販売業",
      "address": "川辺郡猪名川町伏見台１丁目１－５６",
      "lat": 34.908975,
      "lng": 135.390371,
      "geocoding_level": 3,
      "phone": "0727650881",
      "license_no": "神北(伊健)第4-7",
      "license_date": null,
      "expire_date": null
    },
    {
      "name": "スーパーマルハチ　日生中央店",
      "name_kana": "",
      "business_type": "飲食店営業(4)その他",
      "address": "川辺郡猪名川町伏見台１丁目１－５６",
      "lat": 34.908975,
      "lng": 135.390371,
      "geocoding_level": 3,
      "phone": "0727650881",
      "license_no": "神北(伊健)第1-339",
      "license_date": null,
      "expire_date": null
    },
    {
      "name": "パンベル",
      "name_kana": "",
      "business_type": "菓子製造業",
      "address": "川辺郡猪名川町若葉２丁目８－７",
      "lat": 34.894999,
      "lng": 135.371935,
      "geocoding_level": 3,
      "phone": "0727143338",
      "license_no": "神北(伊健)第6-28",
      "license_date": null,
      "expire_date": null
    },
    {
      "name": "セブン-イレブン猪名川つつじが丘店",
      "name_kana": "",
      "business_type": "飲食店営業(4)その他",
      "address": "川辺郡猪名川町つつじが丘１丁目４３番地３",
      "lat": 34.88662,
      "lng": 135.371458,
      "geocoding_level": 3,
      "phone": "0727653271",
      "license_no": "神北(伊健)第1-188",
      "license_date": null,
      "expire_date": null
    },
    {
      "name": "エストローヤル猪名川工場",
      "name_kana": "",
      "business_type": "菓子製造業",
      "address": "川辺郡猪名川町笹尾字加門田５－１－２",
      "lat": 34.894966,
      "lng": 135.376164,
      "geocoding_level": 2,
      "phone": "0727681114",
      "license_no": "神北(伊健)第3-25",
      "license_date": null,
      "expire_date": null
    },
    {
      "name": "エストローヤル猪名川工場",
      "name_kana": "",
      "business_type": "アイスクリーム類製造業",
      "address": "川辺郡猪名川町笹尾字加門田５－１－２",
      "lat": 34.894966,
      "lng": 135.376164,
      "geocoding_level": 2,
      "phone": "0727681114",
      "license_no": "神北(伊健)第10-2",
      "license_date": null,
      "expire_date": null
    },
    {
      "name": "ファミリーマート　猪名川パークタウン店",
      "name_kana": "",
      "business_type": "飲食店営業(4)その他",
      "address": "川辺郡猪名川町紫合字八幡傍３５２－１,３５３－１",
      "lat": 34.905080476,
      "lng": 135.375207571,
      "geocoding_level": 8,
      "phone": "0727672280",
      "license_no": "神北(伊健)第1-475",
      "license_date": null,
      "expire_date": null
    },
    {
      "name": "ｙａｋｉｔａｔｅｉ　イオンモール猪名川店",
      "name_kana": "",
      "business_type": "飲食店営業(1)一般食堂・レストラン等",
      "address": "川辺郡猪名川町白金２丁目１番",
      "lat": 34.898607,
      "lng": 135.356898,
      "geocoding_level": 3,
      "phone": "0727667750",
      "license_no": "神北(伊健)第1-493",
      "license_date": null,
      "expire_date": null
    },
    {
      "name": "アリスゴルフ倶楽部　猪名川　Ｇカフェ",
      "name_kana": "",
      "business_type": "調理の機能を有する自動販売機により食品を調理し、調理された食品を販売する営業",
      "address": "川辺郡猪名川町内馬場字蕗ケ谷１－１",
      "lat": 34.894966,
      "lng": 135.376164,
      "geocoding_level": 2,
      "phone": "",
      "license_no": "神北(伊健)第2-6",
      "license_date": null,
      "expire_date": null
    },
    {
      "name": "医療法人社団星晶会  ふるさと透析診療所",
      "name_kana": "",
      "business_type": "飲食店営業(1)一般食堂・レストラン等",
      "address": "川辺郡猪名川町広根字北后久２",
      "lat": 34.894966,
      "lng": 135.376164,
      "geocoding_level": 2,
      "phone": "0727653324",
      "license_no": "神北(伊健)第1-368",
      "license_date": null,
      "expire_date": null
    },
    {
      "name": "観光農園　ＢＥＲＲＹ　ＨＯＵＳＥ",
      "name_kana": "",
      "business_type": "菓子製造業",
      "address": "川辺郡猪名川町北田原字東山田２８番地",
      "lat": 34.913545022,
      "lng": 135.368356209,
      "geocoding_level": 8,
      "phone": "0727036455",
      "license_no": "神北(伊健)第6-52",
      "license_date": null,
      "expire_date": null
    },
    {
      "name": "阪急オアシス日生中央店  （水産寿司）",
      "name_kana": "",
      "business_type": "飲食店営業(4)その他",
      "address": "川辺郡猪名川町松尾台１丁目２－１",
      "lat": 34.906286,
      "lng": 135.392613,
      "geocoding_level": 3,
      "phone": "0727661931",
      "license_no": "神北(伊健)第1-670",
      "license_date": null,
      "expire_date": null
    },
    {
      "name": "阪急オアシス日生中央店  （水産寿司　キッチンスタジオ）",
      "name_kana": "",
      "business_type": "飲食店営業(4)その他",
      "address": "川辺郡猪名川町松尾台１丁目２－１",
      "lat": 34.906286,
      "lng": 135.392613,
      "geocoding_level": 3,
      "phone": "0727661931",
      "license_no": "神北(伊健)第1-671",
      "license_date": null,
      "expire_date": null
    },
    {
      "name": "師亭",
      "name_kana": "",
      "business_type": "飲食店営業(1)一般食堂・レストラン等",
      "address": "川辺郡猪名川町松尾台１丁目２－２０日生中央センタービル１Ｆ",
      "lat": 34.906286,
      "lng": 135.392613,
      "geocoding_level": 3,
      "phone": "0727677351",
      "license_no": "神北(伊健)第1-658",
      "license_date": null,
      "expire_date": null
    },
    {
      "name": "インド料理ビスヌ　猪名川店",
      "name_kana": "",
      "business_type": "飲食店営業(1)一般食堂・レストラン等",
      "address": "川辺郡猪名川町白金２丁目１",
      "lat": 34.898607,
      "lng": 135.356898,
      "geocoding_level": 3,
      "phone": "0727665115",
      "license_no": "神北(伊健)第1-587",
      "license_date": null,
      "expire_date": null
    },
    {
      "name": "ちまこま喫茶",
      "name_kana": "",
      "business_type": "飲食店営業(1)一般食堂・レストラン等",
      "address": "川辺郡猪名川町柏梨田字小堂ノ上２１１",
      "lat": 34.897856351,
      "lng": 135.374962279,
      "geocoding_level": 8,
      "phone": "09053685550",
      "license_no": "神北(伊健)第1-57",
      "license_date": null,
      "expire_date": null
    },
    {
      "name": "プリンセスキッチン",
      "name_kana": "",
      "business_type": "飲食店営業(1)一般食堂・レストラン等",
      "address": "川辺郡猪名川町木津字東山１４－４１",
      "lat": 34.936038476,
      "lng": 135.345021253,
      "geocoding_level": 8,
      "phone": "09034931346",
      "license_no": "神北(伊健)第1-52",
      "license_date": null,
      "expire_date": null
    },
    {
      "name": "プリンセスキッチン",
      "name_kana": "",
      "business_type": "菓子製造業",
      "address": "川辺郡猪名川町木津字東山１４－４１",
      "lat": 34.936038476,
      "lng": 135.345021253,
      "geocoding_level": 8,
      "phone": "09034931346",
      "license_no": "神北(伊健)第3-5",
      "license_date": null,
      "expire_date": null
    },
    {
      "name": "関西電力　猪名川寮",
      "name_kana": "",
      "business_type": "飲食店営業(1)一般食堂・レストラン等",
      "address": "川辺郡猪名川町鎌倉字有ヶ畑４番",
      "lat": 34.894966,
      "lng": 135.376164,
      "geocoding_level": 2,
      "phone": "0727690522",
      "license_no": "神北(伊健)第1-233",
      "license_date": null,
      "expire_date": null
    },
    {
      "name": "阪急オアシス　日生中央店　水産催事",
      "name_kana": "",
      "business_type": "魚介類販売業",
      "address": "川辺郡猪名川町松尾台１丁目２－１",
      "lat": 34.906286,
      "lng": 135.392613,
      "geocoding_level": 3,
      "phone": "0727661931",
      "license_no": "神北(伊健)第5-1",
      "license_date": null,
      "expire_date": null
    },
    {
      "name": "ふぁみぐりあ",
      "name_kana": "",
      "business_type": "飲食店営業(1)一般食堂・レストラン等",
      "address": "川辺郡猪名川町松尾台１丁目２－１",
      "lat": 34.906286,
      "lng": 135.392613,
      "geocoding_level": 3,
      "phone": "0727666350",
      "license_no": "神北(伊健)第1-389",
      "license_date": null,
      "expire_date": null
    },
    {
      "name": "つつじが丘小学校区まちづくり協議会  コミュニティ喫茶まちきょう",
      "name_kana": "",
      "business_type": "飲食店営業(1)一般食堂・レストラン等",
      "address": "川辺郡猪名川町つつじが丘３丁目１３－１",
      "lat": 34.882769,
      "lng": 135.36616600000002,
      "geocoding_level": 3,
      "phone": "05071153049",
      "license_no": "神北(伊健)第1-365",
      "license_date": null,
      "expire_date": null
    },
    {
      "name": "Cafe stage絆",
      "name_kana": "",
      "business_type": "飲食店営業(4)その他",
      "address": "川辺郡猪名川町西畑字深田１－１",
      "lat": 34.987464273,
      "lng": 135.323892253,
      "geocoding_level": 8,
      "phone": "0727691100",
      "license_no": "神北(伊健)第1-53",
      "license_date": null,
      "expire_date": null
    },
    {
      "name": "マクドナルドイオンモール猪名川店",
      "name_kana": "",
      "business_type": "飲食店営業(1)一般食堂・レストラン等",
      "address": "川辺郡猪名川町白金２丁目１",
      "lat": 34.898607,
      "lng": 135.356898,
      "geocoding_level": 3,
      "phone": "0727672201",
      "license_no": "神北(伊健)第1-58",
      "license_date": null,
      "expire_date": null
    },
    {
      "name": "観光農園　ＢＥＲＲＹ　ＨＯＵＳＥ",
      "name_kana": "",
      "business_type": "食品の冷凍又は冷蔵業",
      "address": "川辺郡猪名川町北田原字東山田２８番地",
      "lat": 34.913545022,
      "lng": 135.368356209,
      "geocoding_level": 8,
      "phone": "",
      "license_no": "神北(伊健)第15-4",
      "license_date": null,
      "expire_date": null
    },
    {
      "name": "ぴっころ",
      "name_kana": "",
      "business_type": "飲食店営業(2)仕出し屋・弁当屋",
      "address": "川辺郡猪名川町松尾台３丁目３－２２",
      "lat": 34.902977,
      "lng": 135.391873,
      "geocoding_level": 3,
      "phone": "",
      "license_no": "神北(伊健)第1-71",
      "license_date": null,
      "expire_date": null
    },
    {
      "name": "カラオケ喫茶　友",
      "name_kana": "",
      "business_type": "飲食店営業(4)その他",
      "address": "川辺郡猪名川町笹尾字尼岡の下１０－６１０３号",
      "lat": 34.953227,
      "lng": 135.323899,
      "geocoding_level": 3,
      "phone": "",
      "license_no": "神北(伊健)第1-103",
      "license_date": null,
      "expire_date": null
    },
    {
      "name": "pancoto",
      "name_kana": "",
      "business_type": "飲食店営業(1)一般食堂・レストラン等",
      "address": "川辺郡猪名川町伏見台２丁目２－３",
      "lat": 34.913127,
      "lng": 135.399566,
      "geocoding_level": 3,
      "phone": "",
      "license_no": "神北(伊健)第1-105",
      "license_date": null,
      "expire_date": null
    },
    {
      "name": "pancoto",
      "name_kana": "",
      "business_type": "菓子製造業",
      "address": "川辺郡猪名川町伏見台２丁目２－３",
      "lat": 34.913127,
      "lng": 135.399566,
      "geocoding_level": 3,
      "phone": "",
      "license_no": "神北(伊健)第3-50",
      "license_date": null,
      "expire_date": null
    },
    {
      "name": "石釜ごはんとスンドゥブOKKII  兵庫つつじが丘店",
      "name_kana": "",
      "business_type": "飲食店営業(1)一般食堂・レストラン等",
      "address": "川辺郡猪名川町つつじが丘１丁目４８－４",
      "lat": 34.88662,
      "lng": 135.371458,
      "geocoding_level": 3,
      "phone": "",
      "license_no": "神北(伊健)第1-127",
      "license_date": null,
      "expire_date": null
    },
    {
      "name": "おひつとお膳　錦屋",
      "name_kana": "",
      "business_type": "飲食店営業(1)一般食堂・レストラン等",
      "address": "川辺郡猪名川町白金２丁目１（イオン猪名川店　３階）",
      "lat": 34.898607,
      "lng": 135.356898,
      "geocoding_level": 3,
      "phone": "0727651111",
      "license_no": "神北(伊健)第1-164",
      "license_date": null,
      "expire_date": null
    },
    {
      "name": "イオンリテール株式会社イオン猪名川店",
      "name_kana": "",
      "business_type": "飲食店営業(4)その他",
      "address": "川辺郡猪名川町白金２丁目１",
      "lat": 34.898607,
      "lng": 135.356898,
      "geocoding_level": 3,
      "phone": "0727651111",
      "license_no": "神北(伊健)第1-172",
      "license_date": null,
      "expire_date": null
    },
    {
      "name": "茶寮　百灯瀬",
      "name_kana": "",
      "business_type": "食品の冷凍又は冷蔵業",
      "address": "川辺郡猪名川町伏見台１丁目１－９２",
      "lat": 34.908975,
      "lng": 135.390371,
      "geocoding_level": 3,
      "phone": "",
      "license_no": "神北(伊健)第15-9",
      "license_date": null,
      "expire_date": null
    },
    {
      "name": "せいふう若葉",
      "name_kana": "",
      "business_type": "飲食店営業(1)一般食堂・レストラン等",
      "address": "川辺郡猪名川町柏梨田字イハノ谷２５０番地",
      "lat": 34.894966,
      "lng": 135.376164,
      "geocoding_level": 2,
      "phone": "0727443858",
      "license_no": "神北(伊健)第1-242",
      "license_date": null,
      "expire_date": null
    },
    {
      "name": "ＦＵＪＩＹＡ　ＣＯＮＦＥＣＴＩＯＮＥＲＹ  日生中央サピエ店",
      "name_kana": "",
      "business_type": "飲食店営業(4)その他",
      "address": "川辺郡猪名川町松尾台１丁目２－１日生中央サピエ内",
      "lat": 34.906286,
      "lng": 135.392613,
      "geocoding_level": 3,
      "phone": "0727663118",
      "license_no": "神北(伊健)第1-57",
      "license_date": null,
      "expire_date": null
    },
    {
      "name": "大衆的麺飯食堂喜喜",
      "name_kana": "",
      "business_type": "飲食店営業(1)一般食堂・レストラン等",
      "address": "川辺郡猪名川町白金２丁目１イオンモール猪名川３階",
      "lat": 34.898607,
      "lng": 135.356898,
      "geocoding_level": 3,
      "phone": "",
      "license_no": "神北(伊健)第1-41",
      "license_date": null,
      "expire_date": null
    },
    {
      "name": "Ｙｏｕ　Ｔｕｂａｒ",
      "name_kana": "",
      "business_type": "飲食店営業(4)その他",
      "address": "川辺郡猪名川町つつじが丘５丁目２３－２",
      "lat": 34.884637000000005,
      "lng": 135.360561,
      "geocoding_level": 3,
      "phone": "",
      "license_no": "神北(伊健)第1-49",
      "license_date": null,
      "expire_date": null
    },
    {
      "name": "ローソン猪名川町笹尾店",
      "name_kana": "",
      "business_type": "飲食店営業(4)その他",
      "address": "川辺郡猪名川町笹尾字尼岡下２－１",
      "lat": 34.948252355,
      "lng": 135.329660724,
      "geocoding_level": 8,
      "phone": "",
      "license_no": "神北(伊健)第1-54",
      "license_date": null,
      "expire_date": null
    },
    {
      "name": "ＳＵＭＩ　ＴＥＲＲＡＣＥ  炭テラス　バーベキュー　猪名川店",
      "name_kana": "",
      "business_type": "飲食店営業(1)一般食堂・レストラン等",
      "address": "川辺郡猪名川町紫合氏上１６３－１",
      "lat": 34.909236774,
      "lng": 135.380524166,
      "geocoding_level": 8,
      "phone": "",
      "license_no": "神北(伊健)第1-64",
      "license_date": null,
      "expire_date": null
    },
    {
      "name": "ＳＵＭＩ　ＴＥＲＲＡＣＥ  炭テラス　マート　猪名川店",
      "name_kana": "",
      "business_type": "食肉販売業",
      "address": "川辺郡猪名川町紫合氏上１６４－１",
      "lat": 34.908964736,
      "lng": 135.380492606,
      "geocoding_level": 8,
      "phone": "",
      "license_no": "神北(伊健)第3-6",
      "license_date": null,
      "expire_date": null
    },
    {
      "name": "ＳＵＭＩ　ＴＥＲＲＡＣＥ  炭テラス　マート　猪名川店",
      "name_kana": "",
      "business_type": "そうざい製造業",
      "address": "川辺郡猪名川町紫合氏上１６４－１",
      "lat": 34.908964736,
      "lng": 135.380492606,
      "geocoding_level": 8,
      "phone": "",
      "license_no": "神北(伊健)第20-6",
      "license_date": null,
      "expire_date": null
    },
    {
      "name": "ローソン日生中央店",
      "name_kana": "",
      "business_type": "飲食店営業(4)その他",
      "address": "川辺郡猪名川町松尾台１丁目２－２",
      "lat": 34.906286,
      "lng": 135.392613,
      "geocoding_level": 3,
      "phone": "",
      "license_no": "神北(伊健)第1-72",
      "license_date": null,
      "expire_date": null
    },
    {
      "name": "日本一たい焼　兵庫猪名川渓谷ライン店",
      "name_kana": "",
      "business_type": "菓子製造業",
      "address": "川辺郡猪名川町万善佐保姫４５－４",
      "lat": 34.894966,
      "lng": 135.376164,
      "geocoding_level": 2,
      "phone": "",
      "license_no": "神北(伊健)第6-32",
      "license_date": null,
      "expire_date": null
    },
    {
      "name": "ｅｍｏＴＯＫＹＯ",
      "name_kana": "",
      "business_type": "飲食店営業(4)その他",
      "address": "川辺郡猪名川町広根字町屋東２１番地",
      "lat": 34.894966,
      "lng": 135.376164,
      "geocoding_level": 2,
      "phone": "",
      "license_no": "神北(伊健)第1-159",
      "license_date": null,
      "expire_date": null
    },
    {
      "name": "ローソン猪名川町広根店",
      "name_kana": "",
      "business_type": "飲食店営業(4)その他",
      "address": "川辺郡猪名川町広根字天尾２７",
      "lat": 34.894966,
      "lng": 135.376164,
      "geocoding_level": 2,
      "phone": "",
      "license_no": "神北(伊健)第1-174",
      "license_date": null,
      "expire_date": null
    },
    {
      "name": "ディスカバリー　リゾート　オオシマ",
      "name_kana": "",
      "business_type": "漬物製造業",
      "address": "川辺郡猪名川町島字西山９",
      "lat": 34.894966,
      "lng": 135.376164,
      "geocoding_level": 2,
      "phone": "",
      "license_no": "神北(伊健)第24-2",
      "license_date": null,
      "expire_date": null
    },
    {
      "name": "ディスカバリー　リゾート　オオシマ",
      "name_kana": "",
      "business_type": "飲食店営業(1)一般食堂・レストラン等",
      "address": "川辺郡猪名川町島字西山９",
      "lat": 34.894966,
      "lng": 135.376164,
      "geocoding_level": 2,
      "phone": "",
      "license_no": "神北(伊健)第1-186",
      "license_date": null,
      "expire_date": null
    },
    {
      "name": "つつじが丘小学校区まちづくり協議会  コミュニティ喫茶まちきょう",
      "name_kana": "",
      "business_type": "菓子製造業",
      "address": "川辺郡猪名川町つつじが丘３丁目１３－１",
      "lat": 34.882769,
      "lng": 135.36616600000002,
      "geocoding_level": 3,
      "phone": "",
      "license_no": "神北(伊健)第6-39",
      "license_date": null,
      "expire_date": null
    },
    {
      "name": "生活彩家プロロジス猪名川店",
      "name_kana": "",
      "business_type": "飲食店営業(4)その他",
      "address": "川辺郡猪名川町差組字小谷１０１－１他",
      "lat": 34.894966,
      "lng": 135.376164,
      "geocoding_level": 2,
      "phone": "",
      "license_no": "神北(伊健)第1-329",
      "license_date": null,
      "expire_date": null
    },
    {
      "name": "いちごＩＣＨＩＪＹＵ　フルーツファーム",
      "name_kana": "",
      "business_type": "飲食店営業(4)その他",
      "address": "川辺郡猪名川町上阿古谷字縄手６７４",
      "lat": 34.935806389,
      "lng": 135.384677738,
      "geocoding_level": 8,
      "phone": "",
      "license_no": "神北(伊健)第1-331",
      "license_date": null,
      "expire_date": null
    },
    {
      "name": "お茶の間　ぴっころ",
      "name_kana": "",
      "business_type": "飲食店営業(1)一般食堂・レストラン等",
      "address": "川辺郡猪名川町松尾台４丁目２－６",
      "lat": 34.900956768,
      "lng": 135.387660182,
      "geocoding_level": 8,
      "phone": "",
      "license_no": "神北(伊健)第1-371",
      "license_date": null,
      "expire_date": null
    },
    {
      "name": "堂阪農園",
      "name_kana": "",
      "business_type": "漬物製造業",
      "address": "川辺郡猪名川町原字湯屋向２５８－３",
      "lat": 34.908113,
      "lng": 135.38612,
      "geocoding_level": 3,
      "phone": "",
      "license_no": "神北(伊健)第24-4",
      "license_date": null,
      "expire_date": null
    },
    {
      "name": "アンニョン　イオンモール猪名川店",
      "name_kana": "",
      "business_type": "飲食店営業(1)一般食堂・レストラン等",
      "address": "川辺郡猪名川町白金２丁目１イオンモール猪名川３Ｆ",
      "lat": 34.898607,
      "lng": 135.356898,
      "geocoding_level": 3,
      "phone": "",
      "license_no": "神北(伊健)第1-450",
      "license_date": null,
      "expire_date": null
    },
    {
      "name": "ミユキ食堂",
      "name_kana": "",
      "business_type": "飲食店営業(1)一般食堂・レストラン等",
      "address": "川辺郡猪名川町柏梨田字塩井２２３－１２",
      "lat": 34.898836832,
      "lng": 135.375019865,
      "geocoding_level": 8,
      "phone": "",
      "license_no": "神北(伊健)第1-456",
      "license_date": null,
      "expire_date": null
    },
    {
      "name": "讃岐うどんむらさき  イオンモール猪名川店",
      "name_kana": "",
      "business_type": "飲食店営業(1)一般食堂・レストラン等",
      "address": "川辺郡猪名川町白金２丁目１３Ｆフードコート内",
      "lat": 34.898607,
      "lng": 135.356898,
      "geocoding_level": 3,
      "phone": "",
      "license_no": "神北(伊健)第1-457",
      "license_date": null,
      "expire_date": null
    },
    {
      "name": "自家焙煎珈琲『天使のはしご』",
      "name_kana": "",
      "business_type": "飲食店営業(4)その他",
      "address": "川辺郡猪名川町松尾台４丁目１－１８",
      "lat": 34.900061406,
      "lng": 135.388219729,
      "geocoding_level": 8,
      "phone": "",
      "license_no": "神北(伊健)第1-460",
      "license_date": null,
      "expire_date": null
    },
    {
      "name": "自家焙煎珈琲『天使のはしご』",
      "name_kana": "",
      "business_type": "菓子製造業",
      "address": "川辺郡猪名川町松尾台４丁目１－１８",
      "lat": 34.900061406,
      "lng": 135.388219729,
      "geocoding_level": 8,
      "phone": "",
      "license_no": "神北(伊健)第6-75",
      "license_date": null,
      "expire_date": null
    },
    {
      "name": "横浜家系ラーメン　藤大家  イオンモール猪名川店",
      "name_kana": "",
      "business_type": "飲食店営業(1)一般食堂・レストラン等",
      "address": "川辺郡猪名川町白金２丁目１イオンモール猪名川店",
      "lat": 34.898607,
      "lng": 135.356898,
      "geocoding_level": 3,
      "phone": "",
      "license_no": "神北(伊健)第1-13",
      "license_date": null,
      "expire_date": null
    },
    {
      "name": "韓国料理　ふるさと",
      "name_kana": "",
      "business_type": "飲食店営業(1)一般食堂・レストラン等",
      "address": "川辺郡猪名川町松尾台２丁目３－１６",
      "lat": 34.904407557,
      "lng": 135.386134571,
      "geocoding_level": 8,
      "phone": "",
      "license_no": "神北(伊健)第1-31",
      "license_date": null,
      "expire_date": null
    },
    {
      "name": "旬漬物の前中",
      "name_kana": "",
      "business_type": "漬物製造業",
      "address": "川辺郡猪名川町杤原字柏ノ木８",
      "lat": 34.949356015,
      "lng": 135.340283407,
      "geocoding_level": 8,
      "phone": "",
      "license_no": "神北(伊健)第24-1",
      "license_date": null,
      "expire_date": null
    },
    {
      "name": "パネッテリアトリトン",
      "name_kana": "",
      "business_type": "菓子製造業",
      "address": "川辺郡猪名川町差組字向イ２０１－２",
      "lat": 34.881715125,
      "lng": 135.37858032,
      "geocoding_level": 8,
      "phone": "",
      "license_no": "神北(伊健)第6-14",
      "license_date": null,
      "expire_date": null
    },
    {
      "name": "パティスリー　エクラ",
      "name_kana": "",
      "business_type": "菓子製造業",
      "address": "川辺郡猪名川町若葉２丁目２４－１９",
      "lat": 34.894999,
      "lng": 135.371935,
      "geocoding_level": 3,
      "phone": "",
      "license_no": "神北(伊健)第6-21",
      "license_date": null,
      "expire_date": null
    },
    {
      "name": "韓国料理　ふるさと",
      "name_kana": "",
      "business_type": "そうざい製造業",
      "address": "川辺郡猪名川町松尾台２丁目３－１６",
      "lat": 34.904407557,
      "lng": 135.386134571,
      "geocoding_level": 8,
      "phone": "",
      "license_no": "神北(伊健)第20-8",
      "license_date": null,
      "expire_date": null
    },
    {
      "name": "エムズベイク",
      "name_kana": "",
      "business_type": "菓子製造業",
      "address": "川辺郡猪名川町杉生字栖ノ子７",
      "lat": 34.894966,
      "lng": 135.376164,
      "geocoding_level": 2,
      "phone": "",
      "license_no": "神北(伊健)第6-25",
      "license_date": null,
      "expire_date": null
    },
    {
      "name": "きたうえ農園",
      "name_kana": "",
      "business_type": "菓子製造業",
      "address": "川辺郡猪名川町北田原字長竿４６",
      "lat": 34.894966,
      "lng": 135.376164,
      "geocoding_level": 2,
      "phone": "09097141182",
      "license_no": "神北(伊健)第6-26",
      "license_date": null,
      "expire_date": null
    },
    {
      "name": "Ｊｉｋｕ",
      "name_kana": "",
      "business_type": "飲食店営業(1)一般食堂・レストラン等",
      "address": "川辺郡猪名川町旭ケ丘１－２３８",
      "lat": 34.970259566,
      "lng": 135.334913067,
      "geocoding_level": 8,
      "phone": "",
      "license_no": "神北(伊健)第1-368",
      "license_date": null,
      "expire_date": null
    },
    {
      "name": "丘の上のカフェ　そらりお",
      "name_kana": "",
      "business_type": "飲食店営業(1)一般食堂・レストラン等",
      "address": "川辺郡猪名川町差組字大平井１３１",
      "lat": 34.880190032,
      "lng": 135.377046496,
      "geocoding_level": 8,
      "phone": "",
      "license_no": "神北(伊健)第1-401",
      "license_date": null,
      "expire_date": null
    },
    {
      "name": "丘の上のカフェ　そらりお",
      "name_kana": "",
      "business_type": "菓子製造業",
      "address": "川辺郡猪名川町差組字大平井１３１",
      "lat": 34.880190032,
      "lng": 135.377046496,
      "geocoding_level": 8,
      "phone": "",
      "license_no": "神北(伊健)第6-36",
      "license_date": null,
      "expire_date": null
    },
    {
      "name": "丘の上のカフェ　そらりお",
      "name_kana": "",
      "business_type": "そうざい製造業",
      "address": "川辺郡猪名川町差組字大平井１３１",
      "lat": 34.880190032,
      "lng": 135.377046496,
      "geocoding_level": 8,
      "phone": "",
      "license_no": "神北(伊健)第20-9",
      "license_date": null,
      "expire_date": null
    },
    {
      "name": "ヤマワキ",
      "name_kana": "",
      "business_type": "食肉処理業",
      "address": "川辺郡猪名川町柏原字尾野嶽１－４０７",
      "lat": 35.003224,
      "lng": 135.304293,
      "geocoding_level": 3,
      "phone": "09037052416",
      "license_no": "神北(伊健)第5-3",
      "license_date": null,
      "expire_date": null
    },
    {
      "name": "セブン－イレブン猪名川万善店",
      "name_kana": "",
      "business_type": "飲食店営業(4)その他",
      "address": "川辺郡猪名川町万善字渕ノ上１１１－２",
      "lat": 34.918467355,
      "lng": 135.35302293,
      "geocoding_level": 8,
      "phone": "",
      "license_no": "神北(伊健)第1-420",
      "license_date": null,
      "expire_date": null
    },
    {
      "name": "ケンタッキーフライドチキン日生中央サピエ店",
      "name_kana": "",
      "business_type": "飲食店営業(1)一般食堂・レストラン等",
      "address": "川辺郡猪名川町松尾台１丁目２－１",
      "lat": 34.906286,
      "lng": 135.392613,
      "geocoding_level": 3,
      "phone": "",
      "license_no": "神北(伊健)第1-464",
      "license_date": null,
      "expire_date": null
    },
    {
      "name": "服部菓子店",
      "name_kana": "",
      "business_type": "菓子製造業",
      "address": "川辺郡猪名川町荘苑２丁目８－１５",
      "lat": 34.918139984,
      "lng": 135.375353601,
      "geocoding_level": 8,
      "phone": "",
      "license_no": "神北(伊健)第6-47",
      "license_date": null,
      "expire_date": null
    },
    {
      "name": "ＦＥＥＤ　ＭＥ　オレンジジュース自動販売機  イオンモール猪名川３階",
      "name_kana": "",
      "business_type": "調理の機能を有する自動販売機により食品を調理し、調理された食品を販売する営業",
      "address": "川辺郡猪名川町白金２丁目１",
      "lat": 34.898607,
      "lng": 135.356898,
      "geocoding_level": 3,
      "phone": "0667846660",
      "license_no": "神北(伊健)第2-2",
      "license_date": null,
      "expire_date": null
    },
    {
      "name": "４７９５４事業所",
      "name_kana": "",
      "business_type": "飲食店営業(1)一般食堂・レストラン等",
      "address": "川辺郡猪名川町差組字小谷１０１－１",
      "lat": 34.894966,
      "lng": 135.376164,
      "geocoding_level": 2,
      "phone": "0727899201",
      "license_no": "神北(伊健)第1-72",
      "license_date": null,
      "expire_date": null
    },
    {
      "name": "ＣＡＦＥ　ＣＲＥＡ",
      "name_kana": "",
      "business_type": "飲食店営業(1)一般食堂・レストラン等",
      "address": "川辺郡猪名川町差組字向イ２０６－１",
      "lat": 34.881830209,
      "lng": 135.378171428,
      "geocoding_level": 8,
      "phone": "0727446345",
      "license_no": "神北(伊健)第1-105",
      "license_date": null,
      "expire_date": null
    },
    {
      "name": "リバーサイドグランピング猪名川",
      "name_kana": "",
      "business_type": "飲食店営業(3)旅館",
      "address": "川辺郡猪名川町北田原一本松１５－１",
      "lat": 34.894966,
      "lng": 135.376164,
      "geocoding_level": 2,
      "phone": "09015432618",
      "license_no": "神北(伊健)第1-189",
      "license_date": null,
      "expire_date": null
    },
    {
      "name": "まきば",
      "name_kana": "",
      "business_type": "飲食店営業(2)仕出し屋・弁当屋",
      "address": "川辺郡猪名川町柏梨田前ヶ谷１６７",
      "lat": 34.894966,
      "lng": 135.376164,
      "geocoding_level": 2,
      "phone": "",
      "license_no": "神北(伊健)第1-187",
      "license_date": null,
      "expire_date": null
    },
    {
      "name": "まきば",
      "name_kana": "",
      "business_type": "飲食店営業(4)その他",
      "address": "川辺郡猪名川町柏梨田前ヶ谷１６７",
      "lat": 34.894966,
      "lng": 135.376164,
      "geocoding_level": 2,
      "phone": "",
      "license_no": "神北(伊健)第1-188",
      "license_date": null,
      "expire_date": null
    },
    {
      "name": "まきば",
      "name_kana": "",
      "business_type": "菓子製造業",
      "address": "川辺郡猪名川町柏梨田前ヶ谷１６７",
      "lat": 34.894966,
      "lng": 135.376164,
      "geocoding_level": 2,
      "phone": "",
      "license_no": "神北(伊健)第6-9",
      "license_date": null,
      "expire_date": null
    },
    {
      "name": "まきば",
      "name_kana": "",
      "business_type": "そうざい製造業",
      "address": "川辺郡猪名川町柏梨田前ヶ谷１６７",
      "lat": 34.894966,
      "lng": 135.376164,
      "geocoding_level": 2,
      "phone": "",
      "license_no": "神北(伊健)第20-5",
      "license_date": null,
      "expire_date": null
    },
    {
      "name": "ペンションきのこ園",
      "name_kana": "",
      "business_type": "飲食店営業(3)旅館",
      "address": "川辺郡猪名川町柏原字石原田４－１",
      "lat": 34.894966,
      "lng": 135.376164,
      "geocoding_level": 2,
      "phone": "0727690760",
      "license_no": "神北(伊健)第1-325",
      "license_date": null,
      "expire_date": null
    },
    {
      "name": "シャトレーゼ猪名川店",
      "name_kana": "",
      "business_type": "菓子製造業",
      "address": "川辺郡猪名川町若葉１丁目２－３",
      "lat": 34.900246,
      "lng": 135.368772,
      "geocoding_level": 3,
      "phone": "0727697071",
      "license_no": "神北(伊健)第6-20",
      "license_date": null,
      "expire_date": null
    },
    {
      "name": "仲しい茸園　加工部",
      "name_kana": "",
      "business_type": "そうざい製造業",
      "address": "川辺郡猪名川町木間生字前芝６－１",
      "lat": 34.946258219,
      "lng": 135.342323542,
      "geocoding_level": 8,
      "phone": "",
      "license_no": "神北(伊健)第20-10",
      "license_date": null,
      "expire_date": null
    },
    {
      "name": "そばこころ",
      "name_kana": "",
      "business_type": "飲食店営業(1)一般食堂・レストラン等",
      "address": "川辺郡猪名川町松尾台１丁目２－１",
      "lat": 34.906286,
      "lng": 135.392613,
      "geocoding_level": 3,
      "phone": "",
      "license_no": "神北(伊健)第1-518",
      "license_date": null,
      "expire_date": null
    },
    {
      "name": "仲しい茸園　加工部",
      "name_kana": "",
      "business_type": "漬物製造業",
      "address": "川辺郡猪名川町木間生字前芝６－１",
      "lat": 34.946258219,
      "lng": 135.342323542,
      "geocoding_level": 8,
      "phone": "0727680055",
      "license_no": "神北(伊健)第24-3",
      "license_date": null,
      "expire_date": null
    },
    {
      "name": "仲しい茸園　加工部",
      "name_kana": "",
      "business_type": "密封包装食品製造業",
      "address": "川辺郡猪名川町木間生字前芝６－１",
      "lat": 34.946258219,
      "lng": 135.342323542,
      "geocoding_level": 8,
      "phone": "0727680055",
      "license_no": "神北(伊健)第25-4",
      "license_date": null,
      "expire_date": null
    },
    {
      "name": "きたうえ農園",
      "name_kana": "",
      "business_type": "密封包装食品製造業",
      "address": "川辺郡猪名川町北田原字長竿４６",
      "lat": 34.894966,
      "lng": 135.376164,
      "geocoding_level": 2,
      "phone": "09097141182",
      "license_no": "神北(伊健)第25-5",
      "license_date": null,
      "expire_date": null
    },
    {
      "name": "和楽",
      "name_kana": "",
      "business_type": "飲食店営業(1)一般食堂・レストラン等",
      "address": "川辺郡猪名川町笹尾字尼岡の下１０－６１０２号",
      "lat": 34.953227,
      "lng": 135.323899,
      "geocoding_level": 3,
      "phone": "",
      "license_no": "神北(伊健)第1-640",
      "license_date": null,
      "expire_date": null
    },
    {
      "name": "ＪＡ兵庫六甲いなの郷グループ",
      "name_kana": "",
      "business_type": "漬物製造業",
      "address": "川辺郡猪名川町笹尾字黒添エ２１",
      "lat": 34.951419528,
      "lng": 135.327438976,
      "geocoding_level": 8,
      "phone": "0727682666",
      "license_no": "神北(伊健)第24-4",
      "license_date": null,
      "expire_date": null
    },
    {
      "name": "ねこのとびら",
      "name_kana": "",
      "business_type": "飲食店営業(1)一般食堂・レストラン等",
      "address": "川辺郡猪名川町北田原カイジリ２４１－１",
      "lat": 34.912644267,
      "lng": 135.36590220500003,
      "geocoding_level": 8,
      "phone": "",
      "license_no": "神北(伊健)第1-57",
      "license_date": null,
      "expire_date": null
    },
    {
      "name": "大黒屋猪名川店",
      "name_kana": "",
      "business_type": "食肉販売業",
      "address": "川辺郡猪名川町万善字畑溝５９－１",
      "lat": 34.92010142,
      "lng": 135.351320969,
      "geocoding_level": 8,
      "phone": "0727680070",
      "license_no": "神北(伊健)第3-3",
      "license_date": null,
      "expire_date": null
    },
    {
      "name": "大黒屋猪名川店",
      "name_kana": "",
      "business_type": "飲食店営業(1)一般食堂・レストラン等",
      "address": "川辺郡猪名川町万善字畑溝５９－１",
      "lat": 34.92010142,
      "lng": 135.351320969,
      "geocoding_level": 8,
      "phone": "0727680070",
      "license_no": "神北(伊健)第1-258",
      "license_date": null,
      "expire_date": null
    },
    {
      "name": "わろうだ",
      "name_kana": "",
      "business_type": "飲食店営業(1)一般食堂・レストラン等",
      "address": "川辺郡猪名川町杤原字東山３０－１",
      "lat": 34.948416816,
      "lng": 135.33949584,
      "geocoding_level": 8,
      "phone": "0727680975",
      "license_no": "神北(伊健)第1-283",
      "license_date": null,
      "expire_date": null
    },
    {
      "name": "ディスカバリー　リゾート　オオシマ",
      "name_kana": "",
      "business_type": "冷凍食品製造業",
      "address": "川辺郡猪名川町島字西山９",
      "lat": 34.894966,
      "lng": 135.376164,
      "geocoding_level": 2,
      "phone": "0727032121",
      "license_no": "神北(伊健)第22-1",
      "license_date": null,
      "expire_date": null
    },
    {
      "name": "ディスカバリー　リゾート　オオシマ",
      "name_kana": "",
      "business_type": "密封包装食品製造業",
      "address": "川辺郡猪名川町島字西山９",
      "lat": 34.894966,
      "lng": 135.376164,
      "geocoding_level": 2,
      "phone": "0727032121",
      "license_no": "神北(伊健)第25-5",
      "license_date": null,
      "expire_date": null
    },
    {
      "name": "Ｃｉｅｌ　ｃｒｅｐｅ",
      "name_kana": "",
      "business_type": "飲食店営業(1)一般食堂・レストラン等",
      "address": "川辺郡猪名川町白金２丁目１３階",
      "lat": 34.898607,
      "lng": 135.356898,
      "geocoding_level": 3,
      "phone": "",
      "license_no": "神北(伊健)第1-438",
      "license_date": null,
      "expire_date": null
    },
    {
      "name": "わろうだ",
      "name_kana": "",
      "business_type": "菓子製造業",
      "address": "川辺郡猪名川町杤原字東山３０－１",
      "lat": 34.948416816,
      "lng": 135.33949584,
      "geocoding_level": 8,
      "phone": "0727680975",
      "license_no": "神北(伊健)第6-42",
      "license_date": null,
      "expire_date": null
    },
    {
      "name": "ＭＯＯＭ　ｌａｂｏ",
      "name_kana": "",
      "business_type": "密封包装食品製造業",
      "address": "川辺郡猪名川町伏見台３丁目２－８６",
      "lat": 34.915952,
      "lng": 135.402734,
      "geocoding_level": 3,
      "phone": "",
      "license_no": "神北(伊健)第25-6",
      "license_date": null,
      "expire_date": null
    },
    {
      "name": "タリーズコーヒーイオンモール猪名川店",
      "name_kana": "",
      "business_type": "飲食店営業(1)一般食堂・レストラン等",
      "address": "川辺郡猪名川町白金２丁目１番イオンモール猪名川２Ｆ",
      "lat": 34.898607,
      "lng": 135.356898,
      "geocoding_level": 3,
      "phone": "",
      "license_no": "神北(伊健)第1-557",
      "license_date": null,
      "expire_date": null
    },
    {
      "name": "たこ焼たっちゃん",
      "name_kana": "",
      "business_type": "飲食店営業(4)その他",
      "address": "川辺郡猪名川町上野字北山７－１１",
      "lat": 34.890946852000006,
      "lng": 135.375850733,
      "geocoding_level": 8,
      "phone": "",
      "license_no": "神北(伊健)第1-565",
      "license_date": null,
      "expire_date": null
    },
    {
      "name": "星の宿　彩音",
      "name_kana": "",
      "business_type": "飲食店営業(1)一般食堂・レストラン等",
      "address": "川辺郡猪名川町柏原字木戸口２－１",
      "lat": 34.894966,
      "lng": 135.376164,
      "geocoding_level": 2,
      "phone": "",
      "license_no": "神北(伊健)第1-570",
      "license_date": null,
      "expire_date": null
    },
    {
      "name": "Ｆａｒｍｉｎｇ",
      "name_kana": "",
      "business_type": "漬物製造業",
      "address": "川辺郡猪名川町柏原字木戸口２－１",
      "lat": 34.894966,
      "lng": 135.376164,
      "geocoding_level": 2,
      "phone": "",
      "license_no": "神北(伊健)第24-3",
      "license_date": null,
      "expire_date": null
    },
    {
      "name": "亥の子カフェ",
      "name_kana": "",
      "business_type": "飲食店営業(1)一般食堂・レストラン等",
      "address": "川辺郡猪名川町西畑字松ヶ本１３",
      "lat": 34.992976329,
      "lng": 135.313715132,
      "geocoding_level": 8,
      "phone": "",
      "license_no": "神北(伊健)第1-601",
      "license_date": null,
      "expire_date": null
    },
    {
      "name": "ケンタッキーフライドチキン  イオンモール猪名川",
      "name_kana": "",
      "business_type": "飲食店営業(1)一般食堂・レストラン等",
      "address": "川辺郡猪名川町白金２丁目１イオンモール猪名川３Ｆ",
      "lat": 34.898607,
      "lng": 135.356898,
      "geocoding_level": 3,
      "phone": "0727686588",
      "license_no": "神北(伊健)第1-694",
      "license_date": null,
      "expire_date": null
    },
    {
      "name": "猪名川杉生農園",
      "name_kana": "",
      "business_type": "飲食店営業(1)一般食堂・レストラン等",
      "address": "川辺郡猪名川町西畑字大野６－２",
      "lat": 34.894966,
      "lng": 135.376164,
      "geocoding_level": 2,
      "phone": "",
      "license_no": "神北(伊健)第1-707",
      "license_date": null,
      "expire_date": null
    },
    {
      "name": "猪名川杉生農園",
      "name_kana": "",
      "business_type": "密封包装食品製造業",
      "address": "川辺郡猪名川町西畑字大野６－２",
      "lat": 34.894966,
      "lng": 135.376164,
      "geocoding_level": 2,
      "phone": "",
      "license_no": "神北(伊健)第25-7",
      "license_date": null,
      "expire_date": null
    },
    {
      "name": "いちごＩＣＨＩＪＹＵフルーツファーム",
      "name_kana": "",
      "business_type": "アイスクリーム類製造業",
      "address": "川辺郡猪名川町上阿古谷字繩手６７４",
      "lat": 34.935806389,
      "lng": 135.384677738,
      "geocoding_level": 8,
      "phone": "0727439105",
      "license_no": "神北(伊健)第10-1",
      "license_date": null,
      "expire_date": null
    },
    {
      "name": "きたうえ農園",
      "name_kana": "",
      "business_type": "飲食店営業(1)一般食堂・レストラン等",
      "address": "川辺郡猪名川町北田原字長竿４６",
      "lat": 34.894966,
      "lng": 135.376164,
      "geocoding_level": 2,
      "phone": "09097141182",
      "license_no": "神北(伊健)第1-164",
      "license_date": null,
      "expire_date": null
    },
    {
      "name": "想月",
      "name_kana": "",
      "business_type": "飲食店営業(1)一般食堂・レストラン等",
      "address": "川辺郡猪名川町広根西ヲコタ１４",
      "lat": 34.898252,
      "lng": 135.33687000000003,
      "geocoding_level": 3,
      "phone": "0727463179",
      "license_no": "神北(伊健)第1-191",
      "license_date": null,
      "expire_date": null
    },
    {
      "name": "ＹＭＣＡまつおだい保育園",
      "name_kana": "",
      "business_type": "飲食店営業(1)一般食堂・レストラン等",
      "address": "川辺郡猪名川町松尾台２丁目２－２",
      "lat": 34.908302647,
      "lng": 135.389358541,
      "geocoding_level": 8,
      "phone": "0727663221",
      "license_no": "神北(伊健)第1-253",
      "license_date": null,
      "expire_date": null
    },
    {
      "name": "亥の子カフェ",
      "name_kana": "",
      "business_type": "そうざい製造業",
      "address": "川辺郡猪名川町西畑字松ヶ本１３",
      "lat": 34.992976329,
      "lng": 135.313715132,
      "geocoding_level": 8,
      "phone": "",
      "license_no": "神北(伊健)第20-9",
      "license_date": null,
      "expire_date": null
    },
    {
      "name": "ここぽかｆａｒｍ",
      "name_kana": "",
      "business_type": "菓子製造業",
      "address": "川辺郡猪名川町白金３丁目３５－６",
      "lat": 34.896756,
      "lng": 135.361108,
      "geocoding_level": 3,
      "phone": "09039457718",
      "license_no": "神北(伊健)第3-38",
      "license_date": null,
      "expire_date": null
    },
    {
      "name": "Ｅｇｇｐｌａｎｔ",
      "name_kana": "",
      "business_type": "飲食店営業(1)一般食堂・レストラン等",
      "address": "川辺郡猪名川町杤原字和田６－６",
      "lat": 34.947716528,
      "lng": 135.331499813,
      "geocoding_level": 8,
      "phone": "",
      "license_no": "神北(伊健)第1-485",
      "license_date": null,
      "expire_date": null
    },
    {
      "name": "Ｅｇｇｐｌａｎｔ",
      "name_kana": "",
      "business_type": "菓子製造業",
      "address": "川辺郡猪名川町杤原字和田６－６",
      "lat": 34.947716528,
      "lng": 135.331499813,
      "geocoding_level": 8,
      "phone": "",
      "license_no": "神北(伊健)第3-47",
      "license_date": null,
      "expire_date": null
    },
    {
      "name": "ビストロカフェ　ナナ",
      "name_kana": "",
      "business_type": "飲食店営業(1)一般食堂・レストラン等",
      "address": "川辺郡猪名川町上野字町廻１８－２",
      "lat": 34.894691713,
      "lng": 135.376701472,
      "geocoding_level": 8,
      "phone": "07050426422",
      "license_no": "神北(伊健)第1-5",
      "license_date": null,
      "expire_date": null
    },
    {
      "name": "うなぎの里　萬鰻亭　猪名川店",
      "name_kana": "",
      "business_type": "飲食店営業(1)一般食堂・レストラン等",
      "address": "川辺郡猪名川町北田原３１１－７",
      "lat": 34.917851,
      "lng": 135.366003,
      "geocoding_level": 3,
      "phone": "0727686558",
      "license_no": "神北(伊健)第1-6",
      "license_date": null,
      "expire_date": null
    },
    {
      "name": "ゼッテリア日生中央サピエ店",
      "name_kana": "",
      "business_type": "飲食店営業(1)一般食堂・レストラン等",
      "address": "川辺郡猪名川町松尾台１丁目２－１",
      "lat": 34.906286,
      "lng": 135.392613,
      "geocoding_level": 3,
      "phone": "08067939049",
      "license_no": "神北(伊健)第1-7",
      "license_date": null,
      "expire_date": null
    },
    {
      "name": "レトハコ　猪名川工場",
      "name_kana": "",
      "business_type": "そうざい製造業",
      "address": "川辺郡猪名川町つつじが丘１丁目４４－２",
      "lat": 34.88662,
      "lng": 135.371458,
      "geocoding_level": 3,
      "phone": "0727447822",
      "license_no": "神北(伊健)第20-4",
      "license_date": null,
      "expire_date": null
    },
    {
      "name": "レトハコ　猪名川工場",
      "name_kana": "",
      "business_type": "冷凍食品製造業",
      "address": "川辺郡猪名川町つつじが丘１丁目４４－２",
      "lat": 34.88662,
      "lng": 135.371458,
      "geocoding_level": 3,
      "phone": "0727447822",
      "license_no": "神北(伊健)第7-1",
      "license_date": null,
      "expire_date": null
    },
    {
      "name": "レトハコ　猪名川工場",
      "name_kana": "",
      "business_type": "食肉販売業",
      "address": "川辺郡猪名川町つつじが丘１丁目４４－２",
      "lat": 34.88662,
      "lng": 135.371458,
      "geocoding_level": 3,
      "phone": "0727447822",
      "license_no": "神北(伊健)第12-4",
      "license_date": null,
      "expire_date": null
    },
    {
      "name": "ゆるり庵",
      "name_kana": "",
      "business_type": "飲食店営業(1)一般食堂・レストラン等",
      "address": "川辺郡猪名川町柏原字竹ノ下２３－２",
      "lat": 34.894966,
      "lng": 135.376164,
      "geocoding_level": 2,
      "phone": "",
      "license_no": "神北(伊健)第1-110",
      "license_date": null,
      "expire_date": null
    },
    {
      "name": "ジェラード",
      "name_kana": "",
      "business_type": "飲食店営業(4)その他",
      "address": "川辺郡猪名川町万善字畑溝５９－１猪名川グルメプラザ内",
      "lat": 34.92010142,
      "lng": 135.351320969,
      "geocoding_level": 8,
      "phone": "",
      "license_no": "神北(伊健)第1-128",
      "license_date": null,
      "expire_date": null
    },
    {
      "name": "ダイソー　日生中央サピエ店",
      "name_kana": "ダイソー　ニッセイチュウオウサピエテン",
      "business_type": "⑬ その他の食料・飲料販売業",
      "address": "兵庫県川辺郡猪名川町松尾台１－２－１ 日生中央サピエ内２階",
      "lat": 34.906686,
      "lng": 135.392019,
      "geocoding_level": null,
      "phone": "",
      "license_no": "",
      "license_date": null,
      "expire_date": null
    },
    {
      "name": "ダイソー　イオンモール猪名川店",
      "name_kana": "ダイソー　イオンモールイナガワテン",
      "business_type": "⑬ その他の食料・飲料販売業",
      "address": "兵庫県川辺郡猪名川町白金２－１ イオンモール猪名川店　２階",
      "lat": 34.901918,
      "lng": 135.365576,
      "geocoding_level": null,
      "phone": "",
      "license_no": "",
      "license_date": null,
      "expire_date": null
    },
    {
      "name": "リンガーハットイオンモール猪名川店",
      "name_kana": "リンガーハットイオンモールイナガワテン",
      "business_type": "⑬ その他の食料・飲料販売業",
      "address": "兵庫県川辺郡猪名川町白金2-1 イオンモール猪名川3F",
      "lat": 34.902008,
      "lng": 135.36547,
      "geocoding_level": null,
      "phone": "072-767-2018",
      "license_no": "",
      "license_date": null,
      "expire_date": null
    },
    {
      "name": "美工珈琲",
      "name_kana": "ビコウコーヒー",
      "business_type": "⑯ コーヒー製造・加工業（飲料の製造を除く。）",
      "address": "兵庫県川辺郡猪名川町白金3-35-7",
      "lat": 34.895661,
      "lng": 135.360316,
      "geocoding_level": null,
      "phone": "09021181347",
      "license_no": "",
      "license_date": null,
      "expire_date": null
    },
    {
      "name": "coffee kiraku",
      "name_kana": "コーヒーキラク",
      "business_type": "⑯ コーヒー製造・加工業（飲料の製造を除く。）",
      "address": "兵庫県川辺郡猪名川町白金1-106-4",
      "lat": 34.903651,
      "lng": 135.355535,
      "geocoding_level": null,
      "phone": "072-766-1332",
      "license_no": "",
      "license_date": null,
      "expire_date": null
    },
    {
      "name": "道の駅いながわ",
      "name_kana": "ミチノエキイナガワ",
      "business_type": "⑫ 自動販売機による販売業（コップ式自動販売機（自動洗浄・屋内設置）及び営業許可の対象となる自動販売機を除く）",
      "address": "兵庫県川辺郡猪名川町万善字竹添７番地１",
      "lat": 34.919748,
      "lng": 135.351479,
      "geocoding_level": null,
      "phone": "",
      "license_no": "",
      "license_date": null,
      "expire_date": null
    },
    {
      "name": "サイゼリヤ　イオンモール猪名川店",
      "name_kana": "サイゼリヤ　イオンモールイナガワテン",
      "business_type": "⑬ その他の食料・飲料販売業",
      "address": "兵庫県川辺郡猪名川町白金2-1 ｲｵﾝﾓｰﾙ猪名川3F",
      "lat": 34.902008,
      "lng": 135.36547,
      "geocoding_level": null,
      "phone": "072-767-2030",
      "license_no": "",
      "license_date": null,
      "expire_date": null
    },
    {
      "name": "ミスタードーナツ猪名川店",
      "name_kana": "ミスタードーナツイナガワテン",
      "business_type": "⑬ その他の食料・飲料販売業",
      "address": "兵庫県川辺郡猪名川町白金2-1 イオンモール猪名川　3F",
      "lat": 34.901918,
      "lng": 135.365576,
      "geocoding_level": null,
      "phone": "0727651181",
      "license_no": "",
      "license_date": null,
      "expire_date": null
    },
    {
      "name": "ホームプラザナフコ　猪名川店",
      "name_kana": "ホームプラザナフコ　イナガワテン",
      "business_type": "⑬ その他の食料・飲料販売業",
      "address": "兵庫県川辺郡猪名川町つつじが丘二丁目３３番２号",
      "lat": 34.885103,
      "lng": 135.368587,
      "geocoding_level": null,
      "phone": "072-767-4601",
      "license_no": "",
      "license_date": null,
      "expire_date": null
    },
    {
      "name": "みたらし庵",
      "name_kana": "ミタラシアン",
      "business_type": "⑬ その他の食料・飲料販売業",
      "address": "兵庫県川辺郡猪名川町白金2丁目1番 イオンモール猪名川",
      "lat": 34.902008,
      "lng": 135.36547,
      "geocoding_level": null,
      "phone": "08011054485",
      "license_no": "",
      "license_date": null,
      "expire_date": null
    },
    {
      "name": "圭佑屋栄商店　イオンモール猪名川",
      "name_kana": "ケイスケヤ　サカエショウテン　イオンモールイナガワ",
      "business_type": "① 魚介類販売業（包装済みの魚介類のみの販売）",
      "address": "兵庫県川辺郡猪名川町白金2丁目1番",
      "lat": 34.902235,
      "lng": 135.365057,
      "geocoding_level": null,
      "phone": "",
      "license_no": "",
      "license_date": null,
      "expire_date": null
    },
    {
      "name": "ディスカバリー　リゾート　オオシマ",
      "name_kana": "ディスカバリー　リゾート　オオシマ",
      "business_type": "⑰ 農産保存食料品製造・加工業",
      "address": "兵庫県川辺郡猪名川町島字西山9",
      "lat": 34.895061,
      "lng": 135.376162,
      "geocoding_level": null,
      "phone": "072-703-2121",
      "license_no": "",
      "license_date": null,
      "expire_date": null
    },
    {
      "name": "イオンモール猪名川　天平キムチ",
      "name_kana": "イオンモールイナガワ　テンペイキムチ",
      "business_type": "⑬ その他の食料・飲料販売業",
      "address": "兵庫県川辺郡猪名川町白金2丁目1番",
      "lat": 34.902235,
      "lng": 135.365057,
      "geocoding_level": null,
      "phone": "",
      "license_no": "",
      "license_date": null,
      "expire_date": null
    },
    {
      "name": "イオンモール猪名川　天平キムチ",
      "name_kana": "イオンモールイナガワ　テンペイキムチ",
      "business_type": "⑬ その他の食料・飲料販売業",
      "address": "兵庫県川辺郡猪名川町白金2丁目1番",
      "lat": 34.902235,
      "lng": 135.365057,
      "geocoding_level": null,
      "phone": "",
      "license_no": "",
      "license_date": null,
      "expire_date": null
    },
    {
      "name": "DCM日生中央店",
      "name_kana": "ディーシーエムニッセイチュウオウテン",
      "business_type": "⑬ その他の食料・飲料販売業",
      "address": "兵庫県川辺郡猪名川町伏見台１－１－２",
      "lat": 34.906971,
      "lng": 135.394561,
      "geocoding_level": null,
      "phone": "072-765-0202",
      "license_no": "",
      "license_date": null,
      "expire_date": null
    },
    {
      "name": "阪急オアシス日生中央店",
      "name_kana": "ハンキュウオアシスニッセイチュウオウテン",
      "business_type": "⑪ 百貨店、総合スーパー",
      "address": "兵庫県川辺郡猪名川町松尾台1-2-1",
      "lat": 34.906686,
      "lng": 135.392019,
      "geocoding_level": null,
      "phone": "0727661931",
      "license_no": "",
      "license_date": null,
      "expire_date": null
    },
    {
      "name": "珀屋",
      "name_kana": "ハクヤ",
      "business_type": "⑬ その他の食料・飲料販売業",
      "address": "兵庫県川辺郡猪名川町白金2-1 イオンモール猪名川店　食品催事場",
      "lat": 34.901918,
      "lng": 135.365576,
      "geocoding_level": null,
      "phone": "",
      "license_no": "",
      "license_date": null,
      "expire_date": null
    },
    {
      "name": "大阪鶴橋キムチ",
      "name_kana": "オオサカツルハシキムチ",
      "business_type": "⑬ その他の食料・飲料販売業",
      "address": "兵庫県川辺郡猪名川町白金２丁目1 イオンモール猪名川　食品催事場",
      "lat": 34.901918,
      "lng": 135.365576,
      "geocoding_level": null,
      "phone": "",
      "license_no": "",
      "license_date": null,
      "expire_date": null
    }
  ]
}
