{
  "meta": {
    "updated": 1783906731,
    "sources": [
      {
        "source": "岐阜県食品営業許可施設情報",
        "license": "CC BY 2.0"
      },
      {
        "source": "厚生労働省 食品衛生申請等システム（オープンデータ）",
        "license": "公共データ利用規約（第1.0版, PDL1.0）"
      }
    ]
  },
  "data": [
    {
      "name": "飛騨蕃茄屋",
      "name_kana": "",
      "business_type": "そうざい製造業",
      "address": "岐阜県高山市下林町１１３０－７",
      "lat": 36.152546,
      "lng": 137.220681,
      "geocoding_level": 3,
      "phone": "0577-57-7980",
      "license_no": "62000002",
      "license_date": "2021-06-07",
      "expire_date": "2026-11-30"
    },
    {
      "name": "海豹、ＡＴＥＬＩＥＲ　ＰＯＵＬＡＩＮ",
      "name_kana": "",
      "business_type": "飲食店営業",
      "address": "岐阜県高山市本町３丁目５８",
      "lat": 36.14386,
      "lng": 137.25734,
      "geocoding_level": 3,
      "phone": "0577-32-1717",
      "license_no": "62000004",
      "license_date": "2021-06-14",
      "expire_date": "2027-02-28"
    },
    {
      "name": "海豹、ＡＴＥＬＩＥＲ　ＰＯＵＬＡＩＮ",
      "name_kana": "",
      "business_type": "菓子製造業",
      "address": "岐阜県高山市本町３丁目５８",
      "lat": 36.14386,
      "lng": 137.25734,
      "geocoding_level": 3,
      "phone": "0577-32-1717",
      "license_no": "62000005",
      "license_date": "2021-06-14",
      "expire_date": "2027-02-28"
    },
    {
      "name": "海豹、ＡＴＥＬＩＥＲ　ＰＯＵＬＡＩＮ",
      "name_kana": "",
      "business_type": "そうざい製造業",
      "address": "岐阜県高山市本町３丁目５８",
      "lat": 36.14386,
      "lng": 137.25734,
      "geocoding_level": 3,
      "phone": "0577-32-1717",
      "license_no": "62000006",
      "license_date": "2021-06-14",
      "expire_date": "2027-02-28"
    },
    {
      "name": "飛騨亭花扇",
      "name_kana": "",
      "business_type": "そうざい製造業",
      "address": "岐阜県高山市本母町４１１－１",
      "lat": 36.162903,
      "lng": 137.248418,
      "geocoding_level": 3,
      "phone": "0577-36-2000",
      "license_no": "62000013",
      "license_date": "2021-06-22",
      "expire_date": "2027-02-28"
    },
    {
      "name": "飛騨亭花扇",
      "name_kana": "",
      "business_type": "菓子製造業",
      "address": "岐阜県高山市本母町４１１－１",
      "lat": 36.162903,
      "lng": 137.248418,
      "geocoding_level": 3,
      "phone": "0577-36-2000",
      "license_no": "62000014",
      "license_date": "2021-06-22",
      "expire_date": "2027-02-28"
    },
    {
      "name": "セブン－イレブン高山山田町店",
      "name_kana": "",
      "business_type": "飲食店営業",
      "address": "岐阜県高山市山田町２５８－１",
      "lat": 36.141775,
      "lng": 137.22791900000004,
      "geocoding_level": 3,
      "phone": "0577-35-7117",
      "license_no": "62000015",
      "license_date": "2021-06-22",
      "expire_date": "2027-02-28"
    },
    {
      "name": "元屋",
      "name_kana": "",
      "business_type": "飲食店営業",
      "address": "岐阜県高山市久々野町無数河２４５－２",
      "lat": 36.044241,
      "lng": 137.251223,
      "geocoding_level": 3,
      "phone": "0577-52-2045",
      "license_no": "62000016",
      "license_date": "2021-06-22",
      "expire_date": "2027-05-31"
    },
    {
      "name": "天満酒場久右ェ門",
      "name_kana": "",
      "business_type": "飲食店営業",
      "address": "岐阜県高山市天満町２丁目８５－１３",
      "lat": 36.135278,
      "lng": 137.254695,
      "geocoding_level": 3,
      "phone": "080-5352-0900",
      "license_no": "62000017",
      "license_date": "2021-06-22",
      "expire_date": "2026-11-30"
    },
    {
      "name": "ひだっこ",
      "name_kana": "",
      "business_type": "飲食店営業",
      "address": "岐阜県高山市山田町２８８－１",
      "lat": 36.141775,
      "lng": 137.22791900000004,
      "geocoding_level": 3,
      "phone": "0577-62-9778",
      "license_no": "62000018",
      "license_date": "2021-06-22",
      "expire_date": "2027-02-28"
    },
    {
      "name": "Ａｍｅｌｉｅ　カヌレ　アメリ",
      "name_kana": "",
      "business_type": "菓子製造業",
      "address": "岐阜県高山市下岡本町１５７５－１　１階１号",
      "lat": 36.151665,
      "lng": 137.2409,
      "geocoding_level": 3,
      "phone": "070-9009-7948",
      "license_no": "62000021",
      "license_date": "2021-06-29",
      "expire_date": "2027-02-28"
    },
    {
      "name": "喫茶　とり珈琲",
      "name_kana": "",
      "business_type": "飲食店営業",
      "address": "岐阜県高山市大新町１丁目３５－１",
      "lat": 36.146955,
      "lng": 137.258137,
      "geocoding_level": 3,
      "phone": "",
      "license_no": "62000022",
      "license_date": "2021-06-29",
      "expire_date": "2027-02-28"
    },
    {
      "name": "喫茶　とり珈琲",
      "name_kana": "",
      "business_type": "菓子製造業",
      "address": "岐阜県高山市大新町１丁目３５－１",
      "lat": 36.146955,
      "lng": 137.258137,
      "geocoding_level": 3,
      "phone": "",
      "license_no": "62000023",
      "license_date": "2021-06-29",
      "expire_date": "2027-02-28"
    },
    {
      "name": "飛騨花里の湯高山桜庵",
      "name_kana": "",
      "business_type": "飲食店営業",
      "address": "岐阜県高山市花里町４丁目３１３",
      "lat": 36.13867889,
      "lng": 137.251957892,
      "geocoding_level": 8,
      "phone": "0577-37-2230",
      "license_no": "62000026",
      "license_date": "2021-06-29",
      "expire_date": "2026-11-30"
    },
    {
      "name": "飛騨花里の湯高山桜庵",
      "name_kana": "",
      "business_type": "飲食店営業",
      "address": "岐阜県高山市花里町４丁目３１３",
      "lat": 36.13867889,
      "lng": 137.251957892,
      "geocoding_level": 8,
      "phone": "0577-37-2230",
      "license_no": "62000027",
      "license_date": "2021-06-29",
      "expire_date": "2026-11-30"
    },
    {
      "name": "フェアフィールド・バイ・マリオット・岐阜高山白川郷",
      "name_kana": "",
      "business_type": "飲食店営業",
      "address": "岐阜県高山市荘川町猿丸４６－１",
      "lat": 36.022497,
      "lng": 136.96786400000002,
      "geocoding_level": 3,
      "phone": "0576-92-2075",
      "license_no": "62000029",
      "license_date": "2021-07-12",
      "expire_date": "2027-05-31"
    },
    {
      "name": "有限会社ちろり庵",
      "name_kana": "",
      "business_type": "菓子製造業",
      "address": "岐阜県高山市奥飛騨温泉郷中尾６０番地",
      "lat": 36.248069,
      "lng": 137.588846,
      "geocoding_level": 3,
      "phone": "0578-89-2646",
      "license_no": "62000035",
      "license_date": "2021-07-20",
      "expire_date": "2026-08-31"
    },
    {
      "name": "花岡ＤＩＮＩＮＧ　ａｎｄ　ＢＡＲ",
      "name_kana": "",
      "business_type": "飲食店営業",
      "address": "岐阜県高山市花岡町１丁目４２－７",
      "lat": 36.143632,
      "lng": 137.251988,
      "geocoding_level": 3,
      "phone": "0577-36-2811",
      "license_no": "62000036",
      "license_date": "2021-07-20",
      "expire_date": "2027-02-28"
    },
    {
      "name": "民宿すずらん",
      "name_kana": "",
      "business_type": "そうざい製造業",
      "address": "岐阜県高山市朝日町西洞５５８",
      "lat": 36.000207,
      "lng": 137.362353,
      "geocoding_level": 3,
      "phone": "0577-56-1057",
      "license_no": "62000038",
      "license_date": "2021-07-20",
      "expire_date": "2027-05-31"
    },
    {
      "name": "みやこ水産",
      "name_kana": "",
      "business_type": "魚介類販売業",
      "address": "岐阜県高山市国府町蓑輪２１０番地",
      "lat": 36.216559542,
      "lng": 137.232520379,
      "geocoding_level": 8,
      "phone": "0577-72-3207",
      "license_no": "62000040",
      "license_date": "2021-07-20",
      "expire_date": "2026-08-31"
    },
    {
      "name": "Ｐａｔｉｓｓｅｒｉｅ　Ｏｎｖｅ＊",
      "name_kana": "",
      "business_type": "飲食店営業",
      "address": "岐阜県高山市清見町三日町１６８８番地",
      "lat": 36.127362,
      "lng": 137.192219,
      "geocoding_level": 3,
      "phone": "090-5177-4596",
      "license_no": "62000042",
      "license_date": "2021-07-26",
      "expire_date": "2027-05-31"
    },
    {
      "name": "まるしん食堂",
      "name_kana": "",
      "business_type": "飲食店営業",
      "address": "岐阜県高山市天満町３丁目６７－１",
      "lat": 36.137337,
      "lng": 137.254366,
      "geocoding_level": 3,
      "phone": "0577-70-9030",
      "license_no": "62000043",
      "license_date": "2021-07-26",
      "expire_date": "2026-11-30"
    },
    {
      "name": "まるしん食堂",
      "name_kana": "",
      "business_type": "食肉販売業",
      "address": "岐阜県高山市天満町３丁目６７－１",
      "lat": 36.137337,
      "lng": 137.254366,
      "geocoding_level": 3,
      "phone": "0577-70-9030",
      "license_no": "62000044",
      "license_date": "2021-07-26",
      "expire_date": "2026-11-30"
    },
    {
      "name": "西穂山荘",
      "name_kana": "",
      "business_type": "飲食店営業",
      "address": "岐阜県高山市奥飛騨温泉郷神坂穂高嶽７１５",
      "lat": 36.30419,
      "lng": 137.602285,
      "geocoding_level": 3,
      "phone": "",
      "license_no": "62000045",
      "license_date": "2021-08-18",
      "expire_date": "2026-08-31"
    },
    {
      "name": "ＴＨＥ　ＭＡＴＣＨＩＹＡ　ＨＯＴＥＬ　ＴＡＫＡＹＡＭＡ",
      "name_kana": "",
      "business_type": "飲食店営業",
      "address": "岐阜県高山市八軒町３丁目５０番地",
      "lat": 36.138659,
      "lng": 137.255566,
      "geocoding_level": 3,
      "phone": "0577-57-7000",
      "license_no": "62000048",
      "license_date": "2021-07-26",
      "expire_date": "2026-11-30"
    },
    {
      "name": "本陣平野屋花兆庵",
      "name_kana": "",
      "business_type": "菓子製造業",
      "address": "岐阜県高山市本町１丁目３４番地",
      "lat": 36.140377,
      "lng": 137.258026,
      "geocoding_level": 3,
      "phone": "0577-34-1234",
      "license_no": "62000049",
      "license_date": "2021-07-30",
      "expire_date": "2026-11-30"
    },
    {
      "name": "本陣平野屋別館",
      "name_kana": "",
      "business_type": "菓子製造業",
      "address": "岐阜県高山市本町１丁目５番地",
      "lat": 36.140377,
      "lng": 137.258026,
      "geocoding_level": 3,
      "phone": "0577-34-1234",
      "license_no": "62000050",
      "license_date": "2021-07-30",
      "expire_date": "2026-11-30"
    },
    {
      "name": "Ｏｎｃｅ　Ｐｏｐ　ＢＯＸ",
      "name_kana": "",
      "business_type": "飲食店営業",
      "address": "岐阜県高山市下一之町２",
      "lat": 36.144894,
      "lng": 137.260031,
      "geocoding_level": 3,
      "phone": "080-9113-5566",
      "license_no": "62000052",
      "license_date": "2021-07-27",
      "expire_date": "2027-02-28"
    },
    {
      "name": "茶房　清庵",
      "name_kana": "",
      "business_type": "飲食店営業",
      "address": "岐阜県高山市総和町１丁目８",
      "lat": 36.143696,
      "lng": 137.254628,
      "geocoding_level": 3,
      "phone": "090-5006-3177",
      "license_no": "62000053",
      "license_date": "2021-08-03",
      "expire_date": "2027-02-28"
    },
    {
      "name": "有限会社糀屋柴田春次商店",
      "name_kana": "",
      "business_type": "漬物製造業",
      "address": "岐阜県高山市松之木町１９９－２２",
      "lat": 36.151716,
      "lng": 137.281217,
      "geocoding_level": 3,
      "phone": "0577-32-0653",
      "license_no": "62000054",
      "license_date": "2021-08-06",
      "expire_date": "2026-11-30"
    },
    {
      "name": "～結一～ＹＵ",
      "name_kana": "",
      "business_type": "飲食店営業",
      "address": "岐阜県高山市名田町１丁目４９－３",
      "lat": 36.132943,
      "lng": 137.255973,
      "geocoding_level": 3,
      "phone": "090-6098-3281",
      "license_no": "62000055",
      "license_date": "2021-09-02",
      "expire_date": "2026-11-30"
    },
    {
      "name": "てるてるぼうず",
      "name_kana": "",
      "business_type": "飲食店営業",
      "address": "岐阜県高山市片原町８８",
      "lat": 36.141575,
      "lng": 137.258886,
      "geocoding_level": 3,
      "phone": "",
      "license_no": "62000056",
      "license_date": "2021-08-12",
      "expire_date": "2026-11-30"
    },
    {
      "name": "トヤソーデの庭",
      "name_kana": "",
      "business_type": "飲食店営業",
      "address": "岐阜県高山市久々野町渚１０７０－３",
      "lat": 36.006868,
      "lng": 137.261074,
      "geocoding_level": 3,
      "phone": "0577-52-3770",
      "license_no": "62000057",
      "license_date": "2021-08-24",
      "expire_date": "2027-05-31"
    },
    {
      "name": "ルートイングランティア飛騨高山　和蔵の宿",
      "name_kana": "",
      "business_type": "飲食店営業",
      "address": "岐阜県高山市千島町１０７０－１",
      "lat": 36.122284,
      "lng": 137.25097900000003,
      "geocoding_level": 3,
      "phone": "0577-32-0100",
      "license_no": "62000058",
      "license_date": "2021-08-19",
      "expire_date": "2026-11-30"
    },
    {
      "name": "ペンション　木之下",
      "name_kana": "",
      "business_type": "飲食店営業",
      "address": "岐阜県高山市奥飛騨温泉郷一重ケ根１８２５－１",
      "lat": 36.219577,
      "lng": 137.556097,
      "geocoding_level": 3,
      "phone": "0578-89-2436",
      "license_no": "62000060",
      "license_date": "2021-08-18",
      "expire_date": "2026-08-31"
    },
    {
      "name": "民宿森井",
      "name_kana": "",
      "business_type": "飲食店営業",
      "address": "岐阜県高山市奥飛騨温泉郷一重ケ根２００－１９",
      "lat": 36.219577,
      "lng": 137.556097,
      "geocoding_level": 3,
      "phone": "0578-89-2758",
      "license_no": "62000061",
      "license_date": "2021-08-18",
      "expire_date": "2026-08-31"
    },
    {
      "name": "飛騨つづり　朧",
      "name_kana": "",
      "business_type": "飲食店営業",
      "address": "岐阜県高山市奥飛騨温泉郷一重ケ根２４９８－１",
      "lat": 36.219577,
      "lng": 137.556097,
      "geocoding_level": 3,
      "phone": "0578-89-2811",
      "license_no": "62000064",
      "license_date": "2021-08-18",
      "expire_date": "2026-08-31"
    },
    {
      "name": "飛騨つづり　朧",
      "name_kana": "",
      "business_type": "水産製品製造業",
      "address": "岐阜県高山市奥飛騨温泉郷一重ケ根２４９８－１",
      "lat": 36.219577,
      "lng": 137.556097,
      "geocoding_level": 3,
      "phone": "0578-89-2811",
      "license_no": "62000065",
      "license_date": "2021-08-18",
      "expire_date": "2026-08-31"
    },
    {
      "name": "美山荘",
      "name_kana": "",
      "business_type": "飲食店営業",
      "address": "岐阜県高山市奥飛騨温泉郷一重ケ根６２２",
      "lat": 36.219577,
      "lng": 137.556097,
      "geocoding_level": 3,
      "phone": "0578-89-2116",
      "license_no": "62000066",
      "license_date": "2021-08-18",
      "expire_date": "2026-08-31"
    },
    {
      "name": "つどい湯とそば料理の宿せいがくかん",
      "name_kana": "",
      "business_type": "飲食店営業",
      "address": "岐阜県高山市奥飛騨温泉郷一重ケ根６８１",
      "lat": 36.219577,
      "lng": 137.556097,
      "geocoding_level": 3,
      "phone": "0578-89-2410",
      "license_no": "62000067",
      "license_date": "2021-08-18",
      "expire_date": "2026-08-31"
    },
    {
      "name": "雪紫",
      "name_kana": "",
      "business_type": "飲食店営業",
      "address": "岐阜県高山市奥飛騨温泉郷神坂４０５番地",
      "lat": 36.30419,
      "lng": 137.602285,
      "geocoding_level": 3,
      "phone": "0578-89-2046",
      "license_no": "62000069",
      "license_date": "2021-08-18",
      "expire_date": "2026-08-31"
    },
    {
      "name": "槍見館",
      "name_kana": "",
      "business_type": "飲食店営業",
      "address": "岐阜県高山市奥飛騨温泉郷神坂５８７番地",
      "lat": 36.30419,
      "lng": 137.602285,
      "geocoding_level": 3,
      "phone": "0578-89-2808",
      "license_no": "62000070",
      "license_date": "2021-08-18",
      "expire_date": "2026-08-31"
    },
    {
      "name": "ホテルニューホダカ",
      "name_kana": "",
      "business_type": "飲食店営業",
      "address": "岐阜県高山市奥飛騨温泉郷神坂笠ヶ岳７１９－２",
      "lat": 36.30419,
      "lng": 137.602285,
      "geocoding_level": 3,
      "phone": "0578-89-2121",
      "license_no": "62000071",
      "license_date": "2021-08-18",
      "expire_date": "2026-08-31"
    },
    {
      "name": "ホテル穂高",
      "name_kana": "",
      "business_type": "飲食店営業",
      "address": "岐阜県高山市奥飛騨温泉郷神坂巾平７１０－６２",
      "lat": 36.30419,
      "lng": 137.602285,
      "geocoding_level": 3,
      "phone": "0578-89-2200",
      "license_no": "62000072",
      "license_date": "2021-08-18",
      "expire_date": "2026-08-31"
    },
    {
      "name": "ホテル穂高",
      "name_kana": "",
      "business_type": "飲食店営業",
      "address": "岐阜県高山市奥飛騨温泉郷神坂巾平７１０－６２",
      "lat": 36.30419,
      "lng": 137.602285,
      "geocoding_level": 3,
      "phone": "0578-89-2200",
      "license_no": "62000073",
      "license_date": "2021-08-18",
      "expire_date": "2026-08-31"
    },
    {
      "name": "ホテル穂高",
      "name_kana": "",
      "business_type": "飲食店営業",
      "address": "岐阜県高山市奥飛騨温泉郷神坂巾平７１０－６２",
      "lat": 36.30419,
      "lng": 137.602285,
      "geocoding_level": 3,
      "phone": "0578-89-2200",
      "license_no": "62000074",
      "license_date": "2021-08-18",
      "expire_date": "2026-08-31"
    },
    {
      "name": "穂高岳山荘",
      "name_kana": "",
      "business_type": "飲食店営業",
      "address": "岐阜県高山市奥飛騨温泉郷神坂国有林内",
      "lat": 36.30419,
      "lng": 137.602285,
      "geocoding_level": 3,
      "phone": "090-7869-0045",
      "license_no": "62000075",
      "license_date": "2021-08-18",
      "expire_date": "2026-08-31"
    },
    {
      "name": "槍ヶ岳山荘",
      "name_kana": "",
      "business_type": "飲食店営業",
      "address": "岐阜県高山市奥飛騨温泉郷神坂穂高岳国有林１０３",
      "lat": 36.30419,
      "lng": 137.602285,
      "geocoding_level": 3,
      "phone": "090-2641-1911",
      "license_no": "62000076",
      "license_date": "2021-08-18",
      "expire_date": "2026-08-31"
    },
    {
      "name": "南岳小屋",
      "name_kana": "",
      "business_type": "飲食店営業",
      "address": "岐阜県高山市奥飛騨温泉郷神坂穂高国有林１７６イ林小班",
      "lat": 36.30419,
      "lng": 137.602285,
      "geocoding_level": 3,
      "phone": "090-4524-9448",
      "license_no": "62000077",
      "license_date": "2021-08-18",
      "expire_date": "2026-08-31"
    },
    {
      "name": "わさび平小屋",
      "name_kana": "",
      "business_type": "飲食店営業",
      "address": "岐阜県高山市奥飛騨温泉郷神坂穂高国有林２１６９ほ林小班",
      "lat": 36.30419,
      "lng": 137.602285,
      "geocoding_level": 3,
      "phone": "0577-34-6268",
      "license_no": "62000078",
      "license_date": "2021-08-18",
      "expire_date": "2026-08-31"
    },
    {
      "name": "西穂山荘　冬季小屋",
      "name_kana": "",
      "business_type": "飲食店営業",
      "address": "岐阜県高山市奥飛騨温泉郷神坂穂高嶽７１５",
      "lat": 36.30419,
      "lng": 137.602285,
      "geocoding_level": 3,
      "phone": "0263-95-2506",
      "license_no": "62000079",
      "license_date": "2021-08-18",
      "expire_date": "2026-08-31"
    },
    {
      "name": "有限会社旅館飛騨牛の宿",
      "name_kana": "",
      "business_type": "飲食店営業",
      "address": "岐阜県高山市奥飛騨温泉郷村上１３９９",
      "lat": 36.244983,
      "lng": 137.51735,
      "geocoding_level": 3,
      "phone": "0578-89-3232",
      "license_no": "62000080",
      "license_date": "2021-08-18",
      "expire_date": "2026-08-31"
    },
    {
      "name": "寿司　次郎長",
      "name_kana": "",
      "business_type": "飲食店営業",
      "address": "岐阜県高山市奥飛騨温泉郷村上１４９２－１２",
      "lat": 36.244983,
      "lng": 137.51735,
      "geocoding_level": 3,
      "phone": "0578-89-2120",
      "license_no": "62000081",
      "license_date": "2021-08-18",
      "expire_date": "2026-08-31"
    },
    {
      "name": "みかど館",
      "name_kana": "",
      "business_type": "飲食店営業",
      "address": "岐阜県高山市奥飛騨温泉郷村上１６１３",
      "lat": 36.244983,
      "lng": 137.51735,
      "geocoding_level": 3,
      "phone": "0578-89-2104",
      "license_no": "62000082",
      "license_date": "2021-08-18",
      "expire_date": "2026-08-31"
    },
    {
      "name": "呑み処・食べ処ケンケン",
      "name_kana": "",
      "business_type": "飲食店営業",
      "address": "岐阜県高山市奥飛騨温泉郷村上４０",
      "lat": 36.244983,
      "lng": 137.51735,
      "geocoding_level": 3,
      "phone": "0578-89-2120",
      "license_no": "62000083",
      "license_date": "2021-08-18",
      "expire_date": "2026-08-31"
    },
    {
      "name": "谷旅館",
      "name_kana": "",
      "business_type": "飲食店営業",
      "address": "岐阜県高山市奥飛騨温泉郷中尾１５１",
      "lat": 36.248069,
      "lng": 137.588846,
      "geocoding_level": 3,
      "phone": "0578-89-2735",
      "license_no": "62000084",
      "license_date": "2021-08-18",
      "expire_date": "2026-08-31"
    },
    {
      "name": "のんき村",
      "name_kana": "",
      "business_type": "飲食店営業",
      "address": "岐阜県高山市奥飛騨温泉郷中尾２６７",
      "lat": 36.248069,
      "lng": 137.588846,
      "geocoding_level": 3,
      "phone": "0578-89-2422",
      "license_no": "62000085",
      "license_date": "2021-08-18",
      "expire_date": "2026-08-31"
    },
    {
      "name": "焼岳の里",
      "name_kana": "",
      "business_type": "飲食店営業",
      "address": "岐阜県高山市奥飛騨温泉郷中尾３５４",
      "lat": 36.248069,
      "lng": 137.588846,
      "geocoding_level": 3,
      "phone": "0578-89-2383",
      "license_no": "62000086",
      "license_date": "2021-08-18",
      "expire_date": "2026-08-31"
    },
    {
      "name": "中尾平",
      "name_kana": "",
      "business_type": "飲食店営業",
      "address": "岐阜県高山市奥飛騨温泉郷中尾４３６－２５",
      "lat": 36.248069,
      "lng": 137.588846,
      "geocoding_level": 3,
      "phone": "0578-89-2568",
      "license_no": "62000087",
      "license_date": "2021-08-18",
      "expire_date": "2026-08-31"
    },
    {
      "name": "山荘　錫杖",
      "name_kana": "",
      "business_type": "飲食店営業",
      "address": "岐阜県高山市奥飛騨温泉郷中尾沖野２７７－１",
      "lat": 36.248069,
      "lng": 137.588846,
      "geocoding_level": 3,
      "phone": "0578-89-2701",
      "license_no": "62000088",
      "license_date": "2021-08-18",
      "expire_date": "2026-08-31"
    },
    {
      "name": "山荘　錫杖",
      "name_kana": "",
      "business_type": "飲食店営業",
      "address": "岐阜県高山市奥飛騨温泉郷中尾沖野２７７－１",
      "lat": 36.248069,
      "lng": 137.588846,
      "geocoding_level": 3,
      "phone": "0578-89-2701",
      "license_no": "62000089",
      "license_date": "2021-08-18",
      "expire_date": "2026-08-31"
    },
    {
      "name": "新穂高ロープウェイ　マウントビュー",
      "name_kana": "",
      "business_type": "飲食店営業",
      "address": "岐阜県高山市奥飛騨温泉郷中尾栗尾４４５",
      "lat": 36.248069,
      "lng": 137.588846,
      "geocoding_level": 3,
      "phone": "0578-89-2253",
      "license_no": "62000090",
      "license_date": "2021-08-18",
      "expire_date": "2026-08-31"
    },
    {
      "name": "深山荘別館　槍の郷",
      "name_kana": "",
      "business_type": "飲食店営業",
      "address": "岐阜県高山市奥飛騨温泉郷中尾野尻坂２－４",
      "lat": 36.248069,
      "lng": 137.588846,
      "geocoding_level": 3,
      "phone": "0578-89-3434",
      "license_no": "62000091",
      "license_date": "2021-08-18",
      "expire_date": "2026-08-31"
    },
    {
      "name": "栃尾荘",
      "name_kana": "",
      "business_type": "飲食店営業",
      "address": "岐阜県高山市奥飛騨温泉郷栃尾２１番地",
      "lat": 36.25792,
      "lng": 137.52046,
      "geocoding_level": 3,
      "phone": "0578-89-2404",
      "license_no": "62000092",
      "license_date": "2021-08-18",
      "expire_date": "2026-08-31"
    },
    {
      "name": "那由他",
      "name_kana": "",
      "business_type": "飲食店営業",
      "address": "岐阜県高山市奥飛騨温泉郷栃尾９５２",
      "lat": 36.25792,
      "lng": 137.52046,
      "geocoding_level": 3,
      "phone": "0578-89-3188",
      "license_no": "62000093",
      "license_date": "2021-08-18",
      "expire_date": "2026-08-31"
    },
    {
      "name": "元湯　孫九郎",
      "name_kana": "",
      "business_type": "飲食店営業",
      "address": "岐阜県高山市奥飛騨温泉郷福地１００５",
      "lat": 36.21672300000001,
      "lng": 137.521035,
      "geocoding_level": 3,
      "phone": "0578-89-2231",
      "license_no": "62000094",
      "license_date": "2021-08-18",
      "expire_date": "2026-08-31"
    },
    {
      "name": "福地温泉朝市",
      "name_kana": "",
      "business_type": "飲食店営業",
      "address": "岐阜県高山市奥飛騨温泉郷福地１１０",
      "lat": 36.21672300000001,
      "lng": 137.521035,
      "geocoding_level": 3,
      "phone": "0578-89-3600",
      "license_no": "62000095",
      "license_date": "2021-08-18",
      "expire_date": "2026-08-31"
    },
    {
      "name": "御宿　飛水",
      "name_kana": "",
      "business_type": "飲食店営業",
      "address": "岐阜県高山市奥飛騨温泉郷福地６５",
      "lat": 36.21672300000001,
      "lng": 137.521035,
      "geocoding_level": 3,
      "phone": "0578-89-2773",
      "license_no": "62000096",
      "license_date": "2021-08-18",
      "expire_date": "2026-08-31"
    },
    {
      "name": "御宿　飛水",
      "name_kana": "",
      "business_type": "飲食店営業",
      "address": "岐阜県高山市奥飛騨温泉郷福地６５",
      "lat": 36.21672300000001,
      "lng": 137.521035,
      "geocoding_level": 3,
      "phone": "0578-89-2773",
      "license_no": "62000097",
      "license_date": "2021-08-18",
      "expire_date": "2026-08-31"
    },
    {
      "name": "湯の花ふわり湯元館",
      "name_kana": "",
      "business_type": "飲食店営業",
      "address": "岐阜県高山市奥飛騨温泉郷平湯１０７－４",
      "lat": 36.173905,
      "lng": 137.56226000000004,
      "geocoding_level": 3,
      "phone": "0578-89-2346",
      "license_no": "62000098",
      "license_date": "2021-08-18",
      "expire_date": "2026-08-31"
    },
    {
      "name": "有限会社山荘湯乃里",
      "name_kana": "",
      "business_type": "飲食店営業",
      "address": "岐阜県高山市奥飛騨温泉郷平湯１１９－１",
      "lat": 36.173905,
      "lng": 137.56226000000004,
      "geocoding_level": 3,
      "phone": "0578-89-2629",
      "license_no": "62000099",
      "license_date": "2021-08-18",
      "expire_date": "2026-08-31"
    },
    {
      "name": "合資会社平湯プリンスホテル",
      "name_kana": "",
      "business_type": "飲食店営業",
      "address": "岐阜県高山市奥飛騨温泉郷平湯１２８－６",
      "lat": 36.173905,
      "lng": 137.56226000000004,
      "geocoding_level": 3,
      "phone": "0578-89-2323",
      "license_no": "62000100",
      "license_date": "2021-08-18",
      "expire_date": "2026-08-31"
    },
    {
      "name": "岡田旅館",
      "name_kana": "",
      "business_type": "飲食店営業",
      "address": "岐阜県高山市奥飛騨温泉郷平湯５０５",
      "lat": 36.173905,
      "lng": 137.56226000000004,
      "geocoding_level": 3,
      "phone": "0578-89-2336",
      "license_no": "62000101",
      "license_date": "2021-08-18",
      "expire_date": "2026-08-31"
    },
    {
      "name": "もずも",
      "name_kana": "",
      "business_type": "飲食店営業",
      "address": "岐阜県高山市奥飛騨温泉郷平湯５７９－１",
      "lat": 36.173905,
      "lng": 137.56226000000004,
      "geocoding_level": 3,
      "phone": "0578-89-2020",
      "license_no": "62000103",
      "license_date": "2021-08-18",
      "expire_date": "2026-08-31"
    },
    {
      "name": "お宿　栄太郎",
      "name_kana": "",
      "business_type": "飲食店営業",
      "address": "岐阜県高山市奥飛騨温泉郷平湯６２１－５",
      "lat": 36.173905,
      "lng": 137.56226000000004,
      "geocoding_level": 3,
      "phone": "0578-89-2540",
      "license_no": "62000104",
      "license_date": "2021-08-18",
      "expire_date": "2026-08-31"
    },
    {
      "name": "やどり木",
      "name_kana": "",
      "business_type": "飲食店営業",
      "address": "岐阜県高山市奥飛騨温泉郷平湯７２１",
      "lat": 36.173905,
      "lng": 137.56226000000004,
      "geocoding_level": 3,
      "phone": "0578-84-0027",
      "license_no": "62000105",
      "license_date": "2021-08-18",
      "expire_date": "2026-08-31"
    },
    {
      "name": "ひらゆの森",
      "name_kana": "",
      "business_type": "飲食店営業",
      "address": "岐阜県高山市奥飛騨温泉郷平湯７６３－１",
      "lat": 36.173905,
      "lng": 137.56226000000004,
      "geocoding_level": 3,
      "phone": "0578-89-3338",
      "license_no": "62000106",
      "license_date": "2021-08-18",
      "expire_date": "2026-08-31"
    },
    {
      "name": "ひらゆの森",
      "name_kana": "",
      "business_type": "飲食店営業",
      "address": "岐阜県高山市奥飛騨温泉郷平湯７６３－１",
      "lat": 36.173905,
      "lng": 137.56226000000004,
      "geocoding_level": 3,
      "phone": "0578-89-3338",
      "license_no": "62000107",
      "license_date": "2021-08-18",
      "expire_date": "2026-08-31"
    },
    {
      "name": "かかし庵",
      "name_kana": "",
      "business_type": "菓子製造業",
      "address": "岐阜県高山市奥飛騨温泉郷平湯７６３－１",
      "lat": 36.173905,
      "lng": 137.56226000000004,
      "geocoding_level": 3,
      "phone": "0578-86-1081",
      "license_no": "62000108",
      "license_date": "2021-08-18",
      "expire_date": "2026-08-31"
    },
    {
      "name": "旅館たなか",
      "name_kana": "",
      "business_type": "飲食店営業",
      "address": "岐阜県高山市奥飛騨温泉郷平湯８５－１０",
      "lat": 36.173905,
      "lng": 137.56226000000004,
      "geocoding_level": 3,
      "phone": "0578-89-2766",
      "license_no": "62000109",
      "license_date": "2021-08-18",
      "expire_date": "2026-08-31"
    },
    {
      "name": "遊湯館　レストラン滝",
      "name_kana": "",
      "business_type": "飲食店営業",
      "address": "岐阜県高山市国府町宇津江二俣９６４番地",
      "lat": 36.197944,
      "lng": 137.17169300000003,
      "geocoding_level": 3,
      "phone": "0577-72-5526",
      "license_no": "62000111",
      "license_date": "2021-08-18",
      "expire_date": "2026-08-31"
    },
    {
      "name": "マクドナルド・ラクール飛騨高山店",
      "name_kana": "",
      "business_type": "飲食店営業",
      "address": "岐阜県高山市国府町金桶２５番地",
      "lat": 36.19888,
      "lng": 137.230864,
      "geocoding_level": 3,
      "phone": "0577-72-3713",
      "license_no": "62000112",
      "license_date": "2021-08-18",
      "expire_date": "2026-08-31"
    },
    {
      "name": "田園",
      "name_kana": "",
      "business_type": "飲食店営業",
      "address": "岐阜県高山市国府町広瀬町１５９０",
      "lat": 36.211772,
      "lng": 137.213982,
      "geocoding_level": 3,
      "phone": "0577-72-3691",
      "license_no": "62000113",
      "license_date": "2021-08-18",
      "expire_date": "2026-08-31"
    },
    {
      "name": "あずま堂",
      "name_kana": "",
      "business_type": "菓子製造業",
      "address": "岐阜県高山市国府町広瀬町１６３３－１",
      "lat": 36.211772,
      "lng": 137.213982,
      "geocoding_level": 3,
      "phone": "0577-72-3287",
      "license_no": "62000114",
      "license_date": "2021-08-18",
      "expire_date": "2026-08-31"
    },
    {
      "name": "乗鞍罐詰工業有限会社",
      "name_kana": "",
      "business_type": "冷凍食品製造業",
      "address": "岐阜県高山市国府町広瀬町６３０",
      "lat": 36.211772,
      "lng": 137.213982,
      "geocoding_level": 3,
      "phone": "0577-72-2170",
      "license_no": "62000115",
      "license_date": "2021-08-18",
      "expire_date": "2026-08-31"
    },
    {
      "name": "乗鞍罐詰工業有限会社",
      "name_kana": "",
      "business_type": "密封包装食品製造業",
      "address": "岐阜県高山市国府町広瀬町６３０",
      "lat": 36.211772,
      "lng": 137.213982,
      "geocoding_level": 3,
      "phone": "0577-72-2170",
      "license_no": "62000116",
      "license_date": "2021-08-18",
      "expire_date": "2026-08-31"
    },
    {
      "name": "ｌａ　ｃｅｒｉｓｅ　（ラ　スリーズ）",
      "name_kana": "",
      "business_type": "飲食店営業",
      "address": "岐阜県高山市国府町広瀬町桜野４７６－２",
      "lat": 36.211772,
      "lng": 137.213982,
      "geocoding_level": 3,
      "phone": "0577-72-2124",
      "license_no": "62000117",
      "license_date": "2021-08-18",
      "expire_date": "2026-08-31"
    },
    {
      "name": "ｌａ　ｃｅｒｉｓｅ　（ラ　スリーズ）",
      "name_kana": "",
      "business_type": "菓子製造業",
      "address": "岐阜県高山市国府町広瀬町桜野４７６－２",
      "lat": 36.211772,
      "lng": 137.213982,
      "geocoding_level": 3,
      "phone": "0577-72-2124",
      "license_no": "62000118",
      "license_date": "2021-08-18",
      "expire_date": "2026-08-31"
    },
    {
      "name": "桜華苑",
      "name_kana": "",
      "business_type": "飲食店営業",
      "address": "岐阜県高山市国府町広瀬町桜野５０９",
      "lat": 36.211772,
      "lng": 137.213982,
      "geocoding_level": 3,
      "phone": "0577-72-4141",
      "license_no": "62000119",
      "license_date": "2021-08-18",
      "expire_date": "2026-08-31"
    },
    {
      "name": "Ｕフーズ",
      "name_kana": "",
      "business_type": "食肉処理業",
      "address": "岐阜県高山市国府町三川１３４１－４",
      "lat": 36.189083,
      "lng": 137.264385,
      "geocoding_level": 3,
      "phone": "0577-72-3943",
      "license_no": "62000120",
      "license_date": "2021-08-18",
      "expire_date": "2026-08-31"
    },
    {
      "name": "有限会社尾﨑餅店",
      "name_kana": "",
      "business_type": "菓子製造業",
      "address": "岐阜県高山市国府町三日町４０３－１",
      "lat": 36.216797405,
      "lng": 137.215161806,
      "geocoding_level": 8,
      "phone": "0577-72-2329",
      "license_no": "62000121",
      "license_date": "2021-08-18",
      "expire_date": "2026-08-31"
    },
    {
      "name": "和樹",
      "name_kana": "",
      "business_type": "飲食店営業",
      "address": "岐阜県高山市国府町上広瀬２５５",
      "lat": 36.20361,
      "lng": 137.252048,
      "geocoding_level": 3,
      "phone": "0577-72-4012",
      "license_no": "62000122",
      "license_date": "2021-08-18",
      "expire_date": "2026-08-31"
    },
    {
      "name": "須田病院",
      "name_kana": "",
      "business_type": "飲食店営業",
      "address": "岐阜県高山市国府町村山２３５－５",
      "lat": 36.194248,
      "lng": 137.251935,
      "geocoding_level": 3,
      "phone": "0577-72-2762",
      "license_no": "62000123",
      "license_date": "2021-08-18",
      "expire_date": "2026-08-31"
    },
    {
      "name": "ペンション平川",
      "name_kana": "",
      "business_type": "飲食店営業",
      "address": "岐阜県高山市上宝町荒原１０８９－４",
      "lat": 36.26736900000001,
      "lng": 137.273955,
      "geocoding_level": 3,
      "phone": "0578-86-2235",
      "license_no": "62000124",
      "license_date": "2021-08-18",
      "expire_date": "2026-08-31"
    },
    {
      "name": "ままみぃ",
      "name_kana": "",
      "business_type": "菓子製造業",
      "address": "岐阜県高山市上宝町在家１８０５－１",
      "lat": 36.269763,
      "lng": 137.36885,
      "geocoding_level": 3,
      "phone": "080-5122-9585",
      "license_no": "62000125",
      "license_date": "2021-08-18",
      "expire_date": "2026-08-31"
    },
    {
      "name": "Ｃａｆｅ＆Ｓｈｏｐ　和仁の蔵",
      "name_kana": "",
      "business_type": "飲食店営業",
      "address": "岐阜県高山市上宝町中山５３",
      "lat": 36.300839,
      "lng": 137.388182,
      "geocoding_level": 3,
      "phone": "0578-86-2656",
      "license_no": "62000126",
      "license_date": "2021-08-18",
      "expire_date": "2026-08-31"
    },
    {
      "name": "有限会社奥飛騨ガーデンホテル焼岳",
      "name_kana": "",
      "business_type": "飲食店営業",
      "address": "岐阜県高山市奥飛騨温泉郷一重ケ根２４９８－１",
      "lat": 36.219577,
      "lng": 137.556097,
      "geocoding_level": 3,
      "phone": "0578-89-2811",
      "license_no": "62000236",
      "license_date": "2021-08-18",
      "expire_date": "2026-08-31"
    },
    {
      "name": "有限会社奥飛騨ガーデンホテル焼岳",
      "name_kana": "",
      "business_type": "飲食店営業",
      "address": "岐阜県高山市奥飛騨温泉郷一重ケ根２４９８－１",
      "lat": 36.219577,
      "lng": 137.556097,
      "geocoding_level": 3,
      "phone": "0578-89-2811",
      "license_no": "62000237",
      "license_date": "2021-08-18",
      "expire_date": "2026-08-31"
    },
    {
      "name": "有限会社奥飛騨ガーデンホテル焼岳",
      "name_kana": "",
      "business_type": "そうざい製造業",
      "address": "岐阜県高山市奥飛騨温泉郷一重ケ根２４９８－１",
      "lat": 36.219577,
      "lng": 137.556097,
      "geocoding_level": 3,
      "phone": "0578-89-2811",
      "license_no": "62000238",
      "license_date": "2021-08-18",
      "expire_date": "2026-08-31"
    },
    {
      "name": "焼鳥とりじ",
      "name_kana": "",
      "business_type": "飲食店営業",
      "address": "岐阜県高山市下林町６４７－２",
      "lat": 36.152546,
      "lng": 137.220681,
      "geocoding_level": 3,
      "phone": "0577-77-9580",
      "license_no": "62000243",
      "license_date": "2021-08-27",
      "expire_date": "2026-11-30"
    },
    {
      "name": "桐生珈琲高山下岡本店",
      "name_kana": "",
      "business_type": "飲食店営業",
      "address": "岐阜県高山市下岡本町９００－８",
      "lat": 36.151665,
      "lng": 137.2409,
      "geocoding_level": 3,
      "phone": "0577-70-8874",
      "license_no": "62000246",
      "license_date": "2021-09-24",
      "expire_date": "2027-02-28"
    },
    {
      "name": "桐生珈琲ルビットタウン高山店",
      "name_kana": "",
      "business_type": "飲食店営業",
      "address": "岐阜県高山市岡本町３丁目１８－２　ルビットタウン高山店１階",
      "lat": 36.148463,
      "lng": 137.246281,
      "geocoding_level": 3,
      "phone": "0577-36-5001",
      "license_no": "62000247",
      "license_date": "2021-09-13",
      "expire_date": "2027-02-28"
    },
    {
      "name": "国八食堂",
      "name_kana": "",
      "business_type": "飲食店営業",
      "address": "岐阜県高山市下切町１４４１－３",
      "lat": 36.180573,
      "lng": 137.245524,
      "geocoding_level": 3,
      "phone": "0577-33-5171",
      "license_no": "62000248",
      "license_date": "2021-09-13",
      "expire_date": "2027-02-28"
    },
    {
      "name": "国八食堂",
      "name_kana": "",
      "business_type": "食肉処理業",
      "address": "岐阜県高山市下切町１４４１－３",
      "lat": 36.180573,
      "lng": 137.245524,
      "geocoding_level": 3,
      "phone": "0577-33-5171",
      "license_no": "62000249",
      "license_date": "2021-09-13",
      "expire_date": "2027-02-28"
    },
    {
      "name": "メモリアルレジデンス高山",
      "name_kana": "",
      "business_type": "飲食店営業",
      "address": "岐阜県高山市下岡本町１２００－１",
      "lat": 36.151665,
      "lng": 137.2409,
      "geocoding_level": 3,
      "phone": "0577-57-5700",
      "license_no": "62000254",
      "license_date": "2021-09-22",
      "expire_date": "2027-02-28"
    },
    {
      "name": "多幸屋",
      "name_kana": "",
      "business_type": "飲食店営業",
      "address": "岐阜県高山市国府町瓜巣２７８－３",
      "lat": 36.180462,
      "lng": 137.186649,
      "geocoding_level": 3,
      "phone": "0577-72-5778",
      "license_no": "62000257",
      "license_date": "2021-09-22",
      "expire_date": "2027-08-31"
    },
    {
      "name": "フローラメモリアルホールひだ",
      "name_kana": "",
      "business_type": "飲食店営業",
      "address": "岐阜県高山市下切町２２７",
      "lat": 36.180573,
      "lng": 137.245524,
      "geocoding_level": 3,
      "phone": "0577-33-0052",
      "license_no": "62000258",
      "license_date": "2021-09-29",
      "expire_date": "2027-02-28"
    },
    {
      "name": "フローラメモリアルホール高山",
      "name_kana": "",
      "business_type": "飲食店営業",
      "address": "岐阜県高山市石浦町４丁目１０４番地",
      "lat": 36.114805,
      "lng": 137.267595,
      "geocoding_level": 3,
      "phone": "0577-33-0036",
      "license_no": "62000259",
      "license_date": "2021-09-29",
      "expire_date": "2026-11-30"
    },
    {
      "name": "スナック浄",
      "name_kana": "",
      "business_type": "飲食店営業",
      "address": "岐阜県高山市初田町１丁目２２番地　あすなろびる１階",
      "lat": 36.143683,
      "lng": 137.253502,
      "geocoding_level": 3,
      "phone": "0577-35-5584",
      "license_no": "62000260",
      "license_date": "2021-09-28",
      "expire_date": "2027-02-28"
    },
    {
      "name": "藍花珈琲店",
      "name_kana": "",
      "business_type": "菓子製造業",
      "address": "岐阜県高山市上三之町９３",
      "lat": 36.141690000000004,
      "lng": 137.259514,
      "geocoding_level": 3,
      "phone": "0577-32-3887",
      "license_no": "62000261",
      "license_date": "2021-09-29",
      "expire_date": "2026-11-30"
    },
    {
      "name": "でこなる座",
      "name_kana": "",
      "business_type": "飲食店営業",
      "address": "岐阜県高山市本町３丁目３８　イータウン内",
      "lat": 36.14386,
      "lng": 137.25734,
      "geocoding_level": 3,
      "phone": "0577-57-5788",
      "license_no": "62000262",
      "license_date": "2021-09-28",
      "expire_date": "2027-02-28"
    },
    {
      "name": "三川屋本店",
      "name_kana": "",
      "business_type": "飲食店営業",
      "address": "岐阜県高山市上三之町４３番地",
      "lat": 36.141690000000004,
      "lng": 137.259514,
      "geocoding_level": 3,
      "phone": "0577-32-0536",
      "license_no": "62000263",
      "license_date": "2021-09-28",
      "expire_date": "2026-11-30"
    },
    {
      "name": "Ｂａｒ　Ｈａｎｇ　Ｏｕｔ",
      "name_kana": "",
      "business_type": "飲食店営業",
      "address": "岐阜県高山市朝日町２４－１",
      "lat": 36.143769,
      "lng": 137.256237,
      "geocoding_level": 3,
      "phone": "",
      "license_no": "62000267",
      "license_date": "2021-10-06",
      "expire_date": "2027-02-28"
    },
    {
      "name": "寛ぎの舎　游",
      "name_kana": "",
      "business_type": "食肉販売業",
      "address": "岐阜県高山市奥飛騨温泉郷一重ケ根２００－２２８",
      "lat": 36.219577,
      "lng": 137.556097,
      "geocoding_level": 3,
      "phone": "0578-89-3345",
      "license_no": "62000268",
      "license_date": "2021-09-30",
      "expire_date": "2027-08-31"
    },
    {
      "name": "寛ぎの舎　游",
      "name_kana": "",
      "business_type": "そうざい製造業",
      "address": "岐阜県高山市奥飛騨温泉郷一重ケ根２００－２２８",
      "lat": 36.219577,
      "lng": 137.556097,
      "geocoding_level": 3,
      "phone": "0578-89-3345",
      "license_no": "62000269",
      "license_date": "2021-09-30",
      "expire_date": "2027-08-31"
    },
    {
      "name": "日々是好日",
      "name_kana": "",
      "business_type": "飲食店営業",
      "address": "岐阜県高山市下三之町７０－２",
      "lat": 36.14463,
      "lng": 137.258257,
      "geocoding_level": 3,
      "phone": "",
      "license_no": "62000272",
      "license_date": "2021-10-11",
      "expire_date": "2027-02-28"
    },
    {
      "name": "ｍｏｏｎ　ｔａｐ　ｂｅｅｒ",
      "name_kana": "",
      "business_type": "飲食店営業",
      "address": "岐阜県高山市総和町１丁目５０－１５",
      "lat": 36.143696,
      "lng": 137.254628,
      "geocoding_level": 3,
      "phone": "090-4468-9862",
      "license_no": "62000273",
      "license_date": "2021-10-11",
      "expire_date": "2027-02-28"
    },
    {
      "name": "食堂カフェ　菊屋",
      "name_kana": "",
      "business_type": "飲食店営業",
      "address": "岐阜県高山市国府町広瀬町９７７",
      "lat": 36.211772,
      "lng": 137.213982,
      "geocoding_level": 3,
      "phone": "0577-72-5365",
      "license_no": "62000274",
      "license_date": "2021-10-12",
      "expire_date": "2027-08-31"
    },
    {
      "name": "ちとせ",
      "name_kana": "",
      "business_type": "飲食店営業",
      "address": "岐阜県高山市花里町６丁目１９番地",
      "lat": 36.142155,
      "lng": 137.252298,
      "geocoding_level": 3,
      "phone": "0577-32-1056",
      "license_no": "62000280",
      "license_date": "2021-10-27",
      "expire_date": "2026-11-30"
    },
    {
      "name": "山田もち店",
      "name_kana": "",
      "business_type": "菓子製造業",
      "address": "岐阜県高山市千島町１１４５",
      "lat": 36.122284,
      "lng": 137.25097900000003,
      "geocoding_level": 3,
      "phone": "0577-33-7633",
      "license_no": "62000282",
      "license_date": "2021-10-06",
      "expire_date": "2026-11-30"
    },
    {
      "name": "空色",
      "name_kana": "",
      "business_type": "菓子製造業",
      "address": "岐阜県高山市丹生川町坊方２１００",
      "lat": 36.168462,
      "lng": 137.326686,
      "geocoding_level": 3,
      "phone": "090-4467-2871",
      "license_no": "62000283",
      "license_date": "2021-10-14",
      "expire_date": "2027-05-31"
    },
    {
      "name": "タカタン食堂　学生会館Ａ館",
      "name_kana": "",
      "business_type": "そうざい製造業",
      "address": "岐阜県高山市下林町１１５５番地　高山自動車短期大学構内",
      "lat": 36.152546,
      "lng": 137.220681,
      "geocoding_level": 3,
      "phone": "0577-57-7950",
      "license_no": "62000285",
      "license_date": "2021-10-26",
      "expire_date": "2026-11-30"
    },
    {
      "name": "Ｃａｓａ　ｄｅ　Ｂｏｔｃｈｉｎｉ",
      "name_kana": "",
      "business_type": "飲食店営業",
      "address": "岐阜県高山市花里町４丁目６８－６",
      "lat": 36.1395,
      "lng": 137.252505,
      "geocoding_level": 3,
      "phone": "090-7684-5427",
      "license_no": "62000287",
      "license_date": "2021-10-26",
      "expire_date": "2026-11-30"
    },
    {
      "name": "定四朗",
      "name_kana": "",
      "business_type": "飲食店営業",
      "address": "岐阜県高山市江名子町３８７６－１",
      "lat": 36.125367,
      "lng": 137.280878,
      "geocoding_level": 3,
      "phone": "0577-36-5477",
      "license_no": "62000289",
      "license_date": "2021-11-02",
      "expire_date": "2026-11-30"
    },
    {
      "name": "麺処さくら",
      "name_kana": "",
      "business_type": "飲食店営業",
      "address": "岐阜県高山市国府町金桶６４－１",
      "lat": 36.19888,
      "lng": 137.230864,
      "geocoding_level": 3,
      "phone": "0577-72-2038",
      "license_no": "62000290",
      "license_date": "2021-11-02",
      "expire_date": "2027-08-31"
    },
    {
      "name": "ＧＬＡＳＳ　ＬＥＬＥ”",
      "name_kana": "",
      "business_type": "飲食店営業",
      "address": "岐阜県高山市末広町３８番地",
      "lat": 36.143763,
      "lng": 137.255418,
      "geocoding_level": 3,
      "phone": "080-3340-1587",
      "license_no": "62000292",
      "license_date": "2021-11-02",
      "expire_date": "2027-02-28"
    },
    {
      "name": "環　ｔａｍａｋｉ",
      "name_kana": "",
      "business_type": "菓子製造業",
      "address": "岐阜県高山市国府町漆垣内７８",
      "lat": 36.221335765,
      "lng": 137.232961092,
      "geocoding_level": 8,
      "phone": "0577-77-9447",
      "license_no": "62000293",
      "license_date": "2021-11-02",
      "expire_date": "2027-08-31"
    },
    {
      "name": "ｍｕｋū",
      "name_kana": "",
      "business_type": "飲食店営業",
      "address": "岐阜県高山市馬場町２丁目７０－３",
      "lat": 36.142947,
      "lng": 137.262278,
      "geocoding_level": 3,
      "phone": "090-6087-4623",
      "license_no": "62000295",
      "license_date": "2021-11-09",
      "expire_date": "2026-11-30"
    },
    {
      "name": "株式会社山水庵",
      "name_kana": "",
      "business_type": "そうざい製造業",
      "address": "岐阜県高山市越後町１８８１－２",
      "lat": 36.108101,
      "lng": 137.234535,
      "geocoding_level": 3,
      "phone": "0577-34-7701",
      "license_no": "62000296",
      "license_date": "2021-11-12",
      "expire_date": "2026-11-30"
    },
    {
      "name": "チサングランド高山",
      "name_kana": "",
      "business_type": "飲食店営業",
      "address": "岐阜県高山市花里町６丁目６番地",
      "lat": 36.142155,
      "lng": 137.252298,
      "geocoding_level": 3,
      "phone": "0577-37-1011",
      "license_no": "62000297",
      "license_date": "2021-11-09",
      "expire_date": "2026-11-30"
    },
    {
      "name": "キナリ木工所　ｋｉｎａｒｉ－ｔｅｎ",
      "name_kana": "",
      "business_type": "飲食店営業",
      "address": "岐阜県高山市上岡本町７丁目２１４番",
      "lat": 36.144092,
      "lng": 137.241414,
      "geocoding_level": 3,
      "phone": "0577-77-9707",
      "license_no": "62000298",
      "license_date": "2021-11-09",
      "expire_date": "2026-11-30"
    },
    {
      "name": "木花木花",
      "name_kana": "",
      "business_type": "飲食店営業",
      "address": "岐阜県高山市奥飛騨温泉郷福地８３４番地",
      "lat": 36.21672300000001,
      "lng": 137.521035,
      "geocoding_level": 3,
      "phone": "050-3561-8898",
      "license_no": "62000299",
      "license_date": "2021-11-04",
      "expire_date": "2027-08-31"
    },
    {
      "name": "灯り家の「はなれ」",
      "name_kana": "",
      "business_type": "飲食店営業",
      "address": "岐阜県高山市花里町６丁目９－１",
      "lat": 36.142155,
      "lng": 137.252298,
      "geocoding_level": 3,
      "phone": "0577-32-2911",
      "license_no": "62000300",
      "license_date": "2021-11-15",
      "expire_date": "2026-11-30"
    },
    {
      "name": "音色",
      "name_kana": "",
      "business_type": "飲食店営業",
      "address": "岐阜県高山市本町３丁目５８－３",
      "lat": 36.14386,
      "lng": 137.25734,
      "geocoding_level": 3,
      "phone": "080-2666-6038",
      "license_no": "62000301",
      "license_date": "2021-11-22",
      "expire_date": "2027-02-28"
    },
    {
      "name": "つくしんぼ",
      "name_kana": "",
      "business_type": "飲食店営業",
      "address": "岐阜県高山市大洞町３８４－１",
      "lat": 36.156821,
      "lng": 137.30412,
      "geocoding_level": 3,
      "phone": "090-6809-7236",
      "license_no": "62000302",
      "license_date": "2021-11-22",
      "expire_date": "2027-02-28"
    },
    {
      "name": "飛騨季節料理　肴",
      "name_kana": "",
      "business_type": "飲食店営業",
      "address": "岐阜県高山市越後町１１２６－１",
      "lat": 36.108101,
      "lng": 137.234535,
      "geocoding_level": 3,
      "phone": "0577-36-1288",
      "license_no": "62000306",
      "license_date": "2021-11-18",
      "expire_date": "2026-11-30"
    },
    {
      "name": "飛騨季節料理　肴",
      "name_kana": "",
      "business_type": "食肉販売業",
      "address": "岐阜県高山市越後町１１２６－１",
      "lat": 36.108101,
      "lng": 137.234535,
      "geocoding_level": 3,
      "phone": "0577-36-1288",
      "license_no": "62000307",
      "license_date": "2021-11-18",
      "expire_date": "2026-11-30"
    },
    {
      "name": "飛騨季節料理　肴",
      "name_kana": "",
      "business_type": "そうざい製造業",
      "address": "岐阜県高山市越後町１１２６－１",
      "lat": 36.108101,
      "lng": 137.234535,
      "geocoding_level": 3,
      "phone": "0577-36-1288",
      "license_no": "62000308",
      "license_date": "2021-11-18",
      "expire_date": "2026-11-30"
    },
    {
      "name": "飛騨季節料理　肴",
      "name_kana": "",
      "business_type": "漬物製造業",
      "address": "岐阜県高山市越後町１１２６－１",
      "lat": 36.108101,
      "lng": 137.234535,
      "geocoding_level": 3,
      "phone": "0577-36-1288",
      "license_no": "62000309",
      "license_date": "2021-11-18",
      "expire_date": "2026-11-30"
    },
    {
      "name": "井ノ口商店",
      "name_kana": "",
      "business_type": "みそ又はしょうゆ製造業",
      "address": "岐阜県高山市西之一色町３丁目１３４４",
      "lat": 36.129692,
      "lng": 137.243904,
      "geocoding_level": 3,
      "phone": "0577-33-9538",
      "license_no": "62000310",
      "license_date": "2021-11-18",
      "expire_date": "2026-11-30"
    },
    {
      "name": "井ノ口商店",
      "name_kana": "",
      "business_type": "漬物製造業",
      "address": "岐阜県高山市西之一色町３丁目１３４４",
      "lat": 36.129692,
      "lng": 137.243904,
      "geocoding_level": 3,
      "phone": "0577-33-9538",
      "license_no": "62000311",
      "license_date": "2021-11-18",
      "expire_date": "2026-11-30"
    },
    {
      "name": "喫茶すきっぷ",
      "name_kana": "",
      "business_type": "飲食店営業",
      "address": "岐阜県高山市西之一色町３丁目１７８７－５",
      "lat": 36.129692,
      "lng": 137.243904,
      "geocoding_level": 3,
      "phone": "0577-34-6900",
      "license_no": "62000312",
      "license_date": "2021-11-18",
      "expire_date": "2026-11-30"
    },
    {
      "name": "飛騨高山・まつりの森",
      "name_kana": "",
      "business_type": "飲食店営業",
      "address": "岐阜県高山市千島町１１１１番地",
      "lat": 36.122284,
      "lng": 137.25097900000003,
      "geocoding_level": 3,
      "phone": "0577-37-1000",
      "license_no": "62000313",
      "license_date": "2021-11-18",
      "expire_date": "2026-11-30"
    },
    {
      "name": "飛騨小町加工場",
      "name_kana": "",
      "business_type": "密封包装食品製造業",
      "address": "岐阜県高山市松倉町２６１８－６",
      "lat": 36.111752,
      "lng": 137.216522,
      "geocoding_level": 3,
      "phone": "0577-32-0318",
      "license_no": "62000314",
      "license_date": "2021-11-18",
      "expire_date": "2026-11-30"
    },
    {
      "name": "ロッテリアピュア高山店",
      "name_kana": "",
      "business_type": "飲食店営業",
      "address": "岐阜県高山市西之一色町３丁目１１３５",
      "lat": 36.129692,
      "lng": 137.243904,
      "geocoding_level": 3,
      "phone": "0577-35-0988",
      "license_no": "62000315",
      "license_date": "2021-11-18",
      "expire_date": "2026-11-30"
    },
    {
      "name": "ピッキン",
      "name_kana": "",
      "business_type": "飲食店営業",
      "address": "岐阜県高山市花里町３丁目３４－１",
      "lat": 36.137597,
      "lng": 137.252656,
      "geocoding_level": 3,
      "phone": "0577-34-6684",
      "license_no": "62000316",
      "license_date": "2021-11-18",
      "expire_date": "2026-11-30"
    },
    {
      "name": "居酒屋おりじん",
      "name_kana": "",
      "business_type": "飲食店営業",
      "address": "岐阜県高山市花里町４丁目１０８",
      "lat": 36.1395,
      "lng": 137.252505,
      "geocoding_level": 3,
      "phone": "0577-36-4655",
      "license_no": "62000318",
      "license_date": "2021-11-18",
      "expire_date": "2026-11-30"
    },
    {
      "name": "かやく家",
      "name_kana": "",
      "business_type": "飲食店営業",
      "address": "岐阜県高山市花里町４丁目６４",
      "lat": 36.1395,
      "lng": 137.252505,
      "geocoding_level": 3,
      "phone": "0577-34-2434",
      "license_no": "62000319",
      "license_date": "2021-11-18",
      "expire_date": "2026-11-30"
    },
    {
      "name": "コーヒー４～６５",
      "name_kana": "",
      "business_type": "飲食店営業",
      "address": "岐阜県高山市花里町４丁目６５",
      "lat": 36.1395,
      "lng": 137.252505,
      "geocoding_level": 3,
      "phone": "0577-34-1011",
      "license_no": "62000320",
      "license_date": "2021-11-18",
      "expire_date": "2026-11-30"
    },
    {
      "name": "Ｉｆ珈琲店",
      "name_kana": "",
      "business_type": "飲食店営業",
      "address": "岐阜県高山市花里町５丁目１８",
      "lat": 36.140814,
      "lng": 137.252719,
      "geocoding_level": 3,
      "phone": "0577-32-1511",
      "license_no": "62000321",
      "license_date": "2021-11-18",
      "expire_date": "2026-11-30"
    },
    {
      "name": "八角亭",
      "name_kana": "",
      "business_type": "飲食店営業",
      "address": "岐阜県高山市花里町５丁目１９",
      "lat": 36.140814,
      "lng": 137.252719,
      "geocoding_level": 3,
      "phone": "0577-32-8009",
      "license_no": "62000322",
      "license_date": "2021-11-18",
      "expire_date": "2026-11-30"
    },
    {
      "name": "ＥＶＩＬＴＥＸ（イーブルテクス）",
      "name_kana": "",
      "business_type": "飲食店営業",
      "address": "岐阜県高山市花里町６丁目１９　アルコーブ花里　１階",
      "lat": 36.142155,
      "lng": 137.252298,
      "geocoding_level": 3,
      "phone": "0577-57-5888",
      "license_no": "62000323",
      "license_date": "2021-11-18",
      "expire_date": "2026-11-30"
    },
    {
      "name": "飛騨",
      "name_kana": "",
      "business_type": "飲食店営業",
      "address": "岐阜県高山市花里町５丁目２２",
      "lat": 36.140814,
      "lng": 137.252719,
      "geocoding_level": 3,
      "phone": "0577-32-1820",
      "license_no": "62000324",
      "license_date": "2021-11-18",
      "expire_date": "2026-11-30"
    },
    {
      "name": "お宿　古都の夢",
      "name_kana": "",
      "business_type": "飲食店営業",
      "address": "岐阜県高山市花里町６丁目１１",
      "lat": 36.142155,
      "lng": 137.252298,
      "geocoding_level": 3,
      "phone": "0577-32-0427",
      "license_no": "62000325",
      "license_date": "2021-11-18",
      "expire_date": "2026-11-30"
    },
    {
      "name": "すもーる　ふおれすと",
      "name_kana": "",
      "business_type": "飲食店営業",
      "address": "岐阜県高山市花里町６丁目１２１番地",
      "lat": 36.141895467,
      "lng": 137.251717457,
      "geocoding_level": 8,
      "phone": "0577-32-2005",
      "license_no": "62000326",
      "license_date": "2021-11-18",
      "expire_date": "2026-11-30"
    },
    {
      "name": "インド・ネパールレストラン＆バー　ロイヤルナンハウス",
      "name_kana": "",
      "business_type": "飲食店営業",
      "address": "岐阜県高山市花里町６丁目１８　ヤマシタビル１",
      "lat": 36.142155,
      "lng": 137.252298,
      "geocoding_level": 3,
      "phone": "0577-62-9915",
      "license_no": "62000327",
      "license_date": "2021-11-18",
      "expire_date": "2026-11-30"
    },
    {
      "name": "きくのや",
      "name_kana": "",
      "business_type": "飲食店営業",
      "address": "岐阜県高山市花里町６丁目１９－２",
      "lat": 36.142155,
      "lng": 137.252298,
      "geocoding_level": 3,
      "phone": "0577-32-1218",
      "license_no": "62000328",
      "license_date": "2021-11-18",
      "expire_date": "2026-11-30"
    },
    {
      "name": "かめ屋食堂",
      "name_kana": "",
      "business_type": "飲食店営業",
      "address": "岐阜県高山市花里町６丁目２８－８",
      "lat": 36.142155,
      "lng": 137.252298,
      "geocoding_level": 3,
      "phone": "0577-32-0746",
      "license_no": "62000329",
      "license_date": "2021-11-18",
      "expire_date": "2026-11-30"
    },
    {
      "name": "金亀館高山駅店",
      "name_kana": "",
      "business_type": "飲食店営業",
      "address": "岐阜県高山市昭和町１丁目２２－２",
      "lat": 36.140685,
      "lng": 137.250137,
      "geocoding_level": 3,
      "phone": "",
      "license_no": "62000330",
      "license_date": "2021-11-18",
      "expire_date": "2026-11-30"
    },
    {
      "name": "ベルマート高山",
      "name_kana": "",
      "business_type": "飲食店営業",
      "address": "岐阜県高山市昭和町１丁目２２－２",
      "lat": 36.140685,
      "lng": 137.250137,
      "geocoding_level": 3,
      "phone": "0577-36-2166",
      "license_no": "62000331",
      "license_date": "2021-11-18",
      "expire_date": "2026-11-30"
    },
    {
      "name": "焼肉亭　赤なんばん",
      "name_kana": "",
      "business_type": "飲食店営業",
      "address": "岐阜県高山市岡本町１丁目４２－２７",
      "lat": 36.140362,
      "lng": 137.246436,
      "geocoding_level": 3,
      "phone": "0577-35-0505",
      "license_no": "62000333",
      "license_date": "2021-11-18",
      "expire_date": "2026-11-30"
    },
    {
      "name": "大衆焼肉　キリン屋",
      "name_kana": "",
      "business_type": "飲食店営業",
      "address": "岐阜県高山市岡本町２丁目１５４－３",
      "lat": 36.144594,
      "lng": 137.246103,
      "geocoding_level": 3,
      "phone": "0577-36-4820",
      "license_no": "62000335",
      "license_date": "2021-11-18",
      "expire_date": "2027-02-28"
    },
    {
      "name": "居酒屋たけの子",
      "name_kana": "",
      "business_type": "飲食店営業",
      "address": "岐阜県高山市上岡本町４丁目４７２",
      "lat": 36.139589,
      "lng": 137.240623,
      "geocoding_level": 3,
      "phone": "0577-36-2010",
      "license_no": "62000336",
      "license_date": "2021-11-18",
      "expire_date": "2026-11-30"
    },
    {
      "name": "Ｃａｆｅ　風花",
      "name_kana": "",
      "business_type": "飲食店営業",
      "address": "岐阜県高山市上岡本町７丁目１１０－１",
      "lat": 36.144092,
      "lng": 137.241414,
      "geocoding_level": 3,
      "phone": "0577-33-5556",
      "license_no": "62000337",
      "license_date": "2021-11-18",
      "expire_date": "2026-11-30"
    },
    {
      "name": "かかさま料理　かっちゃん",
      "name_kana": "",
      "business_type": "飲食店営業",
      "address": "岐阜県高山市下之切町２４９",
      "lat": 36.149905,
      "lng": 137.20448200000004,
      "geocoding_level": 3,
      "phone": "0577-34-6236",
      "license_no": "62000338",
      "license_date": "2021-11-18",
      "expire_date": "2026-11-30"
    },
    {
      "name": "有限会社イチロクナナ",
      "name_kana": "",
      "business_type": "魚介類販売業",
      "address": "岐阜県高山市新宮町１１１８",
      "lat": 36.126344,
      "lng": 137.213505,
      "geocoding_level": 3,
      "phone": "0577-33-9129",
      "license_no": "62000339",
      "license_date": "2021-11-18",
      "expire_date": "2026-11-30"
    },
    {
      "name": "フィナンシェ",
      "name_kana": "",
      "business_type": "飲食店営業",
      "address": "岐阜県高山市新宮町１１５４－１",
      "lat": 36.126344,
      "lng": 137.213505,
      "geocoding_level": 3,
      "phone": "090-6674-4964",
      "license_no": "62000340",
      "license_date": "2021-11-18",
      "expire_date": "2026-11-30"
    },
    {
      "name": "新宮園",
      "name_kana": "",
      "business_type": "飲食店営業",
      "address": "岐阜県高山市新宮町１３２２－１",
      "lat": 36.126344,
      "lng": 137.213505,
      "geocoding_level": 3,
      "phone": "0577-34-4107",
      "license_no": "62000341",
      "license_date": "2021-11-18",
      "expire_date": "2026-11-30"
    },
    {
      "name": "オーベルジュ　飛騨の森",
      "name_kana": "",
      "business_type": "飲食店営業",
      "address": "岐阜県高山市新宮町３３４９－１",
      "lat": 36.126344,
      "lng": 137.213505,
      "geocoding_level": 3,
      "phone": "0577-34-6575",
      "license_no": "62000342",
      "license_date": "2021-11-18",
      "expire_date": "2026-11-30"
    },
    {
      "name": "甚五郎らーめん　原山工場　そうざい製造部門",
      "name_kana": "",
      "business_type": "そうざい製造業",
      "address": "岐阜県高山市新宮町３７２６－２１",
      "lat": 36.126344,
      "lng": 137.213505,
      "geocoding_level": 3,
      "phone": "0577-32-0500",
      "license_no": "62000344",
      "license_date": "2021-11-18",
      "expire_date": "2026-11-30"
    },
    {
      "name": "ペンションぐっどらっく高山",
      "name_kana": "",
      "business_type": "飲食店営業",
      "address": "岐阜県高山市新宮町４３０２－２３",
      "lat": 36.126344,
      "lng": 137.213505,
      "geocoding_level": 3,
      "phone": "0577-36-3239",
      "license_no": "62000345",
      "license_date": "2021-11-18",
      "expire_date": "2026-11-30"
    },
    {
      "name": "おやど 心",
      "name_kana": "",
      "business_type": "飲食店営業",
      "address": "岐阜県高山市上岡本町１丁目３１９－１",
      "lat": 36.134498,
      "lng": 137.235675,
      "geocoding_level": 3,
      "phone": "0577-32-5560",
      "license_no": "62000346",
      "license_date": "2021-11-18",
      "expire_date": "2026-11-30"
    },
    {
      "name": "喫茶りんでん",
      "name_kana": "",
      "business_type": "飲食店営業",
      "address": "岐阜県高山市西之一色町３丁目６４７－２７",
      "lat": 36.129692,
      "lng": 137.243904,
      "geocoding_level": 3,
      "phone": "0577-33-9950",
      "license_no": "62000347",
      "license_date": "2021-11-18",
      "expire_date": "2026-11-30"
    },
    {
      "name": "砂田だんご",
      "name_kana": "",
      "business_type": "菓子製造業",
      "address": "岐阜県高山市西之一色町３丁目６５９",
      "lat": 36.129692,
      "lng": 137.243904,
      "geocoding_level": 3,
      "phone": "0577-33-8245",
      "license_no": "62000348",
      "license_date": "2021-11-18",
      "expire_date": "2026-11-30"
    },
    {
      "name": "大喜",
      "name_kana": "",
      "business_type": "飲食店営業",
      "address": "岐阜県高山市西之一色町３丁目７７８－２",
      "lat": 36.129692,
      "lng": 137.243904,
      "geocoding_level": 3,
      "phone": "0577-34-1380",
      "license_no": "62000349",
      "license_date": "2021-11-18",
      "expire_date": "2026-11-30"
    },
    {
      "name": "飛騨合掌苑",
      "name_kana": "",
      "business_type": "飲食店営業",
      "address": "岐阜県高山市西之一色町３丁目８２９番地",
      "lat": 36.129692,
      "lng": 137.243904,
      "geocoding_level": 3,
      "phone": "0577-32-3131",
      "license_no": "62000350",
      "license_date": "2021-11-18",
      "expire_date": "2026-11-30"
    },
    {
      "name": "谷清製菓",
      "name_kana": "",
      "business_type": "菓子製造業",
      "address": "岐阜県高山市江名子町２６７－８",
      "lat": 36.125367,
      "lng": 137.280878,
      "geocoding_level": 3,
      "phone": "0577-32-2523",
      "license_no": "62000351",
      "license_date": "2021-11-18",
      "expire_date": "2026-11-30"
    },
    {
      "name": "生鮮　ふいとや",
      "name_kana": "",
      "business_type": "魚介類販売業",
      "address": "岐阜県高山市江名子町２９４－２",
      "lat": 36.125367,
      "lng": 137.280878,
      "geocoding_level": 3,
      "phone": "0577-36-1361",
      "license_no": "62000352",
      "license_date": "2021-11-18",
      "expire_date": "2026-11-30"
    },
    {
      "name": "グレースシニア荏名",
      "name_kana": "",
      "business_type": "飲食店営業",
      "address": "岐阜県高山市江名子町２９８０－１",
      "lat": 36.125367,
      "lng": 137.280878,
      "geocoding_level": 3,
      "phone": "0577-34-4002",
      "license_no": "62000353",
      "license_date": "2021-11-18",
      "expire_date": "2026-11-30"
    },
    {
      "name": "民宿三井",
      "name_kana": "",
      "business_type": "飲食店営業",
      "address": "岐阜県高山市江名子町４３５９",
      "lat": 36.125367,
      "lng": 137.280878,
      "geocoding_level": 3,
      "phone": "0577-32-3864",
      "license_no": "62000354",
      "license_date": "2021-11-18",
      "expire_date": "2026-11-30"
    },
    {
      "name": "無盡灯",
      "name_kana": "",
      "business_type": "飲食店営業",
      "address": "岐阜県高山市山口町１２９１－１０",
      "lat": 36.126714,
      "lng": 137.298838,
      "geocoding_level": 3,
      "phone": "0577-33-9334",
      "license_no": "62000356",
      "license_date": "2021-11-18",
      "expire_date": "2026-11-30"
    },
    {
      "name": "ペンション　はなつばき",
      "name_kana": "",
      "business_type": "飲食店営業",
      "address": "岐阜県高山市山口町１３８４－８",
      "lat": 36.126714,
      "lng": 137.298838,
      "geocoding_level": 3,
      "phone": "0577-32-8718",
      "license_no": "62000357",
      "license_date": "2021-11-18",
      "expire_date": "2026-11-30"
    },
    {
      "name": "飛騨高山うるっこ",
      "name_kana": "",
      "business_type": "菓子製造業",
      "address": "岐阜県高山市漆垣内町６０２番地",
      "lat": 36.146083,
      "lng": 137.295146,
      "geocoding_level": 3,
      "phone": "090-5103-6039",
      "license_no": "62000358",
      "license_date": "2021-11-18",
      "expire_date": "2026-11-30"
    },
    {
      "name": "ホテルビエラリゾート",
      "name_kana": "",
      "business_type": "飲食店営業",
      "address": "岐阜県高山市松之木町１２６８－３",
      "lat": 36.151716,
      "lng": 137.281217,
      "geocoding_level": 3,
      "phone": "0577-33-1241",
      "license_no": "62000359",
      "license_date": "2021-11-18",
      "expire_date": "2026-11-30"
    },
    {
      "name": "大鳳堂",
      "name_kana": "",
      "business_type": "菓子製造業",
      "address": "岐阜県高山市松之木町２０８－２",
      "lat": 36.151716,
      "lng": 137.281217,
      "geocoding_level": 3,
      "phone": "0577-32-0653",
      "license_no": "62000360",
      "license_date": "2021-11-18",
      "expire_date": "2026-11-30"
    },
    {
      "name": "エブリ東山店　フレッシュラボ高山",
      "name_kana": "",
      "business_type": "飲食店営業",
      "address": "岐阜県高山市松之木町２８３－１",
      "lat": 36.151716,
      "lng": 137.281217,
      "geocoding_level": 3,
      "phone": "0577-37-2960",
      "license_no": "62000361",
      "license_date": "2021-11-18",
      "expire_date": "2026-11-30"
    },
    {
      "name": "ＡＭＢＥＲ",
      "name_kana": "",
      "business_type": "飲食店営業",
      "address": "岐阜県高山市松之木町３１９８番地",
      "lat": 36.151716,
      "lng": 137.281217,
      "geocoding_level": 3,
      "phone": "090-3300-5184",
      "license_no": "62000362",
      "license_date": "2021-11-18",
      "expire_date": "2026-11-30"
    },
    {
      "name": "くぬぎそば",
      "name_kana": "",
      "business_type": "飲食店営業",
      "address": "岐阜県高山市松之木町３２００",
      "lat": 36.151716,
      "lng": 137.281217,
      "geocoding_level": 3,
      "phone": "0577-32-5619",
      "license_no": "62000363",
      "license_date": "2021-11-18",
      "expire_date": "2026-11-30"
    },
    {
      "name": "杉養蜂園　飛騨高山上一之町店",
      "name_kana": "",
      "business_type": "飲食店営業",
      "address": "岐阜県高山市上一之町１",
      "lat": 36.141835,
      "lng": 137.261385,
      "geocoding_level": 3,
      "phone": "0577-36-9538",
      "license_no": "62000364",
      "license_date": "2021-11-18",
      "expire_date": "2026-11-30"
    },
    {
      "name": "日下部味噌醤油醸造",
      "name_kana": "",
      "business_type": "そうざい製造業",
      "address": "岐阜県高山市上一之町９０番地",
      "lat": 36.141835,
      "lng": 137.261385,
      "geocoding_level": 3,
      "phone": "0577-32-0122",
      "license_no": "62000366",
      "license_date": "2021-11-18",
      "expire_date": "2026-11-30"
    },
    {
      "name": "日下部味噌醤油醸造",
      "name_kana": "",
      "business_type": "漬物製造業",
      "address": "岐阜県高山市上一之町９０番地",
      "lat": 36.141835,
      "lng": 137.261385,
      "geocoding_level": 3,
      "phone": "0577-32-0122",
      "license_no": "62000367",
      "license_date": "2021-11-18",
      "expire_date": "2026-11-30"
    },
    {
      "name": "ＣＥＮＴＥＲ４",
      "name_kana": "",
      "business_type": "飲食店営業",
      "address": "岐阜県高山市上一之町９４",
      "lat": 36.141835,
      "lng": 137.261385,
      "geocoding_level": 3,
      "phone": "0577-36-4527",
      "license_no": "62000368",
      "license_date": "2021-11-18",
      "expire_date": "2026-11-30"
    },
    {
      "name": "（株）創寫舘ＮＡＧＡＳＥ",
      "name_kana": "",
      "business_type": "飲食店営業",
      "address": "岐阜県高山市上二之町１０－３",
      "lat": 36.14174,
      "lng": 137.260313,
      "geocoding_level": 3,
      "phone": "0577-35-9000",
      "license_no": "62000369",
      "license_date": "2021-11-18",
      "expire_date": "2026-11-30"
    },
    {
      "name": "寿楽久　さんまち店",
      "name_kana": "",
      "business_type": "飲食店営業",
      "address": "岐阜県高山市上二之町７７－３番地",
      "lat": 36.14174,
      "lng": 137.260313,
      "geocoding_level": 3,
      "phone": "0577-33-4373",
      "license_no": "62000370",
      "license_date": "2021-11-18",
      "expire_date": "2026-11-30"
    },
    {
      "name": "寿楽久　さんまち店",
      "name_kana": "",
      "business_type": "そうざい製造業",
      "address": "岐阜県高山市上二之町７７－３番地",
      "lat": 36.14174,
      "lng": 137.260313,
      "geocoding_level": 3,
      "phone": "0577-33-4373",
      "license_no": "62000371",
      "license_date": "2021-11-18",
      "expire_date": "2026-11-30"
    },
    {
      "name": "ファミリーマート高山上二之町店",
      "name_kana": "",
      "business_type": "飲食店営業",
      "address": "岐阜県高山市上二之町８０",
      "lat": 36.14174,
      "lng": 137.260313,
      "geocoding_level": 3,
      "phone": "0577-36-6166",
      "license_no": "62000372",
      "license_date": "2021-11-18",
      "expire_date": "2026-11-30"
    },
    {
      "name": "むさし",
      "name_kana": "",
      "business_type": "飲食店営業",
      "address": "岐阜県高山市城山１－１",
      "lat": 36.136095,
      "lng": 137.26243,
      "geocoding_level": 3,
      "phone": "0577-32-0634",
      "license_no": "62000373",
      "license_date": "2021-11-18",
      "expire_date": "2026-11-30"
    },
    {
      "name": "洲さき",
      "name_kana": "",
      "business_type": "そうざい製造業",
      "address": "岐阜県高山市神明町４丁目１４番地",
      "lat": 36.139304,
      "lng": 137.260703,
      "geocoding_level": 3,
      "phone": "0577-32-0023",
      "license_no": "62000374",
      "license_date": "2021-11-18",
      "expire_date": "2026-11-30"
    },
    {
      "name": "飛騨高山二人静白雲",
      "name_kana": "",
      "business_type": "飲食店営業",
      "address": "岐阜県高山市堀端町６７番地",
      "lat": 36.140446,
      "lng": 137.26266,
      "geocoding_level": 3,
      "phone": "0577-32-7666",
      "license_no": "62000375",
      "license_date": "2021-11-18",
      "expire_date": "2026-11-30"
    },
    {
      "name": "鮮魚牛丸",
      "name_kana": "",
      "business_type": "魚介類販売業",
      "address": "岐阜県高山市島川原町１４－９",
      "lat": 36.140696,
      "lng": 137.26441,
      "geocoding_level": 3,
      "phone": "0577-35-0896",
      "license_no": "62000376",
      "license_date": "2021-11-18",
      "expire_date": "2026-11-30"
    },
    {
      "name": "ＷＡ・ＳＡ・ＢＩ",
      "name_kana": "",
      "business_type": "飲食店営業",
      "address": "岐阜県高山市馬場町２丁目１８",
      "lat": 36.142947,
      "lng": 137.262278,
      "geocoding_level": 3,
      "phone": "0577-32-8735",
      "license_no": "62000377",
      "license_date": "2021-11-18",
      "expire_date": "2026-11-30"
    },
    {
      "name": "だいこく屋",
      "name_kana": "",
      "business_type": "飲食店営業",
      "address": "岐阜県高山市天性寺町２",
      "lat": 36.143579,
      "lng": 137.266001,
      "geocoding_level": 3,
      "phone": "0577-35-1227",
      "license_no": "62000378",
      "license_date": "2021-11-18",
      "expire_date": "2026-11-30"
    },
    {
      "name": "ごっつおや",
      "name_kana": "",
      "business_type": "飲食店営業",
      "address": "岐阜県高山市天性寺町２５",
      "lat": 36.143579,
      "lng": 137.266001,
      "geocoding_level": 3,
      "phone": "0577-36-1934",
      "license_no": "62000379",
      "license_date": "2021-11-18",
      "expire_date": "2026-11-30"
    },
    {
      "name": "キッチン　あきがみ",
      "name_kana": "",
      "business_type": "飲食店営業",
      "address": "岐阜県高山市名田町２丁目１１１",
      "lat": 36.13516,
      "lng": 137.255975,
      "geocoding_level": 3,
      "phone": "0577-34-2901",
      "license_no": "62000380",
      "license_date": "2021-11-18",
      "expire_date": "2026-11-30"
    },
    {
      "name": "喫茶ボガ",
      "name_kana": "",
      "business_type": "飲食店営業",
      "address": "岐阜県高山市上一之町５２",
      "lat": 36.141835,
      "lng": 137.261385,
      "geocoding_level": 3,
      "phone": "0577-32-0082",
      "license_no": "62000383",
      "license_date": "2021-11-18",
      "expire_date": "2026-11-30"
    },
    {
      "name": "森林緑々園",
      "name_kana": "",
      "business_type": "菓子製造業",
      "address": "岐阜県高山市上三之町３９",
      "lat": 36.141690000000004,
      "lng": 137.259514,
      "geocoding_level": 3,
      "phone": "0577-32-0312",
      "license_no": "62000384",
      "license_date": "2021-11-18",
      "expire_date": "2026-11-30"
    },
    {
      "name": "脇茶屋",
      "name_kana": "",
      "business_type": "飲食店営業",
      "address": "岐阜県高山市上三之町５２",
      "lat": 36.141690000000004,
      "lng": 137.259514,
      "geocoding_level": 3,
      "phone": "0577-32-0981",
      "license_no": "62000385",
      "license_date": "2021-11-18",
      "expire_date": "2026-11-30"
    },
    {
      "name": "飛騨　大井屋",
      "name_kana": "",
      "business_type": "飲食店営業",
      "address": "岐阜県高山市上三之町６８",
      "lat": 36.141690000000004,
      "lng": 137.259514,
      "geocoding_level": 3,
      "phone": "0577-32-2143",
      "license_no": "62000386",
      "license_date": "2021-11-18",
      "expire_date": "2026-11-30"
    },
    {
      "name": "飛騨　大井屋",
      "name_kana": "",
      "business_type": "菓子製造業",
      "address": "岐阜県高山市上三之町６８",
      "lat": 36.141690000000004,
      "lng": 137.259514,
      "geocoding_level": 3,
      "phone": "0577-32-2143",
      "license_no": "62000387",
      "license_date": "2021-11-18",
      "expire_date": "2026-11-30"
    },
    {
      "name": "手焼煎餅堂",
      "name_kana": "",
      "business_type": "菓子製造業",
      "address": "岐阜県高山市上三之町８５番地",
      "lat": 36.141690000000004,
      "lng": 137.259514,
      "geocoding_level": 3,
      "phone": "0577-33-9613",
      "license_no": "62000388",
      "license_date": "2021-11-18",
      "expire_date": "2026-11-30"
    },
    {
      "name": "さん陣",
      "name_kana": "",
      "business_type": "飲食店営業",
      "address": "岐阜県高山市上三之町９１－４",
      "lat": 36.141690000000004,
      "lng": 137.259514,
      "geocoding_level": 3,
      "phone": "0577-33-1273",
      "license_no": "62000389",
      "license_date": "2021-11-18",
      "expire_date": "2026-11-30"
    },
    {
      "name": "あけぼのや　二之町店",
      "name_kana": "",
      "business_type": "飲食店営業",
      "address": "岐阜県高山市上二之町６５",
      "lat": 36.14174,
      "lng": 137.260313,
      "geocoding_level": 3,
      "phone": "0577-34-1112",
      "license_no": "62000391",
      "license_date": "2021-11-18",
      "expire_date": "2026-11-30"
    },
    {
      "name": "南天",
      "name_kana": "",
      "business_type": "飲食店営業",
      "address": "岐阜県高山市天満町４丁目４５－５",
      "lat": 36.13946,
      "lng": 137.253929,
      "geocoding_level": 3,
      "phone": "0577-36-2768",
      "license_no": "62000393",
      "license_date": "2021-11-18",
      "expire_date": "2026-11-30"
    },
    {
      "name": "（有）飛騨米屋",
      "name_kana": "",
      "business_type": "飲食店営業",
      "address": "岐阜県高山市名田町６丁目４番地",
      "lat": 36.142056,
      "lng": 137.254672,
      "geocoding_level": 3,
      "phone": "0577-32-4034",
      "license_no": "62000394",
      "license_date": "2021-11-18",
      "expire_date": "2026-11-30"
    },
    {
      "name": "アンビシャス",
      "name_kana": "",
      "business_type": "飲食店営業",
      "address": "岐阜県高山市西之一色町２丁目２４－５",
      "lat": 36.136878,
      "lng": 137.249548,
      "geocoding_level": 3,
      "phone": "0577-32-7058",
      "license_no": "62000395",
      "license_date": "2021-11-18",
      "expire_date": "2026-11-30"
    },
    {
      "name": "泰平閣",
      "name_kana": "",
      "business_type": "飲食店営業",
      "address": "岐阜県高山市西之一色町２丁目８３",
      "lat": 36.136878,
      "lng": 137.249548,
      "geocoding_level": 3,
      "phone": "0577-32-3410",
      "license_no": "62000396",
      "license_date": "2021-11-18",
      "expire_date": "2026-11-30"
    },
    {
      "name": "ホテルリゾート凛",
      "name_kana": "",
      "business_type": "飲食店営業",
      "address": "岐阜県高山市石浦町１丁目９７番地",
      "lat": 36.105686000000006,
      "lng": 137.262879,
      "geocoding_level": 3,
      "phone": "0577-34-5411",
      "license_no": "62000397",
      "license_date": "2021-11-18",
      "expire_date": "2026-11-30"
    },
    {
      "name": "本格四川家庭料理　香滿楼",
      "name_kana": "",
      "business_type": "飲食店営業",
      "address": "岐阜県高山市石浦町２丁目２２８",
      "lat": 36.112916,
      "lng": 137.266277,
      "geocoding_level": 3,
      "phone": "0577-35-6858",
      "license_no": "62000398",
      "license_date": "2021-11-18",
      "expire_date": "2026-11-30"
    },
    {
      "name": "株式会社ファミリーストアさとう石浦店",
      "name_kana": "",
      "business_type": "飲食店営業",
      "address": "岐阜県高山市石浦町２丁目３５５－１",
      "lat": 36.112916,
      "lng": 137.266277,
      "geocoding_level": 3,
      "phone": "0577-34-8850",
      "license_no": "62000400",
      "license_date": "2021-11-18",
      "expire_date": "2026-11-30"
    },
    {
      "name": "株式会社ファミリーストアさとう石浦店",
      "name_kana": "",
      "business_type": "魚介類販売業",
      "address": "岐阜県高山市石浦町２丁目３５５－１",
      "lat": 36.112916,
      "lng": 137.266277,
      "geocoding_level": 3,
      "phone": "0577-34-8850",
      "license_no": "62000401",
      "license_date": "2021-11-18",
      "expire_date": "2026-11-30"
    },
    {
      "name": "カフェ・ド・イーグル",
      "name_kana": "",
      "business_type": "飲食店営業",
      "address": "岐阜県高山市石浦町２丁目３９８番地",
      "lat": 36.112916,
      "lng": 137.266277,
      "geocoding_level": 3,
      "phone": "0577-33-0393",
      "license_no": "62000403",
      "license_date": "2021-11-18",
      "expire_date": "2026-11-30"
    },
    {
      "name": "鳥海",
      "name_kana": "",
      "business_type": "飲食店営業",
      "address": "岐阜県高山市石浦町５丁目２５０",
      "lat": 36.11754,
      "lng": 137.26406,
      "geocoding_level": 3,
      "phone": "0577-34-5514",
      "license_no": "62000404",
      "license_date": "2021-11-18",
      "expire_date": "2026-11-30"
    },
    {
      "name": "パオ",
      "name_kana": "",
      "business_type": "飲食店営業",
      "address": "岐阜県高山市石浦町６丁目２０３－２",
      "lat": 36.114776,
      "lng": 137.260635,
      "geocoding_level": 3,
      "phone": "0577-36-2512",
      "license_no": "62000405",
      "license_date": "2021-11-18",
      "expire_date": "2026-11-30"
    },
    {
      "name": "居楽屋　檜",
      "name_kana": "",
      "business_type": "飲食店営業",
      "address": "岐阜県高山市石浦町７丁目５６７番地",
      "lat": 36.122718,
      "lng": 137.26084,
      "geocoding_level": 3,
      "phone": "0577-32-8136",
      "license_no": "62000406",
      "license_date": "2021-11-18",
      "expire_date": "2026-11-30"
    },
    {
      "name": "有限会社中家製菓舗",
      "name_kana": "",
      "business_type": "菓子製造業",
      "address": "岐阜県高山市石浦町８丁目７０",
      "lat": 36.114998,
      "lng": 137.253165,
      "geocoding_level": 3,
      "phone": "0577-34-1020",
      "license_no": "62000407",
      "license_date": "2021-11-18",
      "expire_date": "2026-11-30"
    },
    {
      "name": "古瀬",
      "name_kana": "",
      "business_type": "みそ又はしょうゆ製造業",
      "address": "岐阜県高山市千島町１８０－１",
      "lat": 36.122284,
      "lng": 137.25097900000003,
      "geocoding_level": 3,
      "phone": "0577-33-6084",
      "license_no": "62000408",
      "license_date": "2021-11-18",
      "expire_date": "2026-11-30"
    },
    {
      "name": "古瀬",
      "name_kana": "",
      "business_type": "漬物製造業",
      "address": "岐阜県高山市千島町１８０－１",
      "lat": 36.122284,
      "lng": 137.25097900000003,
      "geocoding_level": 3,
      "phone": "0577-33-6084",
      "license_no": "62000409",
      "license_date": "2021-11-18",
      "expire_date": "2026-11-30"
    },
    {
      "name": "有限会社石本製菓",
      "name_kana": "",
      "business_type": "菓子製造業",
      "address": "岐阜県高山市片野町１丁目２１８",
      "lat": 36.119889,
      "lng": 137.267576,
      "geocoding_level": 3,
      "phone": "0577-33-0477",
      "license_no": "62000411",
      "license_date": "2021-11-18",
      "expire_date": "2026-11-30"
    },
    {
      "name": "真風",
      "name_kana": "",
      "business_type": "飲食店営業",
      "address": "岐阜県高山市片野町６丁目６７－１",
      "lat": 36.128235,
      "lng": 137.25969600000002,
      "geocoding_level": 3,
      "phone": "0577-34-9263",
      "license_no": "62000412",
      "license_date": "2021-11-18",
      "expire_date": "2026-11-30"
    },
    {
      "name": "飛騨えごま本舗",
      "name_kana": "",
      "business_type": "食用油脂製造業",
      "address": "岐阜県高山市石浦町７丁目５８６",
      "lat": 36.122718,
      "lng": 137.26084,
      "geocoding_level": 3,
      "phone": "0577-57-7801",
      "license_no": "62000413",
      "license_date": "2021-11-18",
      "expire_date": "2026-11-30"
    },
    {
      "name": "飛騨えごま本舗",
      "name_kana": "",
      "business_type": "密封包装食品製造業",
      "address": "岐阜県高山市石浦町７丁目５８６",
      "lat": 36.122718,
      "lng": 137.26084,
      "geocoding_level": 3,
      "phone": "0577-57-7801",
      "license_no": "62000414",
      "license_date": "2021-11-18",
      "expire_date": "2026-11-30"
    },
    {
      "name": "ダイニング　ブル",
      "name_kana": "",
      "business_type": "飲食店営業",
      "address": "岐阜県高山市八軒町１丁目３０",
      "lat": 36.138571,
      "lng": 137.257584,
      "geocoding_level": 3,
      "phone": "0577-57-8850",
      "license_no": "62000415",
      "license_date": "2021-11-18",
      "expire_date": "2026-11-30"
    },
    {
      "name": "ブレーメン",
      "name_kana": "",
      "business_type": "菓子製造業",
      "address": "岐阜県高山市八軒町１丁目３４",
      "lat": 36.138571,
      "lng": 137.257584,
      "geocoding_level": 3,
      "phone": "0577-32-3794",
      "license_no": "62000416",
      "license_date": "2021-11-18",
      "expire_date": "2026-11-30"
    },
    {
      "name": "はし善",
      "name_kana": "",
      "business_type": "飲食店営業",
      "address": "岐阜県高山市八軒町１丁目９３",
      "lat": 36.138571,
      "lng": 137.257584,
      "geocoding_level": 3,
      "phone": "0577-32-3821",
      "license_no": "62000417",
      "license_date": "2021-11-18",
      "expire_date": "2026-11-30"
    },
    {
      "name": "食事処脇陣",
      "name_kana": "",
      "business_type": "飲食店営業",
      "address": "岐阜県高山市八軒町１丁目９３－３",
      "lat": 36.138571,
      "lng": 137.257584,
      "geocoding_level": 3,
      "phone": "0577-34-6800",
      "license_no": "62000418",
      "license_date": "2021-11-18",
      "expire_date": "2026-11-30"
    },
    {
      "name": "花庖丁大下",
      "name_kana": "",
      "business_type": "飲食店営業",
      "address": "岐阜県高山市八軒町２丁目２２",
      "lat": 36.138545,
      "lng": 137.256504,
      "geocoding_level": 3,
      "phone": "0577-62-9985",
      "license_no": "62000419",
      "license_date": "2021-11-18",
      "expire_date": "2026-11-30"
    },
    {
      "name": "花庖丁大下",
      "name_kana": "",
      "business_type": "菓子製造業",
      "address": "岐阜県高山市八軒町２丁目２２",
      "lat": 36.138545,
      "lng": 137.256504,
      "geocoding_level": 3,
      "phone": "0577-62-9985",
      "license_no": "62000420",
      "license_date": "2021-11-18",
      "expire_date": "2026-11-30"
    },
    {
      "name": "銀風",
      "name_kana": "",
      "business_type": "飲食店営業",
      "address": "岐阜県高山市八軒町２丁目５２",
      "lat": 36.138545,
      "lng": 137.256504,
      "geocoding_level": 3,
      "phone": "0577-33-0057",
      "license_no": "62000421",
      "license_date": "2021-11-18",
      "expire_date": "2026-11-30"
    },
    {
      "name": "鮨匠",
      "name_kana": "",
      "business_type": "飲食店営業",
      "address": "岐阜県高山市八軒町２丁目６７－２",
      "lat": 36.138545,
      "lng": 137.256504,
      "geocoding_level": 3,
      "phone": "0577-34-6450",
      "license_no": "62000422",
      "license_date": "2021-11-18",
      "expire_date": "2026-11-30"
    },
    {
      "name": "有限会社なるせ",
      "name_kana": "",
      "business_type": "そうざい製造業",
      "address": "岐阜県高山市西之一色町１丁目７３",
      "lat": 36.134377,
      "lng": 137.250509,
      "geocoding_level": 3,
      "phone": "0577-32-1961",
      "license_no": "62000424",
      "license_date": "2021-11-18",
      "expire_date": "2026-11-30"
    },
    {
      "name": "有限会社なるせ",
      "name_kana": "",
      "business_type": "菓子製造業",
      "address": "岐阜県高山市西之一色町１丁目７３",
      "lat": 36.134377,
      "lng": 137.250509,
      "geocoding_level": 3,
      "phone": "0577-32-1961",
      "license_no": "62000425",
      "license_date": "2021-11-18",
      "expire_date": "2026-11-30"
    },
    {
      "name": "トラン・ブルー",
      "name_kana": "",
      "business_type": "菓子製造業",
      "address": "岐阜県高山市西之一色町１丁目７３－５",
      "lat": 36.134377,
      "lng": 137.250509,
      "geocoding_level": 3,
      "phone": "0577-32-3989",
      "license_no": "62000426",
      "license_date": "2021-11-18",
      "expire_date": "2026-11-30"
    },
    {
      "name": "ｃｒｅｐｅ　ｓｈｏｐ　Ｕｎ　ｄｕ　ｐｌａｉｓｉｒ",
      "name_kana": "",
      "business_type": "飲食店営業",
      "address": "岐阜県高山市西之一色町１丁目８２－８",
      "lat": 36.134377,
      "lng": 137.250509,
      "geocoding_level": 3,
      "phone": "0577-35-6878",
      "license_no": "62000427",
      "license_date": "2021-11-18",
      "expire_date": "2026-11-30"
    },
    {
      "name": "株式会社バロー高山南店",
      "name_kana": "",
      "business_type": "食肉販売業",
      "address": "岐阜県高山市花里町２－１１７",
      "lat": 36.135282,
      "lng": 137.253007,
      "geocoding_level": 3,
      "phone": "0577-36-6533",
      "license_no": "62000428",
      "license_date": "2021-11-18",
      "expire_date": "2026-11-30"
    },
    {
      "name": "株式会社バロー高山南店",
      "name_kana": "",
      "business_type": "魚介類販売業",
      "address": "岐阜県高山市花里町２－１１７",
      "lat": 36.135282,
      "lng": 137.253007,
      "geocoding_level": 3,
      "phone": "0577-36-6533",
      "license_no": "62000429",
      "license_date": "2021-11-18",
      "expire_date": "2026-11-30"
    },
    {
      "name": "株式会社バロー高山南店",
      "name_kana": "",
      "business_type": "菓子製造業",
      "address": "岐阜県高山市花里町２－１１７",
      "lat": 36.135282,
      "lng": 137.253007,
      "geocoding_level": 3,
      "phone": "0577-36-6533",
      "license_no": "62000430",
      "license_date": "2021-11-18",
      "expire_date": "2026-11-30"
    },
    {
      "name": "食料品のみちした",
      "name_kana": "",
      "business_type": "魚介類販売業",
      "address": "岐阜県高山市花里町１丁目１５２－１３",
      "lat": 36.131716,
      "lng": 137.251776,
      "geocoding_level": 3,
      "phone": "0577-33-1692",
      "license_no": "62000432",
      "license_date": "2021-11-18",
      "expire_date": "2026-11-30"
    },
    {
      "name": "キッチン飛騨",
      "name_kana": "",
      "business_type": "そうざい製造業",
      "address": "岐阜県高山市本町１丁目６６番地",
      "lat": 36.140377,
      "lng": 137.258026,
      "geocoding_level": 3,
      "phone": "0577-36-2911",
      "license_no": "62000433",
      "license_date": "2021-11-18",
      "expire_date": "2026-11-30"
    },
    {
      "name": "ラビット　ホール（Ｒａｂｂｉｔ　Ｈｏｌｅ）",
      "name_kana": "",
      "business_type": "飲食店営業",
      "address": "岐阜県高山市本町２丁目１６",
      "lat": 36.141964,
      "lng": 137.258044,
      "geocoding_level": 3,
      "phone": "0577-36-3501",
      "license_no": "62000434",
      "license_date": "2021-11-18",
      "expire_date": "2026-11-30"
    },
    {
      "name": "山本龍昇堂（さるぼぼ人形焼き本舗山本屋）",
      "name_kana": "",
      "business_type": "菓子製造業",
      "address": "岐阜県高山市本町２丁目７９",
      "lat": 36.141964,
      "lng": 137.258044,
      "geocoding_level": 3,
      "phone": "0577-32-1179",
      "license_no": "62000435",
      "license_date": "2021-11-18",
      "expire_date": "2026-11-30"
    },
    {
      "name": "梗絲",
      "name_kana": "",
      "business_type": "飲食店営業",
      "address": "岐阜県高山市本町２丁目８２番地",
      "lat": 36.141964,
      "lng": 137.258044,
      "geocoding_level": 3,
      "phone": "0577-37-2039",
      "license_no": "62000436",
      "license_date": "2021-11-18",
      "expire_date": "2026-11-30"
    },
    {
      "name": "クレソン",
      "name_kana": "",
      "business_type": "飲食店営業",
      "address": "岐阜県高山市有楽町４６",
      "lat": 36.141576,
      "lng": 137.257314,
      "geocoding_level": 3,
      "phone": "0577-32-6976",
      "license_no": "62000437",
      "license_date": "2021-11-18",
      "expire_date": "2026-11-30"
    },
    {
      "name": "柳ばし　時空",
      "name_kana": "",
      "business_type": "飲食店営業",
      "address": "岐阜県高山市有楽町４６番地",
      "lat": 36.141576,
      "lng": 137.257314,
      "geocoding_level": 3,
      "phone": "0577-34-8323",
      "license_no": "62000438",
      "license_date": "2021-11-18",
      "expire_date": "2026-11-30"
    },
    {
      "name": "フロール",
      "name_kana": "",
      "business_type": "飲食店営業",
      "address": "岐阜県高山市相生町３７",
      "lat": 36.142345,
      "lng": 137.256988,
      "geocoding_level": 3,
      "phone": "0577-35-0099",
      "license_no": "62000439",
      "license_date": "2021-11-18",
      "expire_date": "2026-11-30"
    },
    {
      "name": "ＴＡＮＶＯ",
      "name_kana": "",
      "business_type": "飲食店営業",
      "address": "岐阜県高山市花川町１５",
      "lat": 36.142002,
      "lng": 137.255808,
      "geocoding_level": 3,
      "phone": "0577-34-3894",
      "license_no": "62000441",
      "license_date": "2021-11-18",
      "expire_date": "2026-11-30"
    },
    {
      "name": "川原せんべい屋",
      "name_kana": "",
      "business_type": "菓子製造業",
      "address": "岐阜県高山市花川町３５",
      "lat": 36.142002,
      "lng": 137.255808,
      "geocoding_level": 3,
      "phone": "0577-33-1814",
      "license_no": "62000442",
      "license_date": "2021-11-18",
      "expire_date": "2026-11-30"
    },
    {
      "name": "天ぷらえび八",
      "name_kana": "",
      "business_type": "飲食店営業",
      "address": "岐阜県高山市相生町４１",
      "lat": 36.142345,
      "lng": 137.256988,
      "geocoding_level": 3,
      "phone": "0577-34-6806",
      "license_no": "62000444",
      "license_date": "2021-11-18",
      "expire_date": "2026-11-30"
    },
    {
      "name": "割烹　なかさい",
      "name_kana": "",
      "business_type": "飲食店営業",
      "address": "岐阜県高山市相生町４４－２",
      "lat": 36.142345,
      "lng": 137.256988,
      "geocoding_level": 3,
      "phone": "0577-34-3802",
      "license_no": "62000445",
      "license_date": "2021-11-18",
      "expire_date": "2026-11-30"
    },
    {
      "name": "旅館田邊",
      "name_kana": "",
      "business_type": "飲食店営業",
      "address": "岐阜県高山市相生町５８",
      "lat": 36.142345,
      "lng": 137.256988,
      "geocoding_level": 3,
      "phone": "0577-32-0529",
      "license_no": "62000446",
      "license_date": "2021-11-18",
      "expire_date": "2026-11-30"
    },
    {
      "name": "ＣＡＦＥ’　ＭＩＯＮ",
      "name_kana": "",
      "business_type": "飲食店営業",
      "address": "岐阜県高山市上岡本町５丁目３７５",
      "lat": 36.138978,
      "lng": 137.236884,
      "geocoding_level": 3,
      "phone": "0577-36-0602",
      "license_no": "62000447",
      "license_date": "2021-11-18",
      "expire_date": "2026-11-30"
    },
    {
      "name": "タカタン食堂　学生会館Ａ館",
      "name_kana": "",
      "business_type": "飲食店営業",
      "address": "岐阜県高山市下林町１１５５番地　高山自動車短期大学構内",
      "lat": 36.152546,
      "lng": 137.220681,
      "geocoding_level": 3,
      "phone": "0577-57-7950",
      "license_no": "62000448",
      "license_date": "2021-11-18",
      "expire_date": "2026-11-30"
    },
    {
      "name": "タカタン食堂　学生会館Ｂ館",
      "name_kana": "",
      "business_type": "飲食店営業",
      "address": "岐阜県高山市下林町１１５５番地　高山自動車短期大学構内",
      "lat": 36.152546,
      "lng": 137.220681,
      "geocoding_level": 3,
      "phone": "0577-57-7950",
      "license_no": "62000449",
      "license_date": "2021-11-18",
      "expire_date": "2026-11-30"
    },
    {
      "name": "𠮷野家４１号線高山店",
      "name_kana": "",
      "business_type": "飲食店営業",
      "address": "岐阜県高山市上岡本町３丁目７８番",
      "lat": 36.140182,
      "lng": 137.24356,
      "geocoding_level": 3,
      "phone": "0577-37-2850",
      "license_no": "62000450",
      "license_date": "2021-11-18",
      "expire_date": "2026-11-30"
    },
    {
      "name": "ファミリーマート高山上岡本町店",
      "name_kana": "",
      "business_type": "飲食店営業",
      "address": "岐阜県高山市上岡本町３丁目３２６番地",
      "lat": 36.140182,
      "lng": 137.24356,
      "geocoding_level": 3,
      "phone": "0577-36-6058",
      "license_no": "62000451",
      "license_date": "2021-11-18",
      "expire_date": "2026-11-30"
    },
    {
      "name": "コンパスグループ・ジャパン高山事業所２１２５５",
      "name_kana": "",
      "business_type": "飲食店営業",
      "address": "岐阜県高山市西之一色町２丁目１８０",
      "lat": 36.136878,
      "lng": 137.249548,
      "geocoding_level": 3,
      "phone": "0577-33-6977",
      "license_no": "62000452",
      "license_date": "2021-11-18",
      "expire_date": "2026-11-30"
    },
    {
      "name": "お宿　まるや",
      "name_kana": "",
      "business_type": "飲食店営業",
      "address": "岐阜県高山市上岡本町５丁目６９７",
      "lat": 36.138978,
      "lng": 137.236884,
      "geocoding_level": 3,
      "phone": "0577-33-6662",
      "license_no": "62000453",
      "license_date": "2021-11-18",
      "expire_date": "2026-11-30"
    },
    {
      "name": "うな信　本店",
      "name_kana": "",
      "business_type": "飲食店営業",
      "address": "岐阜県高山市片原町１８－２",
      "lat": 36.141575,
      "lng": 137.258886,
      "geocoding_level": 3,
      "phone": "0577-32-0846",
      "license_no": "62000454",
      "license_date": "2021-11-18",
      "expire_date": "2026-11-30"
    },
    {
      "name": "たんぽぽ",
      "name_kana": "",
      "business_type": "飲食店営業",
      "address": "岐阜県高山市下林町５１６－３",
      "lat": 36.152546,
      "lng": 137.220681,
      "geocoding_level": 3,
      "phone": "0577-36-1210",
      "license_no": "62000455",
      "license_date": "2021-11-18",
      "expire_date": "2026-11-30"
    },
    {
      "name": "Ｅａｒｔｈ　ｔｏ　Ｔａｂｌｅ",
      "name_kana": "",
      "business_type": "飲食店営業",
      "address": "岐阜県高山市本町３丁目４５",
      "lat": 36.14386,
      "lng": 137.25734,
      "geocoding_level": 3,
      "phone": "080-6124-3684",
      "license_no": "62000457",
      "license_date": "2021-11-26",
      "expire_date": "2027-02-28"
    },
    {
      "name": "いたくら　ラーメン工場",
      "name_kana": "",
      "business_type": "麺類製造業",
      "address": "岐阜県高山市丹生川町坊方２１２０番地",
      "lat": 36.168462,
      "lng": 137.326686,
      "geocoding_level": 3,
      "phone": "",
      "license_no": "62000459",
      "license_date": "2021-12-07",
      "expire_date": "2027-05-31"
    },
    {
      "name": "うな信　本店",
      "name_kana": "",
      "business_type": "水産製品製造業",
      "address": "岐阜県高山市片原町１８－２",
      "lat": 36.141575,
      "lng": 137.258886,
      "geocoding_level": 3,
      "phone": "0577-32-0846",
      "license_no": "62000460",
      "license_date": "2021-12-03",
      "expire_date": "2027-11-30"
    },
    {
      "name": "たかやま百菓店",
      "name_kana": "",
      "business_type": "飲食店営業",
      "address": "岐阜県高山市八軒町２丁目８９",
      "lat": 36.138545,
      "lng": 137.256504,
      "geocoding_level": 3,
      "phone": "090-8179-9658",
      "license_no": "62000461",
      "license_date": "2021-12-13",
      "expire_date": "2027-11-30"
    },
    {
      "name": "たかやま百菓店",
      "name_kana": "",
      "business_type": "菓子製造業",
      "address": "岐阜県高山市八軒町２丁目８９",
      "lat": 36.138545,
      "lng": 137.256504,
      "geocoding_level": 3,
      "phone": "090-8179-9658",
      "license_no": "62000462",
      "license_date": "2021-12-13",
      "expire_date": "2027-11-30"
    },
    {
      "name": "ＢＲＩＯ",
      "name_kana": "",
      "business_type": "飲食店営業",
      "address": "岐阜県高山市丹生川町久手４４５－１",
      "lat": 36.175573,
      "lng": 137.502201,
      "geocoding_level": 3,
      "phone": "090-1111-8539",
      "license_no": "62000463",
      "license_date": "2021-12-13",
      "expire_date": "2027-05-31"
    },
    {
      "name": "Ｎ－Ｒｅｓｏｒｔ　Ｔａｋａｙａｍａ",
      "name_kana": "",
      "business_type": "飲食店営業",
      "address": "岐阜県高山市桐生町８丁目８４－１",
      "lat": 36.158255,
      "lng": 137.24866,
      "geocoding_level": 3,
      "phone": "0577-35-0001",
      "license_no": "62000466",
      "license_date": "2021-12-13",
      "expire_date": "2027-02-28"
    },
    {
      "name": "Ｎ－Ｒｅｓｏｒｔ　Ｔａｋａｙａｍａ",
      "name_kana": "",
      "business_type": "飲食店営業",
      "address": "岐阜県高山市桐生町８丁目８４－１",
      "lat": 36.158255,
      "lng": 137.24866,
      "geocoding_level": 3,
      "phone": "0577-35-0001",
      "license_no": "62000467",
      "license_date": "2021-12-13",
      "expire_date": "2027-02-28"
    },
    {
      "name": "Ｎ－Ｒｅｓｏｒｔ　Ｔａｋａｙａｍａ",
      "name_kana": "",
      "business_type": "飲食店営業",
      "address": "岐阜県高山市桐生町８丁目８４－１",
      "lat": 36.158255,
      "lng": 137.24866,
      "geocoding_level": 3,
      "phone": "0577-35-0001",
      "license_no": "62000468",
      "license_date": "2021-12-13",
      "expire_date": "2027-02-28"
    },
    {
      "name": "Ｎ－Ｒｅｓｏｒｔ　Ｔａｋａｙａｍａ",
      "name_kana": "",
      "business_type": "菓子製造業",
      "address": "岐阜県高山市桐生町８丁目８４－１",
      "lat": 36.158255,
      "lng": 137.24866,
      "geocoding_level": 3,
      "phone": "0577-35-0001",
      "license_no": "62000469",
      "license_date": "2021-12-13",
      "expire_date": "2027-02-28"
    },
    {
      "name": "インターナショナル旅籠　力車イン",
      "name_kana": "",
      "business_type": "飲食店営業",
      "address": "岐阜県高山市末広町５４",
      "lat": 36.143763,
      "lng": 137.255418,
      "geocoding_level": 3,
      "phone": "0577-32-2890",
      "license_no": "62000470",
      "license_date": "2021-12-17",
      "expire_date": "2027-02-28"
    },
    {
      "name": "ある光",
      "name_kana": "",
      "business_type": "飲食店営業",
      "address": "岐阜県高山市朝日町３０",
      "lat": 36.143769,
      "lng": 137.256237,
      "geocoding_level": 3,
      "phone": "090-1097-0885",
      "license_no": "62000471",
      "license_date": "2021-12-17",
      "expire_date": "2027-02-28"
    },
    {
      "name": "Ｋａｅｄｅ　Ｃａｆｅ　ａｎｄ　Ｋｉｔｃｈｅｎ",
      "name_kana": "",
      "business_type": "飲食店営業",
      "address": "岐阜県高山市本町２丁目６８番地",
      "lat": 36.141964,
      "lng": 137.258044,
      "geocoding_level": 3,
      "phone": "0577-62-9485",
      "license_no": "62000472",
      "license_date": "2021-12-17",
      "expire_date": "2027-11-30"
    },
    {
      "name": "株式会社ニクラボ",
      "name_kana": "",
      "business_type": "菓子製造業",
      "address": "岐阜県高山市山田町２３４－２",
      "lat": 36.141775,
      "lng": 137.22791900000004,
      "geocoding_level": 3,
      "phone": "0577-57-5529",
      "license_no": "62000474",
      "license_date": "2022-01-21",
      "expire_date": "2027-02-28"
    },
    {
      "name": "金亀館高山駅店",
      "name_kana": "",
      "business_type": "菓子製造業",
      "address": "岐阜県高山市昭和町１丁目２２－２",
      "lat": 36.140685,
      "lng": 137.250137,
      "geocoding_level": 3,
      "phone": "",
      "license_no": "62000475",
      "license_date": "2021-12-27",
      "expire_date": "2027-11-30"
    },
    {
      "name": "スナック居酒屋いーぐる",
      "name_kana": "",
      "business_type": "飲食店営業",
      "address": "岐阜県高山市末広町６０　中丸ビル２Ｆ",
      "lat": 36.143763,
      "lng": 137.255418,
      "geocoding_level": 3,
      "phone": "0577-36-2530",
      "license_no": "62000476",
      "license_date": "2021-12-27",
      "expire_date": "2027-02-28"
    },
    {
      "name": "西本館",
      "name_kana": "",
      "business_type": "飲食店営業",
      "address": "岐阜県高山市久々野町無数河６８８－２",
      "lat": 36.044241,
      "lng": 137.251223,
      "geocoding_level": 3,
      "phone": "0577-52-2261",
      "license_no": "62000477",
      "license_date": "2022-01-06",
      "expire_date": "2027-05-31"
    },
    {
      "name": "麺屋　伊吹",
      "name_kana": "",
      "business_type": "飲食店営業",
      "address": "岐阜県高山市天満町１丁目５－８　フレスポ飛騨高山Ｅ棟Ａ区画",
      "lat": 36.132763,
      "lng": 137.2548,
      "geocoding_level": 3,
      "phone": "0577-62-8762",
      "license_no": "62000479",
      "license_date": "2022-01-14",
      "expire_date": "2027-11-30"
    },
    {
      "name": "惣助",
      "name_kana": "",
      "business_type": "菓子製造業",
      "address": "岐阜県高山市岡本町１丁目６４番地",
      "lat": 36.140362,
      "lng": 137.246436,
      "geocoding_level": 3,
      "phone": "0577-32-0818",
      "license_no": "62000480",
      "license_date": "2022-01-14",
      "expire_date": "2027-11-30"
    },
    {
      "name": "思歩音",
      "name_kana": "",
      "business_type": "菓子製造業",
      "address": "岐阜県高山市新宮町３７５０－６",
      "lat": 36.126344,
      "lng": 137.213505,
      "geocoding_level": 3,
      "phone": "0577-34-8388",
      "license_no": "62000481",
      "license_date": "2022-01-21",
      "expire_date": "2027-11-30"
    },
    {
      "name": "ｃｏｑｕｅｌｉｃａｆｅ",
      "name_kana": "",
      "business_type": "飲食店営業",
      "address": "岐阜県高山市新宮町１９４６番地",
      "lat": 36.126344,
      "lng": 137.213505,
      "geocoding_level": 3,
      "phone": "0577-57-7713",
      "license_no": "62000482",
      "license_date": "2022-01-27",
      "expire_date": "2027-11-30"
    },
    {
      "name": "ムギベイク",
      "name_kana": "",
      "business_type": "菓子製造業",
      "address": "岐阜県高山市岡本町２丁目４０２－１",
      "lat": 36.144594,
      "lng": 137.246103,
      "geocoding_level": 3,
      "phone": "0577-34-6856",
      "license_no": "62000484",
      "license_date": "2022-01-24",
      "expire_date": "2027-02-28"
    },
    {
      "name": "ほっともっと高山岡本店",
      "name_kana": "",
      "business_type": "飲食店営業",
      "address": "岐阜県高山市岡本町２丁目５－１",
      "lat": 36.144594,
      "lng": 137.246103,
      "geocoding_level": 3,
      "phone": "0577-37-2155",
      "license_no": "62000485",
      "license_date": "2022-01-27",
      "expire_date": "2027-02-28"
    },