{
  "meta": {
    "updated": 1783906731,
    "sources": [
      {
        "source": "大分県 食品営業許可施設一覧",
        "license": "Creative Commons Attribution 4.0 International"
      },
      {
        "source": "厚生労働省 食品衛生申請等システム（オープンデータ）",
        "license": "公共データ利用規約（第1.0版, PDL1.0）"
      }
    ]
  },
  "data": [
    {
      "name": "小野酒造　有限会社",
      "name_kana": "",
      "business_type": "酒類製造業",
      "address": "大分県杵築市山香町野原1353－2",
      "lat": 33.42169,
      "lng": 131.49568,
      "geocoding_level": null,
      "phone": "",
      "license_no": "指令東保第751-20号",
      "license_date": null,
      "expire_date": null
    },
    {
      "name": "有限会社中野酒造",
      "name_kana": "",
      "business_type": "酒類製造業",
      "address": "大分県杵築市南杵築2487－1　外10筆",
      "lat": 33.42135,
      "lng": 131.60199,
      "geocoding_level": null,
      "phone": "",
      "license_no": "指令東保第751-119号",
      "license_date": null,
      "expire_date": null
    },
    {
      "name": "城下　若栄屋",
      "name_kana": "",
      "business_type": "飲食店営業",
      "address": "大分県杵築市大字杵築665－429",
      "lat": 33.41855,
      "lng": 131.62192,
      "geocoding_level": null,
      "phone": "",
      "license_no": "指令東保第751-315号",
      "license_date": null,
      "expire_date": null
    },
    {
      "name": "速見杵築炊飯センター",
      "name_kana": "",
      "business_type": "飲食店営業",
      "address": "大分県杵築市南杵築西下司469番地",
      "lat": 33.41833,
      "lng": 131.60675,
      "geocoding_level": null,
      "phone": "",
      "license_no": "指令東保第751-160号",
      "license_date": null,
      "expire_date": null
    },
    {
      "name": "ホテルソフィー",
      "name_kana": "",
      "business_type": "飲食店営業",
      "address": "大分県杵築市守江858－6",
      "lat": 33.41712,
      "lng": 131.67409,
      "geocoding_level": null,
      "phone": "",
      "license_no": "指令東保第751-388号",
      "license_date": null,
      "expire_date": null
    },
    {
      "name": "宮部商店",
      "name_kana": "",
      "business_type": "食肉販売業",
      "address": "大分県杵築市南杵築292－8",
      "lat": 33.41762,
      "lng": 131.61342,
      "geocoding_level": null,
      "phone": "",
      "license_no": "指令東保第751-131号",
      "license_date": null,
      "expire_date": null
    },
    {
      "name": "株式会社 松山堂",
      "name_kana": "",
      "business_type": "菓子製造業",
      "address": "大分県杵築市大字杵築173－1",
      "lat": 33.41631,
      "lng": 131.61876,
      "geocoding_level": null,
      "phone": "",
      "license_no": "指令東保第751-423号",
      "license_date": null,
      "expire_date": null
    },
    {
      "name": "牛太郎",
      "name_kana": "",
      "business_type": "食肉販売業",
      "address": "大分県杵築市山香町大字内河野2543番地1",
      "lat": 33.45749,
      "lng": 131.48399,
      "geocoding_level": null,
      "phone": "",
      "license_no": "指令東保第751-253号",
      "license_date": null,
      "expire_date": null
    },
    {
      "name": "株式会社 ジェイエイフーズおおいた",
      "name_kana": "",
      "business_type": "清涼飲料水製造業",
      "address": "大分県杵築市大字本庄1453-1",
      "lat": 33.4143,
      "lng": 131.59148,
      "geocoding_level": null,
      "phone": "",
      "license_no": "指令東保第751-341号",
      "license_date": null,
      "expire_date": null
    },
    {
      "name": "株式会社 ジェイエイフーズおおいた",
      "name_kana": "",
      "business_type": "密封包装食品製造業",
      "address": "大分県杵築市大字本庄1453-1",
      "lat": 33.4143,
      "lng": 131.59148,
      "geocoding_level": null,
      "phone": "",
      "license_no": "指令東保第751-342号",
      "license_date": null,
      "expire_date": null
    },
    {
      "name": "株式会社 ジェイエイフーズおおいた",
      "name_kana": "",
      "business_type": "菓子製造業",
      "address": "大分県杵築市大字本庄1453-1",
      "lat": 33.4143,
      "lng": 131.59148,
      "geocoding_level": null,
      "phone": "",
      "license_no": "指令東保第751-343号",
      "license_date": null,
      "expire_date": null
    },
    {
      "name": "株式会社 ジェイエイフーズおおいた",
      "name_kana": "",
      "business_type": "乳製品製造業",
      "address": "大分県杵築市大字本庄1453-1",
      "lat": 33.4143,
      "lng": 131.59148,
      "geocoding_level": null,
      "phone": "",
      "license_no": "指令東保第751-340号",
      "license_date": null,
      "expire_date": null
    },
    {
      "name": "紙ふうせん",
      "name_kana": "",
      "business_type": "飲食店営業",
      "address": "大分県杵築市大内4537-28",
      "lat": 33.42313,
      "lng": 131.62753,
      "geocoding_level": null,
      "phone": "",
      "license_no": "指令東保第751-300号",
      "license_date": null,
      "expire_date": null
    },
    {
      "name": "石山食堂",
      "name_kana": "",
      "business_type": "飲食店営業",
      "address": "大分県杵築市杵築錦城8－10",
      "lat": 33.41885,
      "lng": 131.62219,
      "geocoding_level": null,
      "phone": "",
      "license_no": "指令東保第751-40号",
      "license_date": null,
      "expire_date": null
    },
    {
      "name": "スーパー青木杵築店",
      "name_kana": "",
      "business_type": "飲食店営業",
      "address": "大分県杵築市南杵築字大手内1948",
      "lat": 33.41833,
      "lng": 131.60675,
      "geocoding_level": null,
      "phone": "",
      "license_no": "指令東保第751-202号",
      "license_date": null,
      "expire_date": null
    },
    {
      "name": "スーパー青木",
      "name_kana": "",
      "business_type": "飲食店営業",
      "address": "大分県杵築市南杵築字大手内1948",
      "lat": 33.41833,
      "lng": 131.60675,
      "geocoding_level": null,
      "phone": "",
      "license_no": "指令東保第751-203号",
      "license_date": null,
      "expire_date": null
    },
    {
      "name": "スーパー青木",
      "name_kana": "",
      "business_type": "食肉販売業",
      "address": "大分県杵築市大字南杵築字大手内1948",
      "lat": 33.41833,
      "lng": 131.60675,
      "geocoding_level": null,
      "phone": "",
      "license_no": "指令東保第751-204号",
      "license_date": null,
      "expire_date": null
    },
    {
      "name": "スーパー青木",
      "name_kana": "",
      "business_type": "魚介類販売業",
      "address": "大分県杵築市大字南杵築字大手内1948",
      "lat": 33.41833,
      "lng": 131.60675,
      "geocoding_level": null,
      "phone": "",
      "license_no": "指令東保第751-205号",
      "license_date": null,
      "expire_date": null
    },
    {
      "name": "はちの樹",
      "name_kana": "",
      "business_type": "飲食店営業",
      "address": "大分県杵築市山香町向野 2252番地の1",
      "lat": 33.5032,
      "lng": 131.4563,
      "geocoding_level": null,
      "phone": "",
      "license_no": "指令東保第751-43号",
      "license_date": null,
      "expire_date": null
    },
    {
      "name": "マリーフランソア杵築店",
      "name_kana": "",
      "business_type": "菓子製造業",
      "address": "大分県杵築市大字杵築字北浜665－618 サンリブ杵築店内",
      "lat": 33.42007,
      "lng": 131.62334,
      "geocoding_level": null,
      "phone": "",
      "license_no": "指令東保第751-40号",
      "license_date": null,
      "expire_date": null
    },
    {
      "name": "花咲",
      "name_kana": "",
      "business_type": "飲食店営業",
      "address": "大分県杵築市大字杵築字北浜665-618 サンリブ杵築店内",
      "lat": 33.42007,
      "lng": 131.62334,
      "geocoding_level": null,
      "phone": "",
      "license_no": "指令東保第751-67号",
      "license_date": null,
      "expire_date": null
    },
    {
      "name": "モスバーガー大分杵築店",
      "name_kana": "",
      "business_type": "飲食店営業",
      "address": "大分県杵築市大字杵築字北浜665-346",
      "lat": 33.42007,
      "lng": 131.62334,
      "geocoding_level": null,
      "phone": "",
      "license_no": "指令東保第751-153号",
      "license_date": null,
      "expire_date": null
    },
    {
      "name": "うどん山ちゃん",
      "name_kana": "",
      "business_type": "飲食店営業",
      "address": "大分県杵築市山香町大字広瀬479番地",
      "lat": 33.41782,
      "lng": 131.5271,
      "geocoding_level": null,
      "phone": "",
      "license_no": "指令東保第751-323号",
      "license_date": null,
      "expire_date": null
    },
    {
      "name": "ファミリーマート　杵築清水店",
      "name_kana": "",
      "business_type": "飲食店営業",
      "address": "大分県杵築市杵築字清水870",
      "lat": 33.41885,
      "lng": 131.62219,
      "geocoding_level": null,
      "phone": "",
      "license_no": "指令東保第751-323号",
      "license_date": null,
      "expire_date": null
    },
    {
      "name": "ジョイフル大分杵築店",
      "name_kana": "",
      "business_type": "飲食店営業",
      "address": "大分県杵築市大内字塩浜4537番地の4",
      "lat": 33.44173,
      "lng": 131.63202,
      "geocoding_level": null,
      "phone": "",
      "license_no": "指令東保第751-128号",
      "license_date": null,
      "expire_date": null
    },
    {
      "name": "ホテルいな里",
      "name_kana": "",
      "business_type": "飲食店営業",
      "address": "大分県杵築市杵築字北浜 693－4",
      "lat": 33.42007,
      "lng": 131.62334,
      "geocoding_level": null,
      "phone": "",
      "license_no": "指令東保第751-58号",
      "license_date": null,
      "expire_date": null
    },
    {
      "name": "有限会社コマツ　杵築店",
      "name_kana": "",
      "business_type": "飲食店営業",
      "address": "大分県杵築市八坂字瓜尾2841",
      "lat": 33.42225,
      "lng": 131.5649,
      "geocoding_level": null,
      "phone": "",
      "license_no": "指令東保第751-261号",
      "license_date": null,
      "expire_date": null
    },
    {
      "name": "魚市魚座",
      "name_kana": "",
      "business_type": "豆腐製造業",
      "address": "大分県杵築市大字守江4775の9",
      "lat": 33.42028,
      "lng": 131.6618,
      "geocoding_level": null,
      "phone": "",
      "license_no": "指令東保第751-305号",
      "license_date": null,
      "expire_date": null
    },
    {
      "name": "本町備後屋",
      "name_kana": "",
      "business_type": "飲食店営業",
      "address": "大分県杵築市杵築144－2",
      "lat": 33.41536,
      "lng": 131.62234,
      "geocoding_level": null,
      "phone": "",
      "license_no": "指令東保第751-301号",
      "license_date": null,
      "expire_date": null
    },
    {
      "name": "有限会社　日向屋",
      "name_kana": "",
      "business_type": "飲食店営業",
      "address": "大分県杵築市守江4776の4",
      "lat": 33.42028,
      "lng": 131.6618,
      "geocoding_level": null,
      "phone": "",
      "license_no": "指令東保第751-310号",
      "license_date": null,
      "expire_date": null
    },
    {
      "name": "ヒライ サンリブ杵築店",
      "name_kana": "",
      "business_type": "飲食店営業",
      "address": "大分県杵築市杵築字北浜665－618",
      "lat": 33.42007,
      "lng": 131.62334,
      "geocoding_level": null,
      "phone": "",
      "license_no": "指令東保第751-322号",
      "license_date": null,
      "expire_date": null
    },
    {
      "name": "株式会社木村コーポレイション",
      "name_kana": "",
      "business_type": "飲食店営業",
      "address": "大分県杵築市溝井字向1609番地",
      "lat": 33.43499,
      "lng": 131.58403,
      "geocoding_level": null,
      "phone": "",
      "license_no": "指令東保第751-294号",
      "license_date": null,
      "expire_date": null
    },
    {
      "name": "ローソン杵築相原店",
      "name_kana": "",
      "business_type": "飲食店営業",
      "address": "大分県杵築市大字相原2番地の21",
      "lat": 33.38943,
      "lng": 131.56793,
      "geocoding_level": null,
      "phone": "",
      "license_no": "指令東保第751-411号",
      "license_date": null,
      "expire_date": null
    },
    {
      "name": "大分農業文化公園　交流研修館",
      "name_kana": "",
      "business_type": "飲食店営業",
      "address": "大分県杵築市山香町日指1－1",
      "lat": 33.41849,
      "lng": 131.46143,
      "geocoding_level": null,
      "phone": "",
      "license_no": "指令東保第751-37号",
      "license_date": null,
      "expire_date": null
    },
    {
      "name": "介護老人保健施設　しおはま",
      "name_kana": "",
      "business_type": "飲食店営業",
      "address": "大分県杵築市大内字塩浜7703－4 介護老人保健施設 しおはま内",
      "lat": 33.44173,
      "lng": 131.63202,
      "geocoding_level": null,
      "phone": "",
      "license_no": "指令東保第751-5号",
      "license_date": null,
      "expire_date": null
    },
    {
      "name": "新鮮楽市鮮魚",
      "name_kana": "",
      "business_type": "飲食店営業",
      "address": "大分県杵築市山香町内河野2543－1",
      "lat": 33.45749,
      "lng": 131.48399,
      "geocoding_level": null,
      "phone": "",
      "license_no": "指令東保第751-148号",
      "license_date": null,
      "expire_date": null
    },
    {
      "name": "新鮮楽市鮮魚",
      "name_kana": "",
      "business_type": "魚介類販売業",
      "address": "大分県杵築市山香町内河野2543-1",
      "lat": 33.45749,
      "lng": 131.48399,
      "geocoding_level": null,
      "phone": "",
      "license_no": "指令東保第751-147号",
      "license_date": null,
      "expire_date": null
    },
    {
      "name": "デイサービス三楽園 厨房",
      "name_kana": "",
      "business_type": "飲食店営業",
      "address": "大分県杵築市大内121-2",
      "lat": 33.44173,
      "lng": 131.63202,
      "geocoding_level": null,
      "phone": "",
      "license_no": "指令東保第751-88号",
      "license_date": null,
      "expire_date": null
    },
    {
      "name": "いろは食肉店",
      "name_kana": "",
      "business_type": "食肉販売業",
      "address": "大分県杵築市山香町野原1766－10",
      "lat": 33.42169,
      "lng": 131.49568,
      "geocoding_level": null,
      "phone": "",
      "license_no": "指令東保第751-443号",
      "license_date": null,
      "expire_date": null
    },
    {
      "name": "有限会社近藤養蜂場",
      "name_kana": "",
      "business_type": "清涼飲料水製造業",
      "address": "大分県杵築市山香町向野2252-1",
      "lat": 33.5032,
      "lng": 131.4563,
      "geocoding_level": null,
      "phone": "",
      "license_no": "指令東保第751-231号",
      "license_date": null,
      "expire_date": null
    },
    {
      "name": "だいこんの花　惣菜",
      "name_kana": "",
      "business_type": "飲食店営業",
      "address": "大分県杵築市山香町大字内河野2543-1",
      "lat": 33.45749,
      "lng": 131.48399,
      "geocoding_level": null,
      "phone": "",
      "license_no": "指令東保第751-224号",
      "license_date": null,
      "expire_date": null
    },
    {
      "name": "大分農業文化公園　豊の国物産館カフェ",
      "name_kana": "",
      "business_type": "飲食店営業",
      "address": "大分県杵築市山香町日指1-1",
      "lat": 33.41849,
      "lng": 131.46143,
      "geocoding_level": null,
      "phone": "",
      "license_no": "指令東保第751-227号",
      "license_date": null,
      "expire_date": null
    },
    {
      "name": "株式会社　Ａコープ九州　Ａコープきつき店",
      "name_kana": "",
      "business_type": "食肉販売業",
      "address": "大分県杵築市杵築字北浜695－8",
      "lat": 33.42007,
      "lng": 131.62334,
      "geocoding_level": null,
      "phone": "",
      "license_no": "指令東保第751-312号",
      "license_date": null,
      "expire_date": null
    },
    {
      "name": "有限会社　丸洋",
      "name_kana": "",
      "business_type": "魚介類販売業",
      "address": "大分県杵築市杵築字北浜695番地の8",
      "lat": 33.42007,
      "lng": 131.62334,
      "geocoding_level": null,
      "phone": "",
      "license_no": "指令東保第751-289号",
      "license_date": null,
      "expire_date": null
    },
    {
      "name": "有限会社　丸洋",
      "name_kana": "",
      "business_type": "飲食店営業",
      "address": "大分県杵築市杵築字北浜695番地の8",
      "lat": 33.42007,
      "lng": 131.62334,
      "geocoding_level": null,
      "phone": "",
      "license_no": "指令東保第751-290号",
      "license_date": null,
      "expire_date": null
    },
    {
      "name": "有限会社　楽四季舎",
      "name_kana": "",
      "business_type": "菓子製造業",
      "address": "大分県杵築市山香町内河野2552－1",
      "lat": 33.45749,
      "lng": 131.48399,
      "geocoding_level": null,
      "phone": "",
      "license_no": "指令東保第751-409号",
      "license_date": null,
      "expire_date": null
    },
    {
      "name": "みろく酒造株式会社",
      "name_kana": "",
      "business_type": "酒類製造業",
      "address": "大分県杵築市山香町立石2245番4",
      "lat": 33.48612,
      "lng": 131.47481,
      "geocoding_level": null,
      "phone": "",
      "license_no": "指令東保第751-127号",
      "license_date": null,
      "expire_date": null
    },
    {
      "name": "まいどおおきに　きつき三川食堂",
      "name_kana": "",
      "business_type": "飲食店営業",
      "address": "大分県杵築市大字猪尾字六反田777-2",
      "lat": 33.40971,
      "lng": 131.61749,
      "geocoding_level": null,
      "phone": "",
      "license_no": "指令東保第751-223号",
      "license_date": null,
      "expire_date": null
    },
    {
      "name": "割烹　さつき",
      "name_kana": "",
      "business_type": "飲食店営業",
      "address": "大分県杵築市山香町大字内河野2710-8　外",
      "lat": 33.45749,
      "lng": 131.48399,
      "geocoding_level": null,
      "phone": "",
      "license_no": "指令東保第751-36号",
      "license_date": null,
      "expire_date": null
    },
    {
      "name": "おおたの郷介護付有料老人ホーム",
      "name_kana": "",
      "business_type": "飲食店営業",
      "address": "大分県杵築市大田石丸1392番地",
      "lat": 33.49422,
      "lng": 131.56412,
      "geocoding_level": null,
      "phone": "",
      "license_no": "指令東保第751-79号",
      "license_date": null,
      "expire_date": null
    },
    {
      "name": "ファミリーマート住吉浜店",
      "name_kana": "",
      "business_type": "飲食店営業",
      "address": "大分県杵築市大字守江字塩屋原4778-6",
      "lat": 33.42237,
      "lng": 131.64673,
      "geocoding_level": null,
      "phone": "",
      "license_no": "指令東保第751-234号",
      "license_date": null,
      "expire_date": null
    },
    {
      "name": "別府ゴルフ倶楽部（ホテル厨房）",
      "name_kana": "",
      "business_type": "飲食店営業",
      "address": "大分県杵築市山香町久木野尾1753",
      "lat": 33.39481,
      "lng": 131.42529,
      "geocoding_level": null,
      "phone": "",
      "license_no": "指令東保第751-282号",
      "license_date": null,
      "expire_date": null
    },
    {
      "name": "別府ゴルフ倶楽部（ホテルラウンジ）",
      "name_kana": "",
      "business_type": "飲食店営業",
      "address": "大分県杵築市山香町久木野尾1753",
      "lat": 33.39481,
      "lng": 131.42529,
      "geocoding_level": null,
      "phone": "",
      "license_no": "指令東保第751-283号",
      "license_date": null,
      "expire_date": null
    },
    {
      "name": "別府ゴルフ倶楽部（クラブハウス　２Ｆ厨房）",
      "name_kana": "",
      "business_type": "飲食店営業",
      "address": "大分県杵築市山香町大字久木野尾1753",
      "lat": 33.39481,
      "lng": 131.42529,
      "geocoding_level": null,
      "phone": "",
      "license_no": "指令東保第751-321号",
      "license_date": null,
      "expire_date": null
    },
    {
      "name": "漁師直販所　末廣丸",
      "name_kana": "",
      "business_type": "飲食店営業",
      "address": "大分県杵築市猪尾76-43",
      "lat": 33.40996,
      "lng": 131.62473,
      "geocoding_level": null,
      "phone": "",
      "license_no": "指令東保第751-1号",
      "license_date": null,
      "expire_date": null
    },
    {
      "name": "ポッポおじさんの大分からあげ　杵築店",
      "name_kana": "",
      "business_type": "飲食店営業",
      "address": "大分県杵築市大字杵築字北浜665－618",
      "lat": 33.42007,
      "lng": 131.62334,
      "geocoding_level": null,
      "phone": "",
      "license_no": "指令東保第751-337号",
      "license_date": null,
      "expire_date": null
    },
    {
      "name": "横岳ふるさと茶屋　夢のぼり",
      "name_kana": "",
      "business_type": "飲食店営業",
      "address": "大分県杵築市大田俣水3107－13",
      "lat": 33.49329,
      "lng": 131.59189,
      "geocoding_level": null,
      "phone": "",
      "license_no": "指令東保第751-99号",
      "license_date": null,
      "expire_date": null
    },
    {
      "name": "台の茶屋",
      "name_kana": "",
      "business_type": "飲食店営業",
      "address": "大分県杵築市大字杵築208－1",
      "lat": 33.41629,
      "lng": 131.62102,
      "geocoding_level": null,
      "phone": "",
      "license_no": "指令東保第751-36号",
      "license_date": null,
      "expire_date": null
    },
    {
      "name": "マリンホテル（和食）",
      "name_kana": "",
      "business_type": "飲食店営業",
      "address": "大分県杵築市守江1165番地2",
      "lat": 33.42237,
      "lng": 131.64673,
      "geocoding_level": null,
      "phone": "",
      "license_no": "指令東保第751-109号",
      "license_date": null,
      "expire_date": null
    },
    {
      "name": "マリンホテル（洋食）",
      "name_kana": "",
      "business_type": "飲食店営業",
      "address": "大分県杵築市守江1165番地2",
      "lat": 33.42237,
      "lng": 131.64673,
      "geocoding_level": null,
      "phone": "",
      "license_no": "指令東保第751-110号",
      "license_date": null,
      "expire_date": null
    },
    {
      "name": "有限会社　今村商店　お茶のとまや",
      "name_kana": "",
      "business_type": "菓子製造業",
      "address": "大分県杵築市杵築385番地",
      "lat": 33.41696,
      "lng": 131.61646,
      "geocoding_level": null,
      "phone": "",
      "license_no": "指令東保第751-62号",
      "license_date": null,
      "expire_date": null
    },
    {
      "name": "宝生",
      "name_kana": "",
      "business_type": "飲食店営業",
      "address": "大分県杵築市杵築16番地",
      "lat": 33.4154,
      "lng": 131.62592,
      "geocoding_level": null,
      "phone": "",
      "license_no": "指令東保第751-42号",
      "license_date": null,
      "expire_date": null
    },
    {
      "name": "大三ミート産業（株）ダイレックス杵築店",
      "name_kana": "",
      "business_type": "食肉販売業",
      "address": "大分県杵築市杵築字北浜６６５－８８ ダイレックス杵築店内",
      "lat": 33.42007,
      "lng": 131.62334,
      "geocoding_level": null,
      "phone": "",
      "license_no": "指令東保第751-328号",
      "license_date": null,
      "expire_date": null
    },
    {
      "name": "オレンジホール　パン工房",
      "name_kana": "",
      "business_type": "菓子製造業",
      "address": "大分県杵築市大字守江1168－2",
      "lat": 33.4096,
      "lng": 131.66713,
      "geocoding_level": null,
      "phone": "",
      "license_no": "指令東保第751-331号",
      "license_date": null,
      "expire_date": null
    },
    {
      "name": "別府ゴルフ倶楽部",
      "name_kana": "",
      "business_type": "菓子製造業",
      "address": "大分県杵築市山香町久木野尾1753番地の4",
      "lat": 33.39481,
      "lng": 131.42529,
      "geocoding_level": null,
      "phone": "",
      "license_no": "指令東保第751-284号",
      "license_date": null,
      "expire_date": null
    },
    {
      "name": "魚市魚座",
      "name_kana": "",
      "business_type": "飲食店営業",
      "address": "大分県杵築市大字守江4775－9",
      "lat": 33.42028,
      "lng": 131.6618,
      "geocoding_level": null,
      "phone": "",
      "license_no": "指令東保第751-2号",
      "license_date": null,
      "expire_date": null
    },
    {
      "name": "エヌ・フードサービス　菩提樹事業所",
      "name_kana": "",
      "business_type": "飲食店営業",
      "address": "大分県杵築市大字日野1921－15",
      "lat": 33.39402,
      "lng": 131.59856,
      "geocoding_level": null,
      "phone": "",
      "license_no": "指令東保第751-35号",
      "license_date": null,
      "expire_date": null
    },
    {
      "name": "上村の郷",
      "name_kana": "",
      "business_type": "飲食店営業",
      "address": "大分県杵築市山香町大字久木野尾3792番地1",
      "lat": 33.39481,
      "lng": 131.42529,
      "geocoding_level": null,
      "phone": "",
      "license_no": "指令東保第751-114号",
      "license_date": null,
      "expire_date": null
    },
    {
      "name": "ローソン杵築北浜店",
      "name_kana": "",
      "business_type": "飲食店営業",
      "address": "大分県杵築市大字杵築字北浜665番29",
      "lat": 33.42007,
      "lng": 131.62334,
      "geocoding_level": null,
      "phone": "",
      "license_no": "指令東保第751-151号",
      "license_date": null,
      "expire_date": null
    },
    {
      "name": "株式会社絆屋",
      "name_kana": "",
      "business_type": "そうざい製造業",
      "address": "大分県杵築市大字片野字神領1014番1",
      "lat": 33.40467,
      "lng": 131.63033,
      "geocoding_level": null,
      "phone": "",
      "license_no": "指令東保第751-111号",
      "license_date": null,
      "expire_date": null
    },
    {
      "name": "株式会社ジェイエイフーズおおいた",
      "name_kana": "",
      "business_type": "酒類製造業",
      "address": "大分県杵築市大字本庄1453番地の1",
      "lat": 33.4143,
      "lng": 131.59148,
      "geocoding_level": null,
      "phone": "",
      "license_no": "指令東保第751-86号",
      "license_date": null,
      "expire_date": null
    },
    {
      "name": "漁師直販所　末廣丸",
      "name_kana": "",
      "business_type": "飲食店営業",
      "address": "大分県杵築市大字猪尾中島76-43",
      "lat": 33.40861,
      "lng": 131.62312,
      "geocoding_level": null,
      "phone": "",
      "license_no": "指令東保第751-181号",
      "license_date": null,
      "expire_date": null
    },
    {
      "name": "大分農業文化公園　豊の国物産館カフェ",
      "name_kana": "",
      "business_type": "菓子製造業",
      "address": "大分県杵築市山香町大字日指１番地１",
      "lat": 33.41849,
      "lng": 131.46143,
      "geocoding_level": null,
      "phone": "",
      "license_no": "指令東保第751-324号",
      "license_date": null,
      "expire_date": null
    },
    {
      "name": "エヌ・フードサービス菩提樹デイ",
      "name_kana": "",
      "business_type": "飲食店営業",
      "address": "大分県杵築市大字日野1921－7",
      "lat": 33.39402,
      "lng": 131.59856,
      "geocoding_level": null,
      "phone": "",
      "license_no": "指令東保第751-20号",
      "license_date": null,
      "expire_date": null
    },
    {
      "name": "有限会社近藤養蜂場",
      "name_kana": "",
      "business_type": "菓子製造業",
      "address": "大分県杵築市山香町大字向野2252－1",
      "lat": 33.5032,
      "lng": 131.4563,
      "geocoding_level": null,
      "phone": "",
      "license_no": "指令東保第751-44号",
      "license_date": null,
      "expire_date": null
    },
    {
      "name": "肉のヨシモリ",
      "name_kana": "",
      "business_type": "食肉販売業",
      "address": "大分県杵築市八坂字瓜尾2841番地",
      "lat": 33.42225,
      "lng": 131.5649,
      "geocoding_level": null,
      "phone": "",
      "license_no": "指令東保第751-240号",
      "license_date": null,
      "expire_date": null
    },
    {
      "name": "Ｃａｆe　ｍ・歩っ",
      "name_kana": "",
      "business_type": "飲食店営業",
      "address": "大分県杵築市大字日野1921－14",
      "lat": 33.39402,
      "lng": 131.59856,
      "geocoding_level": null,
      "phone": "",
      "license_no": "指令東保第751-325号",
      "license_date": null,
      "expire_date": null
    },
    {
      "name": "フルーツテラス",
      "name_kana": "",
      "business_type": "飲食店営業",
      "address": "大分県杵築市山香町大字日指1番地1 大分農業文化公園内",
      "lat": 33.41849,
      "lng": 131.46143,
      "geocoding_level": null,
      "phone": "",
      "license_no": "指令東保第751-313号",
      "license_date": null,
      "expire_date": null
    },
    {
      "name": "不二家　サンリブ杵築",
      "name_kana": "",
      "business_type": "菓子製造業",
      "address": "大分県杵築市大字杵築字北浜665－618",
      "lat": 33.42007,
      "lng": 131.62334,
      "geocoding_level": null,
      "phone": "",
      "license_no": "指令東保第751-295号",
      "license_date": null,
      "expire_date": null
    },
    {
      "name": "不二家　サンリブ杵築",
      "name_kana": "",
      "business_type": "喫茶店営業",
      "address": "大分県杵築市大字杵築字北浜665－618",
      "lat": 33.42007,
      "lng": 131.62334,
      "geocoding_level": null,
      "phone": "",
      "license_no": "指令東保第751-302号",
      "license_date": null,
      "expire_date": null
    },
    {
      "name": "龍頭屋",
      "name_kana": "",
      "business_type": "飲食店営業",
      "address": "大分県杵築市山香町内河野神田2534－1",
      "lat": 33.45749,
      "lng": 131.48399,
      "geocoding_level": null,
      "phone": "",
      "license_no": "指令東保第751-260号",
      "license_date": null,
      "expire_date": null
    },
    {
      "name": "カラオケＣＬＵＢ　　ＤＡＭ大分杵築店",
      "name_kana": "",
      "business_type": "飲食店営業",
      "address": "大分県杵築市杵築字北浜665－321",
      "lat": 33.42007,
      "lng": 131.62334,
      "geocoding_level": null,
      "phone": "",
      "license_no": "指令東保第751-43号",
      "license_date": null,
      "expire_date": null
    },
    {
      "name": "みのり村　いち押し工房",
      "name_kana": "",
      "business_type": "菓子製造業",
      "address": "大分県杵築市大字日野 1921-4、1921-5、1921-7",
      "lat": 33.39402,
      "lng": 131.59856,
      "geocoding_level": null,
      "phone": "",
      "license_no": "指令東保第751-202号",
      "license_date": null,
      "expire_date": null
    },
    {
      "name": "みのり村　いち押し工房",
      "name_kana": "",
      "business_type": "清涼飲料水製造業",
      "address": "大分県杵築市大字日野 1921-4、1921-5、1921-7",
      "lat": 33.39402,
      "lng": 131.59856,
      "geocoding_level": null,
      "phone": "",
      "license_no": "指令東保第751-203号",
      "license_date": null,
      "expire_date": null
    },
    {
      "name": "みのり村　いち押し工房",
      "name_kana": "",
      "business_type": "密封包装食品製造業",
      "address": "大分県杵築市大字日野 1921-4、1921-5、1921-7",
      "lat": 33.39402,
      "lng": 131.59856,
      "geocoding_level": null,
      "phone": "",
      "license_no": "指令東保第751-204号",
      "license_date": null,
      "expire_date": null
    },
    {
      "name": "有限会社きむら政歳商店",
      "name_kana": "",
      "business_type": "魚介類販売業",
      "address": "大分県杵築市大字守江4776番地の5",
      "lat": 33.42028,
      "lng": 131.6618,
      "geocoding_level": null,
      "phone": "",
      "license_no": "指令東保第751-317号",
      "license_date": null,
      "expire_date": null
    },
    {
      "name": "ｺﾝﾊﾟｽｸﾞﾙｰﾌﾟ・ｼﾞｬﾊﾟﾝ株式会社大分ｷﾔﾉﾝﾏﾃﾘｱﾙ",
      "name_kana": "",
      "business_type": "飲食店営業",
      "address": "大分県杵築市大字熊野1－111大分ｷﾔﾉﾝ ﾏﾃﾘｱﾙ(株)杵築事業所C棟3F食堂",
      "lat": 33.37848,
      "lng": 131.64209,
      "geocoding_level": null,
      "phone": "",
      "license_no": "指令東保第751-306号",
      "license_date": null,
      "expire_date": null
    },
    {
      "name": "株式会社Ａコープ九州　Ａコープやまが",
      "name_kana": "",
      "business_type": "飲食店営業",
      "address": "大分県杵築市山香町内河野2561－1",
      "lat": 33.45749,
      "lng": 131.48399,
      "geocoding_level": null,
      "phone": "",
      "license_no": "指令東保第751-297号",
      "license_date": null,
      "expire_date": null
    },
    {
      "name": "株式会社Ａコープ九州　Ａコープやまが",
      "name_kana": "",
      "business_type": "食肉販売業",
      "address": "大分県杵築市山香町内河野2561－1",
      "lat": 33.45749,
      "lng": 131.48399,
      "geocoding_level": null,
      "phone": "",
      "license_no": "指令東保第751-298号",
      "license_date": null,
      "expire_date": null
    },
    {
      "name": "株式会社Ａコープ九州　Ａコープやまが",
      "name_kana": "",
      "business_type": "飲食店営業",
      "address": "大分県杵築市山香町内河野2561－1",
      "lat": 33.45749,
      "lng": 131.48399,
      "geocoding_level": null,
      "phone": "",
      "license_no": "指令東保第751-296号",
      "license_date": null,
      "expire_date": null
    },
    {
      "name": "Ａコープ九州　Ａコープやまが",
      "name_kana": "",
      "business_type": "魚介類販売業",
      "address": "大分県杵築市山香町内河野2561－1",
      "lat": 33.45749,
      "lng": 131.48399,
      "geocoding_level": null,
      "phone": "",
      "license_no": "指令東保第751-299号",
      "license_date": null,
      "expire_date": null
    },
    {
      "name": "麦の穂",
      "name_kana": "",
      "business_type": "飲食店営業",
      "address": "大分県杵築市大字日野856番地",
      "lat": 33.40442,
      "lng": 131.60439,
      "geocoding_level": null,
      "phone": "",
      "license_no": "指令東保第751-39号",
      "license_date": null,
      "expire_date": null
    },
    {
      "name": "麦の穂",
      "name_kana": "",
      "business_type": "菓子製造業",
      "address": "大分県杵築市大字日野856番地",
      "lat": 33.40442,
      "lng": 131.60439,
      "geocoding_level": null,
      "phone": "",
      "license_no": "指令東保第751-40号",
      "license_date": null,
      "expire_date": null
    },
    {
      "name": "台の茶屋",
      "name_kana": "",
      "business_type": "菓子製造業",
      "address": "大分県杵築市大字杵築208－1",
      "lat": 33.41629,
      "lng": 131.62102,
      "geocoding_level": null,
      "phone": "",
      "license_no": "指令東保第751-313号",
      "license_date": null,
      "expire_date": null
    },
    {
      "name": "有限会社オレンジ農園",
      "name_kana": "",
      "business_type": "菓子製造業",
      "address": "大分県杵築市中642－1",
      "lat": 33.39871,
      "lng": 131.58557,
      "geocoding_level": null,
      "phone": "",
      "license_no": "指令東保第751-101号",
      "license_date": null,
      "expire_date": null
    },
    {
      "name": "有限会社オレンジ農園",
      "name_kana": "",
      "business_type": "清涼飲料水製造業",
      "address": "大分県杵築市中642－1",
      "lat": 33.39871,
      "lng": 131.58557,
      "geocoding_level": null,
      "phone": "",
      "license_no": "指令東保第751-102号",
      "license_date": null,
      "expire_date": null
    },
    {
      "name": "６３９サンリブ杵築店",
      "name_kana": "",
      "business_type": "食肉販売業",
      "address": "大分県杵築市大字杵築字北浜665－618 サンリブ杵築",
      "lat": 33.42007,
      "lng": 131.62334,
      "geocoding_level": null,
      "phone": "",
      "license_no": "指令東保第751-106号",
      "license_date": null,
      "expire_date": null
    },
    {
      "name": "６３９サンリブ杵築店",
      "name_kana": "",
      "business_type": "魚介類販売業",
      "address": "大分県杵築市大字杵築字北浜665－618 サンリブ杵築",
      "lat": 33.42007,
      "lng": 131.62334,
      "geocoding_level": null,
      "phone": "",
      "license_no": "指令東保第751-107号",
      "license_date": null,
      "expire_date": null
    },
    {
      "name": "６３９サンリブ杵築店",
      "name_kana": "",
      "business_type": "飲食店営業",
      "address": "大分県杵築市大字杵築字北浜665－618 サンリブ杵築",
      "lat": 33.42007,
      "lng": 131.62334,
      "geocoding_level": null,
      "phone": "",
      "license_no": "指令東保第751-105号",
      "license_date": null,
      "expire_date": null
    },
    {
      "name": "有限会社コマツ杵築店",
      "name_kana": "",
      "business_type": "飲食店営業",
      "address": "大分県杵築市大字八坂字爪尾2841番地",
      "lat": 33.42225,
      "lng": 131.5649,
      "geocoding_level": null,
      "phone": "",
      "license_no": "指令東保第751-109号",
      "license_date": null,
      "expire_date": null
    },
    {
      "name": "有限会社コマツ杵築店",
      "name_kana": "",
      "business_type": "魚介類販売業",
      "address": "大分県杵築市大字八坂字爪尾2841番地",
      "lat": 33.42225,
      "lng": 131.5649,
      "geocoding_level": null,
      "phone": "",
      "license_no": "指令東保第751-110号",
      "license_date": null,
      "expire_date": null
    },
    {
      "name": "みのり村　いち押し工房",
      "name_kana": "",
      "business_type": "そうざい製造業",
      "address": "大分県杵築市大字日野1921-4、 1921-5､1921-7",
      "lat": 33.39402,
      "lng": 131.59856,
      "geocoding_level": null,
      "phone": "",
      "license_no": "指令東保第751-127号",
      "license_date": null,
      "expire_date": null
    },
    {
      "name": "ファミリーマート杵築八坂店",
      "name_kana": "",
      "business_type": "飲食店営業",
      "address": "大分県杵築市大字八坂字田計2478他",
      "lat": 33.42225,
      "lng": 131.5649,
      "geocoding_level": null,
      "phone": "",
      "license_no": "指令東保第751-206号",
      "license_date": null,
      "expire_date": null
    },
    {
      "name": "株式会社ニューメディカルフーズ瑞雲荘営業所",
      "name_kana": "",
      "business_type": "飲食店営業",
      "address": "大分県杵築市大田沓掛2380瑞雲荘",
      "lat": 33.50572,
      "lng": 131.54947,
      "geocoding_level": null,
      "phone": "",
      "license_no": "指令東保第751-194号",
      "license_date": null,
      "expire_date": null
    },
    {
      "name": "有限会社近藤養蜂場",
      "name_kana": "",
      "business_type": "密封包装食品製造業",
      "address": "大分県杵築市山香町大字向野2252－1",
      "lat": 33.5032,
      "lng": 131.4563,
      "geocoding_level": null,
      "phone": "",
      "license_no": "指令東保第751-199号",
      "license_date": null,
      "expire_date": null
    },
    {
      "name": "有限会社オレンジ農園",
      "name_kana": "",
      "business_type": "密封包装食品製造業",
      "address": "大分県杵築市中642－1",
      "lat": 33.39871,
      "lng": 131.58557,
      "geocoding_level": null,
      "phone": "",
      "license_no": "指令東保第751-178号",
      "license_date": null,
      "expire_date": null
    },
    {
      "name": "ローソン杵築猪尾店",
      "name_kana": "",
      "business_type": "飲食店営業",
      "address": "大分県杵築市大字猪尾64番地1",
      "lat": 33.40872,
      "lng": 131.62184,
      "geocoding_level": null,
      "phone": "",
      "license_no": "指令東保第751-214号",
      "license_date": null,
      "expire_date": null
    },
    {
      "name": "Ｏｌｉｖａ－Ｏｌｅａ",
      "name_kana": "",
      "business_type": "菓子製造業",
      "address": "大分県杵築市大字岩谷1072番地",
      "lat": 33.46583,
      "lng": 131.60483,
      "geocoding_level": null,
      "phone": "",
      "license_no": "指令東保第751-258号",
      "license_date": null,
      "expire_date": null
    },
    {
      "name": "有限会社高橋水産",
      "name_kana": "",
      "business_type": "魚介類販売業",
      "address": "大分県杵築市大字守江3742番地56",
      "lat": 33.4216,
      "lng": 131.64401,
      "geocoding_level": null,
      "phone": "",
      "license_no": "指令東保第751-77号",
      "license_date": null,
      "expire_date": null
    },
    {
      "name": "有限会社高橋水産",
      "name_kana": "",
      "business_type": "魚介類販売業",
      "address": "大分県杵築市大字守江3742番地64",
      "lat": 33.4216,
      "lng": 131.64401,
      "geocoding_level": null,
      "phone": "",
      "license_no": "指令東保第751-78号",
      "license_date": null,
      "expire_date": null
    },
    {
      "name": "Ｏｌｉｖａ-Ｏｌｅa",
      "name_kana": "",
      "business_type": "飲食店営業",
      "address": "大分県杵築市大字岩谷1072番地",
      "lat": 33.46583,
      "lng": 131.60483,
      "geocoding_level": null,
      "phone": "",
      "license_no": "指令東保第751-143号",
      "license_date": null,
      "expire_date": null
    },
    {
      "name": "エヌ・フードサービス山香苑事業所",
      "name_kana": "",
      "business_type": "飲食店営業",
      "address": "大分県杵築市山香町大字野原1405－1",
      "lat": 33.42169,
      "lng": 131.49568,
      "geocoding_level": null,
      "phone": "",
      "license_no": "指令東保第751-148号",
      "license_date": null,
      "expire_date": null
    },
    {
      "name": "エヌ・フードサービス心助園事業所",
      "name_kana": "",
      "business_type": "飲食店営業",
      "address": "大分県杵築市熊野1427－1",
      "lat": 33.38647,
      "lng": 131.63184,
      "geocoding_level": null,
      "phone": "",
      "license_no": "指令東保第751-183号",
      "license_date": null,
      "expire_date": null
    },
    {
      "name": "ｂｕｒｇｅｒ　ｓｔａｎｄ　マサカノ",
      "name_kana": "",
      "business_type": "飲食店営業",
      "address": "大分県杵築市奈多883",
      "lat": 33.43171,
      "lng": 131.70677,
      "geocoding_level": null,
      "phone": "",
      "license_no": "指令東保第751-260号",
      "license_date": null,
      "expire_date": null
    },
    {
      "name": "きつき衆楽観",
      "name_kana": "",
      "business_type": "飲食店営業",
      "address": "大分県杵築市大字杵築398番地1 （杵築市観光交流センター内）",
      "lat": 33.4177,
      "lng": 131.61581,
      "geocoding_level": null,
      "phone": "",
      "license_no": "指令東保第751-5号",
      "license_date": null,
      "expire_date": null
    },
    {
      "name": "大分県漁業協同組合杵築支店荷さばき・ハモ加工処理施設",
      "name_kana": "",
      "business_type": "魚介類販売業",
      "address": "大分県杵築市大字狩宿1972－3",
      "lat": 33.42166,
      "lng": 131.69151,
      "geocoding_level": null,
      "phone": "",
      "license_no": "指令東保第751-59号",
      "license_date": null,
      "expire_date": null
    },
    {
      "name": "(株)ＪＡフーズおおいた杵築",
      "name_kana": "",
      "business_type": "喫茶店営業",
      "address": "大分県杵築市大字本庄1453番地の1",
      "lat": 33.4143,
      "lng": 131.59148,
      "geocoding_level": null,
      "phone": "",
      "license_no": "指令東保第750-221号",
      "license_date": null,
      "expire_date": null
    },
    {
      "name": "有限会社古賀酒店",
      "name_kana": "",
      "business_type": "飲食店営業",
      "address": "大分県杵築市大字南杵築1718番地の1",
      "lat": 33.41759,
      "lng": 131.60947,
      "geocoding_level": null,
      "phone": "",
      "license_no": "指令東保第751-307号",
      "license_date": null,
      "expire_date": null
    },
    {
      "name": "ＫＩＴＳＵＫＩ　ＴＥＲＲＡＣＥ",
      "name_kana": "",
      "business_type": "飲食店営業",
      "address": "大分県杵築市大字守江4785番地",
      "lat": 33.42028,
      "lng": 131.6618,
      "geocoding_level": null,
      "phone": "",
      "license_no": "指令東保第750-256号",
      "license_date": null,
      "expire_date": null
    },
    {
      "name": "ＫＩＴＳＵＫＩ　ＴＥＲＲＡＣＥ",
      "name_kana": "",
      "business_type": "魚介類販売業",
      "address": "大分県杵築市大字守江4785番地",
      "lat": 33.42028,
      "lng": 131.6618,
      "geocoding_level": null,
      "phone": "",
      "license_no": "指令東保第750-257号",
      "license_date": null,
      "expire_date": null
    },
    {
      "name": "株式会社Ａコープ九州　Ａコープきつき店",
      "name_kana": "",
      "business_type": "飲食店営業",
      "address": "大分県杵築市杵築字北浜695－8",
      "lat": 33.42007,
      "lng": 131.62334,
      "geocoding_level": null,
      "phone": "",
      "license_no": "指令東保第750-305号",
      "license_date": null,
      "expire_date": null
    },
    {
      "name": "株式会社Ａコープ九州　Ａコープきつき店",
      "name_kana": "",
      "business_type": "菓子製造業",
      "address": "大分県杵築市杵築字北浜695－8",
      "lat": 33.42007,
      "lng": 131.62334,
      "geocoding_level": null,
      "phone": "",
      "license_no": "指令東保第750-318号",
      "license_date": null,
      "expire_date": null
    },
    {
      "name": "ます田や",
      "name_kana": "",
      "business_type": "飲食店営業",
      "address": "大分県杵築市大字杵築171",
      "lat": 33.41687,
      "lng": 131.61916,
      "geocoding_level": null,
      "phone": "",
      "license_no": "指令東保第750-8号",
      "license_date": null,
      "expire_date": null
    },
    {
      "name": "株式会社 松山堂",
      "name_kana": "",
      "business_type": "アイスクリーム類製造業",
      "address": "大分県杵築市大字杵築129番地",
      "lat": 33.41536,
      "lng": 131.62234,
      "geocoding_level": null,
      "phone": "",
      "license_no": "指令東保第750-70号",
      "license_date": null,
      "expire_date": null
    },
    {
      "name": "すだち",
      "name_kana": "",
      "business_type": "菓子製造業",
      "address": "大分県杵築市山香町立石165",
      "lat": 33.48612,
      "lng": 131.47481,
      "geocoding_level": null,
      "phone": "",
      "license_no": "指令東保第750-122号",
      "license_date": null,
      "expire_date": null
    },
    {
      "name": "すだち",
      "name_kana": "",
      "business_type": "そうざい製造業",
      "address": "大分県杵築市山香町立石165",
      "lat": 33.48612,
      "lng": 131.47481,
      "geocoding_level": null,
      "phone": "",
      "license_no": "指令東保第750-123号",
      "license_date": null,
      "expire_date": null
    },
    {
      "name": "とどろきの里",
      "name_kana": "",
      "business_type": "飲食店営業",
      "address": "大分県杵築市大字船部字中津屋２１６７－３０",
      "lat": 33.45435,
      "lng": 131.58754,
      "geocoding_level": null,
      "phone": "",
      "license_no": "指令東保第750-197号",
      "license_date": null,
      "expire_date": null
    },
    {
      "name": "Ｏｌｉｖａ　Ｏｌｅａ",
      "name_kana": "",
      "business_type": "食用油脂製造業",
      "address": "大分県杵築市大字岩谷1071－1",
      "lat": 33.46583,
      "lng": 131.60483,
      "geocoding_level": null,
      "phone": "",
      "license_no": "指令東保第750-200号",
      "license_date": null,
      "expire_date": null
    },
    {
      "name": "神田楽市",
      "name_kana": "",
      "business_type": "調理機能を有する自動販売機",
      "address": "大分県杵築市山香町内河野２５４３-１",
      "lat": 33.45749,
      "lng": 131.48399,
      "geocoding_level": null,
      "phone": "",
      "license_no": "指令東保第750-229号",
      "license_date": null,
      "expire_date": null
    },
    {
      "name": "大阪惣菜株式会社　花ごよみ",
      "name_kana": "",
      "business_type": "そうざい製造業",
      "address": "大分県杵築市山香町内河野2561－1 Ａコープ山香",
      "lat": 33.45749,
      "lng": 131.48399,
      "geocoding_level": null,
      "phone": "",
      "license_no": "指令東保第750-243号",
      "license_date": null,
      "expire_date": null
    },
    {
      "name": "太陽の家広寿苑",
      "name_kana": "",
      "business_type": "飲食店営業",
      "address": "大分県杵築市山香町大字野原字船木１６６２番１",
      "lat": 33.42169,
      "lng": 131.49568,
      "geocoding_level": null,
      "phone": "",
      "license_no": "指令東保第750-247号",
      "license_date": null,
      "expire_date": null
    },
    {
      "name": "食道園",
      "name_kana": "",
      "business_type": "飲食店営業",
      "address": "大分県杵築市杵築665－104",
      "lat": 33.41855,
      "lng": 131.62192,
      "geocoding_level": null,
      "phone": "",
      "license_no": "指令東保第750-21号",
      "license_date": null,
      "expire_date": null
    },
    {
      "name": "ラーメンショップ山香店",
      "name_kana": "",
      "business_type": "飲食店営業",
      "address": "大分県杵築市山香町大字向野2184－2",
      "lat": 33.5032,
      "lng": 131.4563,
      "geocoding_level": null,
      "phone": "",
      "license_no": "指令東保第750-37号",
      "license_date": null,
      "expire_date": null
    },
    {
      "name": "元禄うどん",
      "name_kana": "",
      "business_type": "飲食店営業",
      "address": "大分県杵築市大字守江3899-1",
      "lat": 33.42237,
      "lng": 131.64673,
      "geocoding_level": null,
      "phone": "",
      "license_no": "指令東保第750-57号",
      "license_date": null,
      "expire_date": null
    },
    {
      "name": "介護老人保健施設　梅桃",
      "name_kana": "",
      "business_type": "飲食店営業",
      "address": "大分県杵築市大内7696",
      "lat": 33.42317,
      "lng": 131.63084,
      "geocoding_level": null,
      "phone": "",
      "license_no": "指令東保第750-82号",
      "license_date": null,
      "expire_date": null
    },
    {
      "name": "合同会社杵築翁達磨",
      "name_kana": "",
      "business_type": "飲食店営業",
      "address": "大分県杵築市守江2114－25",
      "lat": 33.4301,
      "lng": 131.6665,
      "geocoding_level": null,
      "phone": "",
      "license_no": "指令東保第750-88号",
      "license_date": null,
      "expire_date": null
    },
    {
      "name": "（株）幸力",
      "name_kana": "",
      "business_type": "飲食店営業",
      "address": "大分県杵築市大字溝井2568-1",
      "lat": 33.43499,
      "lng": 131.58403,
      "geocoding_level": null,
      "phone": "",
      "license_no": "指令東保第750-142号",
      "license_date": null,
      "expire_date": null
    },
    {
      "name": "野上邸",
      "name_kana": "",
      "business_type": "飲食店営業",
      "address": "大分県杵築市大字南杵築28番地1",
      "lat": 33.41341,
      "lng": 131.61957,
      "geocoding_level": null,
      "phone": "",
      "license_no": "指令東保第750-132号",
      "license_date": null,
      "expire_date": null
    },
    {
      "name": "（株）幸力",
      "name_kana": "",
      "business_type": "食肉販売業",
      "address": "大分県杵築市大字溝井2568-1",
      "lat": 33.43499,
      "lng": 131.58403,
      "geocoding_level": null,
      "phone": "",
      "license_no": "指令東保第750-150号",
      "license_date": null,
      "expire_date": null
    },
    {
      "name": "（株）幸力",
      "name_kana": "",
      "business_type": "菓子製造業",
      "address": "大分県杵築市大字溝井2568-1",
      "lat": 33.43499,
      "lng": 131.58403,
      "geocoding_level": null,
      "phone": "",
      "license_no": "指令東保第750-173号",
      "license_date": null,
      "expire_date": null
    },
    {
      "name": "セブン－イレブン杵築塩田店",
      "name_kana": "",
      "business_type": "飲食店営業",
      "address": "大分県杵築市大字杵築字北浜665番531",
      "lat": 33.42007,
      "lng": 131.62334,
      "geocoding_level": null,
      "phone": "",
      "license_no": "指令東保第750-166号",
      "license_date": null,
      "expire_date": null
    },
    {
      "name": "セブン－イレブン杵築北浜店",
      "name_kana": "",
      "business_type": "飲食店営業",
      "address": "大分県杵築市大字杵築字北浜700番1-2",
      "lat": 33.42007,
      "lng": 131.62334,
      "geocoding_level": null,
      "phone": "",
      "license_no": "指令東保第750-167号",
      "license_date": null,
      "expire_date": null
    },
    {
      "name": "セブン－イレブン杵築南杵築店",
      "name_kana": "",
      "business_type": "飲食店営業",
      "address": "大分県杵築市大字南杵築1969番地1",
      "lat": 33.4184,
      "lng": 131.60741,
      "geocoding_level": null,
      "phone": "",
      "license_no": "指令東保第750-168号",
      "license_date": null,
      "expire_date": null
    },
    {
      "name": "のみめしや　勝",
      "name_kana": "",
      "business_type": "飲食店営業",
      "address": "大分県杵築市大字杵築739番地1 渡辺テナント8",
      "lat": 33.42061,
      "lng": 131.62051,
      "geocoding_level": null,
      "phone": "",
      "license_no": "指令東保第750-202号",
      "license_date": null,
      "expire_date": null
    },
    {
      "name": "大分水産有限会社",
      "name_kana": "",
      "business_type": "水産製品製造業",
      "address": "大分県杵築市大字猪尾680番地2",
      "lat": 33.40459,
      "lng": 131.61197,
      "geocoding_level": null,
      "phone": "",
      "license_no": "指令東保第750-224号",
      "license_date": null,
      "expire_date": null
    },
    {
      "name": "かぼちゃん弁当",
      "name_kana": "",
      "business_type": "そうざい製造業",
      "address": "大分県杵築市大字守江3897-8",
      "lat": 33.4216,
      "lng": 131.64401,
      "geocoding_level": null,
      "phone": "",
      "license_no": "指令東保第750-233号",
      "license_date": null,
      "expire_date": null
    },
    {
      "name": "縁",
      "name_kana": "",
      "business_type": "飲食店営業",
      "address": "大分県杵築市大字杵築665番地546",
      "lat": 33.41855,
      "lng": 131.62192,
      "geocoding_level": null,
      "phone": "",
      "license_no": "指令東保第750-256号",
      "license_date": null,
      "expire_date": null
    },
    {
      "name": "アトリエ　天使のバラ",
      "name_kana": "",
      "business_type": "飲食店営業",
      "address": "大分県杵築市山香町大字吉野渡1604-13",
      "lat": 33.46568,
      "lng": 131.46457,
      "geocoding_level": null,
      "phone": "",
      "license_no": "指令東保第750-272号",
      "license_date": null,
      "expire_date": null
    },
    {
      "name": "有限会社コマツ　杵築店",
      "name_kana": "",
      "business_type": "飲食店営業",
      "address": "大分県杵築市八坂字瓜尾２８４１番地",
      "lat": 33.42225,
      "lng": 131.5649,
      "geocoding_level": null,
      "phone": "",
      "license_no": "指令東保第750-46号",
      "license_date": null,
      "expire_date": null
    },
    {
      "name": "ローソン杵築宗近店",
      "name_kana": "",
      "business_type": "飲食店営業",
      "address": "大分県杵築市大字南杵築１７０４－１",
      "lat": 33.41693,
      "lng": 131.6098,
      "geocoding_level": null,
      "phone": "",
      "license_no": "指令東保第750-74号",
      "license_date": null,
      "expire_date": null
    },
    {
      "name": "みのり村　いち押し工房",
      "name_kana": "",
      "business_type": "漬物製造業",
      "address": "大分県杵築市大字日野1921-4、 1921-5､1921-7",
      "lat": 33.39402,
      "lng": 131.59856,
      "geocoding_level": null,
      "phone": "",
      "license_no": "指令東保第750-96号",
      "license_date": null,
      "expire_date": null
    },
    {
      "name": "山浦小学校",
      "name_kana": "",
      "business_type": "菓子製造業",
      "address": "大分県杵築市山香町大字山浦２５０８番地",
      "lat": 33.45814,
      "lng": 131.44157,
      "geocoding_level": null,
      "phone": "",
      "license_no": "指令東保第750-148号",
      "license_date": null,
      "expire_date": null
    },
    {
      "name": "山浦小学校",
      "name_kana": "",
      "business_type": "飲食店営業",
      "address": "大分県杵築市山香町大字山浦２５０８番地",
      "lat": 33.45814,
      "lng": 131.44157,
      "geocoding_level": null,
      "phone": "",
      "license_no": "指令東保第750-149号",
      "license_date": null,
      "expire_date": null
    },
    {
      "name": "山浦小学校",
      "name_kana": "",
      "business_type": "密封包装食品製造業",
      "address": "大分県杵築市山香町大字山浦２５０８番地",
      "lat": 33.45814,
      "lng": 131.44157,
      "geocoding_level": null,
      "phone": "",
      "license_no": "指令東保第750-150号",
      "license_date": null,
      "expire_date": null
    },
    {
      "name": "有限会社楽四季舎",
      "name_kana": "",
      "business_type": "菓子製造業",
      "address": "大分県杵築市山香町大字内河野２５５２番地１",
      "lat": 33.45749,
      "lng": 131.48399,
      "geocoding_level": null,
      "phone": "",
      "license_no": "指令東保第750-183号",
      "license_date": null,
      "expire_date": null
    },
    {
      "name": "木村商事株式会社",
      "name_kana": "",
      "business_type": "水産製品製造業",
      "address": "大分県杵築市守江3742",
      "lat": 33.4216,
      "lng": 131.64401,
      "geocoding_level": null,
      "phone": "",
      "license_no": "指令東保第750-211号",
      "license_date": null,
      "expire_date": null
    },
    {
      "name": "木村商事株式会社",
      "name_kana": "",
      "business_type": "食肉販売業",
      "address": "大分県杵築市守江3742",
      "lat": 33.4216,
      "lng": 131.64401,
      "geocoding_level": null,
      "phone": "",
      "license_no": "指令東保第750-212号",
      "license_date": null,
      "expire_date": null
    },
    {
      "name": "山香温泉　風の郷　萬彩食堂",
      "name_kana": "",
      "business_type": "飲食店営業",
      "address": "大分県杵築市山香町倉成３００３番地",
      "lat": 33.45914,
      "lng": 131.51308,
      "geocoding_level": null,
      "phone": "",
      "license_no": "指令東保第750-268号",
      "license_date": null,
      "expire_date": null
    },
    {
      "name": "山香温泉　風の郷　煎",
      "name_kana": "",
      "business_type": "飲食店営業",
      "address": "大分県杵築市山香町倉成３００３番地",
      "lat": 33.45914,
      "lng": 131.51308,
      "geocoding_level": null,
      "phone": "",
      "license_no": "指令東保第750-269号",
      "license_date": null,
      "expire_date": null
    },
    {
      "name": "山香温泉　風の郷　奥丹蔵",
      "name_kana": "",
      "business_type": "飲食店営業",
      "address": "大分県杵築市山香町倉成３００３番地",
      "lat": 33.45914,
      "lng": 131.51308,
      "geocoding_level": null,
      "phone": "",
      "license_no": "指令東保第750-271号",
      "license_date": null,
      "expire_date": null
    },
    {
      "name": "丸共水産有限会社",
      "name_kana": "",
      "business_type": "水産製品製造業",
      "address": "大分県杵築市守江１１１９番地",
      "lat": 33.41339,
      "lng": 131.67294,
      "geocoding_level": null,
      "phone": "",
      "license_no": "指令東保第750-285号",
      "license_date": null,
      "expire_date": null
    },
    {
      "name": "新廣海産　第１工場",
      "name_kana": "",
      "business_type": "水産製品製造業",
      "address": "大分県杵築市大字猪尾８２番地",
      "lat": 33.40656,
      "lng": 131.621,
      "geocoding_level": null,
      "phone": "",
      "license_no": "指令東保第750-289号",
      "license_date": null,
      "expire_date": null
    },
    {
      "name": "新廣海産　第２工場",
      "name_kana": "",
      "business_type": "水産製品製造業",
      "address": "大分県杵築市大字猪尾８２番地",
      "lat": 33.40656,
      "lng": 131.621,
      "geocoding_level": null,
      "phone": "",
      "license_no": "指令東保第750-290号",
      "license_date": null,
      "expire_date": null
    },
    {
      "name": "株式会社カネマル",
      "name_kana": "",
      "business_type": "水産製品製造業",
      "address": "大分県杵築市大字守江３の１８３１番地の３３",
      "lat": 33.42028,
      "lng": 131.6618,
      "geocoding_level": null,
      "phone": "",
      "license_no": "指令東保第750-27号",
      "license_date": null,
      "expire_date": null
    },
    {
      "name": "有限会社三浦水産",
      "name_kana": "",
      "business_type": "水産製品製造業",
      "address": "大分県杵築市大字熊野５６０番地",
      "lat": 33.38647,
      "lng": 131.63184,
      "geocoding_level": null,
      "phone": "",
      "license_no": "指令東保第750-24号",
      "license_date": null,
      "expire_date": null
    },
    {
      "name": "お茶のとまや",
      "name_kana": "",
      "business_type": "飲食店営業",
      "address": "大分県杵築市杵築385番地",
      "lat": 33.41696,
      "lng": 131.61646,
      "geocoding_level": null,
      "phone": "",
      "license_no": "指令東保第750-52号",
      "license_date": null,
      "expire_date": null
    },
    {
      "name": "海の時間",
      "name_kana": "",
      "business_type": "飲食店営業",
      "address": "大分県杵築市大字杵築字北浜６６５番地９１６",
      "lat": 33.42007,
      "lng": 131.62334,
      "geocoding_level": null,
      "phone": "",
      "license_no": "指令東保第750-59号",
      "license_date": null,
      "expire_date": null
    },
    {
      "name": "有限会社高橋水産",
      "name_kana": "",
      "business_type": "水産製品製造業",
      "address": "大分県杵築市大字守江3742番地56",
      "lat": 33.4216,
      "lng": 131.64401,
      "geocoding_level": null,
      "phone": "",
      "license_no": "指令東保第750-43号",
      "license_date": null,
      "expire_date": null
    },
    {
      "name": "有限会社三浦水産",
      "name_kana": "",
      "business_type": "魚介類販売業",
      "address": "大分県杵築市大字熊野５６０番地",
      "lat": 33.38647,
      "lng": 131.63184,
      "geocoding_level": null,
      "phone": "",
      "license_no": "指令東保第750-58号",
      "license_date": null,
      "expire_date": null
    },
    {
      "name": "有限会社中野酒造",
      "name_kana": "",
      "business_type": "漬物製造業",
      "address": "大分県杵築市大字南杵築2487番地の1",
      "lat": 33.42135,
      "lng": 131.60199,
      "geocoding_level": null,
      "phone": "",
      "license_no": "指令東保第750-42号",
      "license_date": null,
      "expire_date": null
    },
    {
      "name": "加貫水産加工有限会社",
      "name_kana": "",
      "business_type": "水産製品製造業",
      "address": "大分県杵築市大字熊野1225-3",
      "lat": 33.38647,
      "lng": 131.63184,
      "geocoding_level": null,
      "phone": "",
      "license_no": "指令東保第750-66号",
      "license_date": null,
      "expire_date": null
    },
    {
      "name": "だいこんの花",
      "name_kana": "",
      "business_type": "食品の小分け業",
      "address": "大分県杵築市山香町大字内河野２５４３番地１",
      "lat": 33.45749,
      "lng": 131.48399,
      "geocoding_level": null,
      "phone": "",
      "license_no": "指令東保第750-75号",
      "license_date": null,
      "expire_date": null
    },
    {
      "name": "白萩園",
      "name_kana": "",
      "business_type": "飲食店営業",
      "address": "大分県杵築市大字日野１９２１－７",
      "lat": 33.39402,
      "lng": 131.59856,
      "geocoding_level": null,
      "phone": "",
      "license_no": "指令東保第750-101号",
      "license_date": null,
      "expire_date": null
    },
    {
      "name": "株式会社絆屋",
      "name_kana": "",
      "business_type": "水産製品製造業",
      "address": "大分県杵築市大字片野字神領1014番1",
      "lat": 33.40467,
      "lng": 131.63033,
      "geocoding_level": null,
      "phone": "",
      "license_no": "指令東保第750-107号",
      "license_date": null,
      "expire_date": null
    },
    {
      "name": "ます田や",
      "name_kana": "",
      "business_type": "飲食店営業",
      "address": "大分県杵築市大字杵築１７１",
      "lat": 33.41687,
      "lng": 131.61916,
      "geocoding_level": null,
      "phone": "",
      "license_no": "指令東保第750-151号",
      "license_date": null,
      "expire_date": null
    },
    {
      "name": "有限会社　中野酒造",
      "name_kana": "",
      "business_type": "飲食店営業",
      "address": "大分県杵築市大字南杵築２４８７－１",
      "lat": 33.42135,
      "lng": 131.60199,
      "geocoding_level": null,
      "phone": "",
      "license_no": "指令東保第750-267号",
      "license_date": null,
      "expire_date": null
    },
    {
      "name": "野草の里やまうら喫茶室",
      "name_kana": "",
      "business_type": "飲食店営業",
      "address": "大分県杵築市山香町大字山浦２５０８番地",
      "lat": 33.45814,
      "lng": 131.44157,
      "geocoding_level": null,
      "phone": "",
      "license_no": "指令東保第750-51号",
      "license_date": null,
      "expire_date": null
    },
    {
      "name": "故郷",
      "name_kana": "",
      "business_type": "食品の小分け業",
      "address": "大分県杵築市大字杵築665番地172",
      "lat": 33.41855,
      "lng": 131.62192,
      "geocoding_level": null,
      "phone": "",
      "license_no": "指令東保第750-58号",
      "license_date": null,
      "expire_date": null
    },
    {
      "name": "イーティーズ杵築店",
      "name_kana": "",
      "business_type": "飲食店営業",
      "address": "大分県杵築市大字杵築665番地737 ダイレックス杵築店内",
      "lat": 33.41855,
      "lng": 131.62192,
      "geocoding_level": null,
      "phone": "",
      "license_no": "指令東保第750-77号",
      "license_date": null,
      "expire_date": null
    },
    {
      "name": "ダイレックス",
      "name_kana": "",
      "business_type": "飲食店営業",
      "address": "大分県杵築市大字杵築665番地737",
      "lat": 33.41855,
      "lng": 131.62192,
      "geocoding_level": null,
      "phone": "",
      "license_no": "指令東保第750-62号",
      "license_date": null,
      "expire_date": null
    },
    {
      "name": "ダイレックス",
      "name_kana": "",
      "business_type": "魚介類販売業",
      "address": "大分県杵築市大字杵築665番地737",
      "lat": 33.41855,
      "lng": 131.62192,
      "geocoding_level": null,
      "phone": "",
      "license_no": "指令東保第750-63号",
      "license_date": null,
      "expire_date": null
    },
    {
      "name": "ダイレックス杵築店",
      "name_kana": "",
      "business_type": "食肉販売業",
      "address": "大分県杵築市大字杵築665番地737",
      "lat": 33.41855,
      "lng": 131.62192,
      "geocoding_level": null,
      "phone": "",
      "license_no": "指令東保第750-61号",
      "license_date": null,
      "expire_date": null
    },
    {
      "name": "ＧＯＲＤＯＮ　ＭＩＬＬＥＲ　ＹＡＭＡＧＡ",
      "name_kana": "",
      "business_type": "飲食店営業",
      "address": "大分県杵築市山香町大字内河野字神田2543-1-2",
      "lat": 33.45749,
      "lng": 131.48399,
      "geocoding_level": null,
      "phone": "",
      "license_no": "指令東保第750-111号",
      "license_date": null,
      "expire_date": null
    },
    {
      "name": "婦人の家",
      "name_kana": "",
      "business_type": "そうざい製造業",
      "address": "大分県杵築市大字杵築740番地1",
      "lat": 33.42061,
      "lng": 131.62051,
      "geocoding_level": null,
      "phone": "",
      "license_no": "指令東保第750-142号",
      "license_date": null,
      "expire_date": null
    },
    {
      "name": "スカイファームゆうび株式会社",
      "name_kana": "",
      "business_type": "密封包装食品製造業",
      "address": "大分県杵築市大字南杵築1827番地1",
      "lat": 33.41502,
      "lng": 131.6082,
      "geocoding_level": null,
      "phone": "",
      "license_no": "指令東保第750-143号",
      "license_date": null,
      "expire_date": null
    },
    {
      "name": "中国料理「そんごくう」",
      "name_kana": "",
      "business_type": "飲食店営業",
      "address": "大分県杵築市山香町内河野2788－4",
      "lat": 33.45749,
      "lng": 131.48399,
      "geocoding_level": null,
      "phone": "",
      "license_no": "指令東保第751-110号",
      "license_date": null,
      "expire_date": null
    },
    {
      "name": "大衆酒場　城下町",
      "name_kana": "",
      "business_type": "飲食店営業",
      "address": "大分県杵築市杵築662番地",
      "lat": 33.41809,
      "lng": 131.62302,
      "geocoding_level": null,
      "phone": "",
      "license_no": "指令東保第751-177号",
      "license_date": null,
      "expire_date": null
    },
    {
      "name": "よろうか",
      "name_kana": "",
      "business_type": "飲食店営業",
      "address": "大分県杵築市杵築1139－3",
      "lat": 33.41911,
      "lng": 131.61406,
      "geocoding_level": null,
      "phone": "",
      "license_no": "指令東保第751-261号",
      "license_date": null,
      "expire_date": null
    },
    {
      "name": "ひかり",
      "name_kana": "",
      "business_type": "飲食店営業",
      "address": "大分県杵築市大字日野1682番2",
      "lat": 33.39641,
      "lng": 131.58923,
      "geocoding_level": null,
      "phone": "",
      "license_no": "指令東保第751-152号",
      "license_date": null,
      "expire_date": null
    },
    {
      "name": "中華飯店　国際",
      "name_kana": "",
      "business_type": "飲食店営業",
      "address": "大分県杵築市大字杵築1139－3",
      "lat": 33.41911,
      "lng": 131.61406,
      "geocoding_level": null,
      "phone": "",
      "license_no": "指令東保第751-206号",
      "license_date": null,
      "expire_date": null
    },
    {
      "name": "糸長鮮魚店",
      "name_kana": "",
      "business_type": "魚介類販売業",
      "address": "大分県杵築市山香町野原1766－27",
      "lat": 33.42169,
      "lng": 131.49568,
      "geocoding_level": null,
      "phone": "",
      "license_no": "指令東保第751-338号",
      "license_date": null,
      "expire_date": null
    },
    {
      "name": "亀井別荘",
      "name_kana": "",
      "business_type": "飲食店営業",
      "address": "大分県杵築市杵築115番地",
      "lat": 33.41536,
      "lng": 131.62234,
      "geocoding_level": null,
      "phone": "",
      "license_no": "指令東保第751-217号",
      "license_date": null,
      "expire_date": null
    },
    {
      "name": "宮湖堂",
      "name_kana": "",
      "business_type": "菓子製造業",
      "address": "大分県杵築市大字大内4607",
      "lat": 33.42313,
      "lng": 131.62753,
      "geocoding_level": null,
      "phone": "",
      "license_no": "指令東保第751-6号",
      "license_date": null,
      "expire_date": null
    },
    {
      "name": "定食屋ポット・イン",
      "name_kana": "",
      "business_type": "飲食店営業",
      "address": "大分県杵築市山香町内河野2898－1－2",
      "lat": 33.45749,
      "lng": 131.48399,
      "geocoding_level": null,
      "phone": "",
      "license_no": "指令東保第751-181号",
      "license_date": null,
      "expire_date": null
    },
    {
      "name": "近藤製パン工場",
      "name_kana": "",
      "business_type": "菓子製造業",
      "address": "大分県杵築市大字南杵築34",
      "lat": 33.41833,
      "lng": 131.60675,
      "geocoding_level": null,
      "phone": "",
      "license_no": "指令東保第751-209号",
      "license_date": null,
      "expire_date": null
    },
    {
      "name": "スナック恵美",
      "name_kana": "",
      "business_type": "飲食店営業",
      "address": "大分県杵築市大字杵築北浜安藤ビル内",
      "lat": 33.42007,
      "lng": 131.62334,
      "geocoding_level": null,
      "phone": "",
      "license_no": "指令東保第751-299号",
      "license_date": null,
      "expire_date": null
    },
    {
      "name": "居酒屋　直",
      "name_kana": "",
      "business_type": "飲食店営業",
      "address": "大分県杵築市杵築煙硝倉1218－2",
      "lat": 33.41885,
      "lng": 131.62219,
      "geocoding_level": null,
      "phone": "",
      "license_no": "指令東保第751-263号",
      "license_date": null,
      "expire_date": null
    },
    {
      "name": "パピヨン",
      "name_kana": "",
      "business_type": "菓子製造業",
      "address": "大分県杵築市南杵築1647－1",
      "lat": 33.41762,
      "lng": 131.61342,
      "geocoding_level": null,
      "phone": "",
      "license_no": "指令東保第751-314号",
      "license_date": null,
      "expire_date": null
    },
    {
      "name": "海鮮亭　ざこば",
      "name_kana": "",
      "business_type": "飲食店営業",
      "address": "大分県杵築市猪尾230－1",
      "lat": 33.40882,
      "lng": 131.61925,
      "geocoding_level": null,
      "phone": "",
      "license_no": "指令東保第751-61号",
      "license_date": null,
      "expire_date": null
    },
    {
      "name": "海の家　宝生奈多支店",
      "name_kana": "",
      "business_type": "飲食店営業",
      "address": "大分県杵築市狩宿1133",
      "lat": 33.42366,
      "lng": 131.70392,
      "geocoding_level": null,
      "phone": "",
      "license_no": "指令東保第751-149号",
      "license_date": null,
      "expire_date": null
    },
    {
      "name": "亀福",
      "name_kana": "",
      "business_type": "飲食店営業",
      "address": "大分県杵築市大田石丸 449番地の1",
      "lat": 33.49422,
      "lng": 131.56412,
      "geocoding_level": null,
      "phone": "",
      "license_no": "指令東保第751-298号",
      "license_date": null,
      "expire_date": null
    },
    {
      "name": "中国食事処”点心嬉楽”",
      "name_kana": "",
      "business_type": "飲食店営業",
      "address": "大分県杵築市大内字天神の元 3406-3",
      "lat": 33.44173,
      "lng": 131.63202,
      "geocoding_level": null,
      "phone": "",
      "license_no": "指令東保第751-184号",
      "license_date": null,
      "expire_date": null
    },
    {
      "name": "焼肉みやべ",
      "name_kana": "",
      "business_type": "飲食店営業",
      "address": "大分県杵築市大字杵築665－315",
      "lat": 33.41855,
      "lng": 131.62192,
      "geocoding_level": null,
      "phone": "",
      "license_no": "指令東保第751-292号",
      "license_date": null,
      "expire_date": null
    },
    {
      "name": "魚料理　大黒",
      "name_kana": "",
      "business_type": "飲食店営業",
      "address": "大分県杵築市大字杵築425",
      "lat": 33.41844,
      "lng": 131.61497,
      "geocoding_level": null,
      "phone": "",
      "license_no": "指令東保第751-26号",
      "license_date": null,
      "expire_date": null
    },
    {
      "name": "中央クラブ",
      "name_kana": "",
      "business_type": "飲食店営業",
      "address": "大分県杵築市杵築新町392－1",
      "lat": 33.41885,
      "lng": 131.62219,
      "geocoding_level": null,
      "phone": "",
      "license_no": "指令東保第751-407号",
      "license_date": null,
      "expire_date": null
    },
    {
      "name": "カフェ　あおぞら",
      "name_kana": "",
      "business_type": "飲食店営業",
      "address": "大分県杵築市杵築 1312－1",
      "lat": 33.41966,
      "lng": 131.61089,
      "geocoding_level": null,
      "phone": "",
      "license_no": "指令東保第751-405号",
      "license_date": null,
      "expire_date": null
    },
    {
      "name": "と々喜",
      "name_kana": "",
      "business_type": "飲食店営業",
      "address": "大分県杵築市錦城区2の8の2（大字杵築2-8-2）",
      "lat": 33.41703,
      "lng": 131.61609,
      "geocoding_level": null,
      "phone": "",
      "license_no": "指令東保第751-18号",
      "license_date": null,
      "expire_date": null
    },
    {
      "name": "デリカフーズ　マルタ",
      "name_kana": "",
      "business_type": "食肉販売業",
      "address": "大分県杵築市宮司817番39",
      "lat": 33.42413,
      "lng": 131.60657,
      "geocoding_level": null,
      "phone": "",
      "license_no": "指令東保第751-130号",
      "license_date": null,
      "expire_date": null
    },
    {
      "name": "Ｍ．Ｍiura",
      "name_kana": "",
      "business_type": "飲食店営業",
      "address": "大分県杵築市守江1807-5",
      "lat": 33.42237,
      "lng": 131.64673,
      "geocoding_level": null,
      "phone": "",
      "license_no": "指令東保第751-231号",
      "license_date": null,
      "expire_date": null
    },
    {
      "name": "速見インターふれあいフリーマーケット",
      "name_kana": "",
      "business_type": "菓子製造業",
      "address": "大分県杵築市山香町南畑字札ノ辻4927-40",
      "lat": 33.39868,
      "lng": 131.44724,
      "geocoding_level": null,
      "phone": "",
      "license_no": "指令東保第751-8号",
      "license_date": null,
      "expire_date": null
    },
    {
      "name": "杵築ラーメン 清新亭",
      "name_kana": "",
      "business_type": "飲食店営業",
      "address": "大分県杵築市守江4780-52",
      "lat": 33.42059,
      "lng": 131.64706,
      "geocoding_level": null,
      "phone": "",
      "license_no": "指令東保第751-39号",
      "license_date": null,
      "expire_date": null
    },
    {
      "name": "ＢＵＺＺ",
      "name_kana": "",
      "business_type": "飲食店営業",
      "address": "大分県杵築市守江1165-2",
      "lat": 33.42237,
      "lng": 131.64673,
      "geocoding_level": null,
      "phone": "",
      "license_no": "指令東保第751-35号",
      "license_date": null,
      "expire_date": null
    },
    {
      "name": "錦寿司",
      "name_kana": "",
      "business_type": "飲食店営業",
      "address": "大分県杵築市杵築字北浜665番地の486",
      "lat": 33.42007,
      "lng": 131.62334,
      "geocoding_level": null,
      "phone": "",
      "license_no": "指令東保第751-293号",
      "license_date": null,
      "expire_date": null
    },
    {
      "name": "田舎屋",
      "name_kana": "",
      "business_type": "漬物製造業",
      "address": "大分県杵築市山香町広瀬3752-2",
      "lat": 33.41782,
      "lng": 131.5271,
      "geocoding_level": null,
      "phone": "",
      "license_no": "指令東保第751-277号",
      "license_date": null,
      "expire_date": null
    },
    {
      "name": "茶房 一番館",
      "name_kana": "",
      "business_type": "飲食店営業",
      "address": "大分県杵築市杵築293番地",
      "lat": 33.41696,
      "lng": 131.61646,
      "geocoding_level": null,
      "phone": "",
      "license_no": "指令東保第751-324号",
      "license_date": null,
      "expire_date": null
    },
    {
      "name": "パティスリー　ジーク",
      "name_kana": "",
      "business_type": "菓子製造業",
      "address": "大分県杵築市杵築665－479",
      "lat": 33.41855,
      "lng": 131.62192,
      "geocoding_level": null,
      "phone": "",
      "license_no": "指令東保第751-103号",
      "license_date": null,
      "expire_date": null
    },
    {
      "name": "ナチュラル",
      "name_kana": "",
      "business_type": "飲食店営業",
      "address": "大分県杵築市杵築739番地の1",
      "lat": 33.42061,
      "lng": 131.62051,
      "geocoding_level": null,
      "phone": "",
      "license_no": "指令東保第751-104号",
      "license_date": null,
      "expire_date": null
    },
    {
      "name": "菜の花",
      "name_kana": "",
      "business_type": "飲食店営業",
      "address": "大分県杵築市杵築665－172 ふるさと産業会館内",
      "lat": 33.41855,
      "lng": 131.62192,
      "geocoding_level": null,
      "phone": "",
      "license_no": "指令東保第751-305号",
      "license_date": null,
      "expire_date": null
    },
    {
      "name": "岩尾　美枝子",
      "name_kana": "",
      "business_type": "漬物製造業",
      "address": "大分県杵築市山香町大字下1269－2",
      "lat": 33.47742,
      "lng": 131.50316,
      "geocoding_level": null,
      "phone": "",
      "license_no": "指令東保第750-130号",
      "license_date": null,
      "expire_date": null
    },
    {
      "name": "京屋　味かつ",
      "name_kana": "",
      "business_type": "飲食店営業",
      "address": "大分県杵築市南杵築弓町292－2",
      "lat": 33.41833,
      "lng": 131.60675,
      "geocoding_level": null,
      "phone": "",
      "license_no": "指令東保第751-147号",
      "license_date": null,
      "expire_date": null
    },
    {
      "name": "洋食屋おわたり",
      "name_kana": "",
      "business_type": "飲食店営業",
      "address": "大分県杵築市杵築126",
      "lat": 33.41629,
      "lng": 131.62102,
      "geocoding_level": null,
      "phone": "",
      "license_no": "指令東保第751-118号",
      "license_date": null,
      "expire_date": null
    },
    {
      "name": "浄土寺みそ本舗",
      "name_kana": "",
      "business_type": "漬物製造業",
      "address": "大分県杵築市山香町大字久木野尾3025番地2",
      "lat": 33.39481,
      "lng": 131.42529,
      "geocoding_level": null,
      "phone": "",
      "license_no": "指令東保第750-214号",
      "license_date": null,
      "expire_date": null
    },
    {
      "name": "浄土寺味噌本舗",
      "name_kana": "",
      "business_type": "みそ製造業",
      "address": "大分県杵築市山香町久木野尾3025番地2",
      "lat": 33.39481,
      "lng": 131.42529,
      "geocoding_level": null,
      "phone": "",
      "license_no": "指令東保第751-406号",
      "license_date": null,
      "expire_date": null
    },
    {
      "name": "チャイナキッチン卓",
      "name_kana": "",
      "business_type": "飲食店営業",
      "address": "大分県杵築市片野三月田 1150－209",
      "lat": 33.40467,
      "lng": 131.63033,
      "geocoding_level": null,
      "phone": "",
      "license_no": "指令東保第751-81号",
      "license_date": null,
      "expire_date": null
    },
    {
      "name": "めん処　ことら",
      "name_kana": "",
      "business_type": "飲食店営業",
      "address": "大分県杵築市大字杵築404番地",
      "lat": 33.4177,
      "lng": 131.61581,
      "geocoding_level": null,
      "phone": "",
      "license_no": "指令東保第751-229号",
      "license_date": null,
      "expire_date": null
    },
    {
      "name": "夢のぼり工房",
      "name_kana": "",
      "business_type": "そうざい製造業",
      "address": "大分県杵築市大田白木原1383番地の1",
      "lat": 33.5252,
      "lng": 131.58438,
      "geocoding_level": null,
      "phone": "",
      "license_no": "指令東保第751-365号",
      "license_date": null,
      "expire_date": null
    },
    {
      "name": "和遊食彩　みのり",
      "name_kana": "",
      "business_type": "飲食店営業",
      "address": "大分県杵築市大字杵築194",
      "lat": 33.41631,
      "lng": 131.61876,
      "geocoding_level": null,
      "phone": "",
      "license_no": "指令東保第751-19号",
      "license_date": null,
      "expire_date": null
    },
    {
      "name": "カフェ　バーＮｏ.５",
      "name_kana": "",
      "business_type": "飲食店営業",
      "address": "大分県杵築市大字杵築739－1 渡辺ビル1階",
      "lat": 33.42061,
      "lng": 131.62051,
      "geocoding_level": null,
      "phone": "",
      "license_no": "指令東保第751-69号",
      "license_date": null,
      "expire_date": null
    },
    {
      "name": "山香アグリ",
      "name_kana": "",
      "business_type": "食肉処理業",
      "address": "大分県杵築市山香町大字内河野3171番地",
      "lat": 33.45749,
      "lng": 131.48399,
      "geocoding_level": null,
      "phone": "",
      "license_no": "指令東保第751-44号",
      "license_date": null,
      "expire_date": null
    },
    {
      "name": "Ｔｏｍｏ",
      "name_kana": "",
      "business_type": "飲食店営業",
      "address": "大分県杵築市大字杵築北浜739－1 渡辺ビル",
      "lat": 33.42007,
      "lng": 131.62334,
      "geocoding_level": null,
      "phone": "",
      "license_no": "指令東保第751-355号",
      "license_date": null,
      "expire_date": null
    },
    {
      "name": "あすなろ工房",
      "name_kana": "",
      "business_type": "漬物製造業",
      "address": "大分県杵築市大字南杵築1324",
      "lat": 33.41375,
      "lng": 131.60854,
      "geocoding_level": null,
      "phone": "",
      "license_no": "指令東保第750-298号",
      "license_date": null,
      "expire_date": null
    },
    {
      "name": "菅原つけもの",
      "name_kana": "",
      "business_type": "漬物製造業",
      "address": "大分県杵築市山香町南畑5132番地",
      "lat": 33.39868,
      "lng": 131.44724,
      "geocoding_level": null,
      "phone": "",
      "license_no": "指令東保第750-283号",
      "license_date": null,
      "expire_date": null
    },
    {
      "name": "ハッピーキッチン",
      "name_kana": "",
      "business_type": "飲食店営業",
      "address": "大分県杵築市大字杵築745番地8",
      "lat": 33.42061,
      "lng": 131.62051,
      "geocoding_level": null,
      "phone": "",
      "license_no": "指令東保第751-441号",
      "license_date": null,
      "expire_date": null
    },
    {
      "name": "遊",
      "name_kana": "",
      "business_type": "飲食店営業",
      "address": "大分県杵築市大字杵築388番地",
      "lat": 33.41696,
      "lng": 131.61646,
      "geocoding_level": null,
      "phone": "",
      "license_no": "指令東保第751-439号",
      "license_date": null,
      "expire_date": null
    },
    {
      "name": "山香ジビエの郷",
      "name_kana": "",
      "business_type": "食肉処理業",
      "address": "大分県杵築市山香町大字吉野渡1009",
      "lat": 33.46568,
      "lng": 131.46457,
      "geocoding_level": null,
      "phone": "",
      "license_no": "指令東保第751-37号",
      "license_date": null,
      "expire_date": null
    },
    {
      "name": "きつき漁菜館",
      "name_kana": "",
      "business_type": "飲食店営業",
      "address": "大分県杵築市守江4780－20",
      "lat": 33.42059,
      "lng": 131.64706,
      "geocoding_level": null,
      "phone": "",
      "license_no": "指令東保第751-104号",
      "license_date": null,
      "expire_date": null
    },
    {
      "name": "きつき漁菜館",
      "name_kana": "",
      "business_type": "菓子製造業",
      "address": "大分県杵築市守江4780－20",
      "lat": 33.42059,
      "lng": 131.64706,
      "geocoding_level": null,
      "phone": "",
      "license_no": "指令東保第751-105号",
      "license_date": null,
      "expire_date": null
    },
    {
      "name": "和遊食彩　みのり",
      "name_kana": "",
      "business_type": "魚介類販売業",
      "address": "大分県杵築市杵築194",
      "lat": 33.41631,
      "lng": 131.61876,
      "geocoding_level": null,
      "phone": "",
      "license_no": "指令東保第751-141号",
      "license_date": null,
      "expire_date": null
    },
    {
      "name": "Tea工房　花",
      "name_kana": "",
      "business_type": "飲食店営業",
      "address": "大分県杵築市山香町大字立石2190－1",
      "lat": 33.48612,
      "lng": 131.47481,
      "geocoding_level": null,
      "phone": "",
      "license_no": "指令東保第751-329号",
      "license_date": null,
      "expire_date": null
    },
    {
      "name": "Tea工房　花",
      "name_kana": "",
      "business_type": "菓子製造業",
      "address": "大分県杵築市山香町大字立石2190－1",
      "lat": 33.48612,
      "lng": 131.47481,
      "geocoding_level": null,
      "phone": "",
      "license_no": "指令東保第751-330号",
      "license_date": null,
      "expire_date": null
    },
    {
      "name": "手造りぱん・菓子工房　まろんすぺーす",
      "name_kana": "",
      "business_type": "菓子製造業",
      "address": "大分県杵築市大字杵築340番地",
      "lat": 33.41816,
      "lng": 131.61618,
      "geocoding_level": null,
      "phone": "",
      "license_no": "指令東保第751-4号",
      "license_date": null,
      "expire_date": null
    },
    {
      "name": "すずめの楽校",
      "name_kana": "",
      "business_type": "飲食店営業",
      "address": "大分県杵築市大田小野860番地",
      "lat": 33.54199,
      "lng": 131.5705,
      "geocoding_level": null,
      "phone": "",
      "license_no": "指令東保第751-85号",
      "license_date": null,
      "expire_date": null
    },
    {
      "name": "猪鹿トリ",
      "name_kana": "",
      "business_type": "飲食店営業",
      "address": "大分県杵築市山香町内河野2716－8",
      "lat": 33.45749,
      "lng": 131.48399,
      "geocoding_level": null,
      "phone": "",
      "license_no": "指令東保第751-99号",
      "license_date": null,
      "expire_date": null
    },
    {
      "name": "キオラ　コテージ",
      "name_kana": "",
      "business_type": "菓子製造業",
      "address": "大分県杵築市山香町大字向野4761番地1",
      "lat": 33.5032,
      "lng": 131.4563,
      "geocoding_level": null,
      "phone": "",
      "license_no": "指令東保第751-60号",
      "license_date": null,
      "expire_date": null
    },
    {
      "name": "杵築高等学校　十王はなまる食堂",
      "name_kana": "",
      "business_type": "飲食店営業",
      "address": "大分県杵築市大字本庄2379",
      "lat": 33.41901,
      "lng": 131.60175,
      "geocoding_level": null,
      "phone": "",
      "license_no": "指令東保第751-28号",
      "license_date": null,
      "expire_date": null
    },
    {
      "name": "暘谷亭",
      "name_kana": "",
      "business_type": "飲食店営業",
      "address": "大分県杵築市南杵築1715－30",
      "lat": 33.41759,
      "lng": 131.60947,
      "geocoding_level": null,
      "phone": "",
      "license_no": "指令東保第751-91号",
      "license_date": null,
      "expire_date": null
    },
    {
      "name": "乙王茶寮　とまと",
      "name_kana": "",
      "business_type": "飲食店営業",
      "address": "大分県杵築市大字溝井1056番地1",
      "lat": 33.43499,
      "lng": 131.58403,
      "geocoding_level": null,
      "phone": "",
      "license_no": "指令東保第751-94号",
      "license_date": null,
      "expire_date": null
    },
    {
      "name": "万来",
      "name_kana": "",
      "business_type": "飲食店営業",
      "address": "大分県杵築市杵築665-399",
      "lat": 33.41855,
      "lng": 131.62192,
      "geocoding_level": null,
      "phone": "",
      "license_no": "指令東保第751-239号",
      "license_date": null,
      "expire_date": null
    },
    {
      "name": "四季彩　凛",
      "name_kana": "",
      "business_type": "飲食店営業",
      "address": "大分県杵築市大字杵築字北浜750－15",
      "lat": 33.42007,
      "lng": 131.62334,
      "geocoding_level": null,
      "phone": "",
      "license_no": "指令東保第751-264号",
      "license_date": null,
      "expire_date": null
    },
    {
      "name": "おちゃま工房",
      "name_kana": "",
      "business_type": "菓子製造業",
      "address": "大分県杵築市大字大内4080",
      "lat": 33.44173,
      "lng": 131.63202,
      "geocoding_level": null,
      "phone": "",
      "license_no": "指令東保第751-292号",
      "license_date": null,
      "expire_date": null
    },
    {
      "name": "峠たていしの館",
      "name_kana": "",
      "business_type": "喫茶店営業",
      "address": "大分県杵築市山香町大字立石2431－3",
      "lat": 33.48612,
      "lng": 131.47481,
      "geocoding_level": null,
      "phone": "",
      "license_no": "指令東保第751-91号",
      "license_date": null,
      "expire_date": null
    },
    {
      "name": "ほっともっと大分杵築店",
      "name_kana": "",
      "business_type": "飲食店営業",
      "address": "大分県杵築市大字杵築字北浜665－317",
      "lat": 33.42007,
      "lng": 131.62334,
      "geocoding_level": null,
      "phone": "",
      "license_no": "指令東保第751-129号",
      "license_date": null,
      "expire_date": null
    },
    {
      "name": "もなは亭",
      "name_kana": "",
      "business_type": "飲食店営業",
      "address": "大分県杵築市南杵築1687",
      "lat": 33.41737,
      "lng": 131.61057,
      "geocoding_level": null,
      "phone": "",
      "license_no": "指令東保第751-258号",
      "license_date": null,
      "expire_date": null
    },
    {
      "name": "スナック　Ｍ",
      "name_kana": "",
      "business_type": "飲食店営業",
      "address": "大分県杵築市杵築751－8店舗東",
      "lat": 33.42061,
      "lng": 131.62051,
      "geocoding_level": null,
      "phone": "",
      "license_no": "指令東保第751-213号",
      "license_date": null,
      "expire_date": null
    },
    {
      "name": "漁師直販所　末廣丸",
      "name_kana": "",
      "business_type": "魚介類販売業",
      "address": "大分県杵築市大字猪尾76－43",
      "lat": 33.40996,
      "lng": 131.62473,
      "geocoding_level": null,
      "phone": "",
      "license_no": "指令東保第751-339号",
      "license_date": null,
      "expire_date": null
    },
    {
      "name": "イタリア料理　ベアトリーチェ",
      "name_kana": "",
      "business_type": "飲食店営業",
      "address": "大分県杵築市山香町立石5461－2",
      "lat": 33.48612,
      "lng": 131.47481,
      "geocoding_level": null,
      "phone": "",
      "license_no": "指令東保第751-22号",
      "license_date": null,
      "expire_date": null
    },
    {
      "name": "勇駒",
      "name_kana": "",
      "business_type": "菓子製造業",
      "address": "大分県杵築市山香町大字久木野尾3841－8",
      "lat": 33.39481,
      "lng": 131.42529,
      "geocoding_level": null,
      "phone": "",
      "license_no": "指令東保第751-3号",
      "license_date": null,
      "expire_date": null
    },
    {
      "name": "まるいちからあげ",
      "name_kana": "",
      "business_type": "飲食店営業",
      "address": "大分県杵築市山香町大字内河野2536－4",
      "lat": 33.45749,
      "lng": 131.48399,
      "geocoding_level": null,
      "phone": "",
      "license_no": "指令東保第751-245号",
      "license_date": null,
      "expire_date": null
    },
    {
      "name": "あべ笑店",
      "name_kana": "",
      "business_type": "飲食店営業",
      "address": "大分県杵築市大字猪尾66－8",
      "lat": 33.40872,
      "lng": 131.62184,
      "geocoding_level": null,
      "phone": "",
      "license_no": "指令東保第751-159号",
      "license_date": null,
      "expire_date": null
    },
    {
      "name": "芳の芽",
      "name_kana": "",
      "business_type": "飲食店営業",
      "address": "大分県杵築市大字南杵築字セリ迫1642－6",
      "lat": 33.41833,
      "lng": 131.60675,
      "geocoding_level": null,
      "phone": "",
      "license_no": "指令東保第751-440号",
      "license_date": null,
      "expire_date": null
    },
    {
      "name": "猫丸堂ベーカリー",
      "name_kana": "",
      "business_type": "菓子製造業",
      "address": "大分県杵築市大字南杵築242番地1",
      "lat": 33.41557,
      "lng": 131.61858,
      "geocoding_level": null,
      "phone": "",
      "license_no": "指令東保第751-25号",
      "license_date": null,
      "expire_date": null
    },
    {
      "name": "茶畑",
      "name_kana": "",
      "business_type": "菓子製造業",
      "address": "大分県杵築市山香町久木野尾1938番地",
      "lat": 33.39481,
      "lng": 131.42529,
      "geocoding_level": null,
      "phone": "",
      "license_no": "指令東保第751-219号",
      "license_date": null,
      "expire_date": null
    },
    {
      "name": "ｙｏｕｍｉｎ",
      "name_kana": "",
      "business_type": "飲食店営業",
      "address": "大分県杵築市杵築665番地",
      "lat": 33.41855,
      "lng": 131.62192,
      "geocoding_level": null,
      "phone": "",
      "license_no": "指令東保第751-210号",
      "license_date": null,
      "expire_date": null
    },
    {
      "name": "まめのもんや",
      "name_kana": "",
      "business_type": "菓子製造業",
      "address": "大分県杵築市大田小野244",
      "lat": 33.54199,
      "lng": 131.5705,
      "geocoding_level": null,
      "phone": "",
      "license_no": "指令東保第751-76号",
      "license_date": null,
      "expire_date": null
    },
    {
      "name": "ファミリーマート杵築山香店",
      "name_kana": "",
      "business_type": "飲食店営業",
      "address": "大分県杵築市山香町大字広瀬481番地1",
      "lat": 33.41782,
      "lng": 131.5271,
      "geocoding_level": null,
      "phone": "",
      "license_no": "指令東保第751-7号",
      "license_date": null,
      "expire_date": null
    },
    {
      "name": "ｏｌｕ　ｏｌｕ　オルオル",
      "name_kana": "",
      "business_type": "飲食店営業",
      "address": "大分県杵築市山香町大字内河野1798－3",
      "lat": 33.45749,
      "lng": 131.48399,
      "geocoding_level": null,
      "phone": "",
      "license_no": "指令東保第751-115号",
      "license_date": null,
      "expire_date": null
    },
    {
      "name": "すみちゃんの甘味や",
      "name_kana": "",
      "business_type": "菓子製造業",
      "address": "大分県杵築市岩谷1162番地の1",
      "lat": 33.46583,
      "lng": 131.60483,
      "geocoding_level": null,
      "phone": "",
      "license_no": "指令東保第751-134号",
      "license_date": null,
      "expire_date": null
    },
    {
      "name": "すずめの楽校",
      "name_kana": "",
      "business_type": "菓子製造業",
      "address": "大分県杵築市大田小野860番地",
      "lat": 33.54199,
      "lng": 131.5705,
      "geocoding_level": null,
      "phone": "",
      "license_no": "指令東保第751-84号",
      "license_date": null,
      "expire_date": null
    },
    {
      "name": "キオラ　コテージ",
      "name_kana": "",
      "business_type": "飲食店営業",
      "address": "大分県杵築市山香町大字向野4761番地1",
      "lat": 33.5032,
      "lng": 131.4563,
      "geocoding_level": null,
      "phone": "",
      "license_no": "指令東保第751-230号",
      "license_date": null,
      "expire_date": null
    },
    {
      "name": "MINNA food",
      "name_kana": "",
      "business_type": "菓子製造業",
      "address": "大分県杵築市山香町大字野原646",
      "lat": 33.42169,
      "lng": 131.49568,
      "geocoding_level": null,
      "phone": "",
      "license_no": "指令東保第751-217号",
      "license_date": null,
      "expire_date": null
    },
    {
      "name": "CURRY&TANDOORI BAR  NEPALI VANSA",
      "name_kana": "",
      "business_type": "飲食店営業",
      "address": "大分県杵築市杵築694-2",
      "lat": 33.4195,
      "lng": 131.62036,
      "geocoding_level": null,
      "phone": "",
      "license_no": "指令東保第751-176号",
      "license_date": null,
      "expire_date": null
    },
    {
      "name": "Stand-7",
      "name_kana": "",
      "business_type": "菓子製造業",
      "address": "大分県杵築市大字南杵築2914番地",
      "lat": 33.41833,
      "lng": 131.60675,
      "geocoding_level": null,
      "phone": "",
      "license_no": "指令東保第751-188号",
      "license_date": null,
      "expire_date": null
    },
    {
      "name": "焼肉　白頭山",
      "name_kana": "",
      "business_type": "飲食店営業",
      "address": "大分県杵築市大字猪尾715-1",
      "lat": 33.40567,
      "lng": 131.61186,
      "geocoding_level": null,
      "phone": "",
      "license_no": "指令東保第751-200号",
      "license_date": null,
      "expire_date": null
    },
    {
      "name": "まごころ加工場",
      "name_kana": "",
      "business_type": "飲食店営業",
      "address": "大分県杵築市山香町大字南畑5132",
      "lat": 33.39868,
      "lng": 131.44724,
      "geocoding_level": null,
      "phone": "",
      "license_no": "指令東保第751-187号",
      "license_date": null,
      "expire_date": null
    },
    {
      "name": "森　美",
      "name_kana": "",
      "business_type": "飲食店営業",
      "address": "大分県杵築市南杵築2580-1",
      "lat": 33.42315,
      "lng": 131.60033,
      "geocoding_level": null,
      "phone": "",
      "license_no": "指令東保第751-2号",
      "license_date": null,
      "expire_date": null
    },
    {
      "name": "森　美",
      "name_kana": "",
      "business_type": "菓子製造業",
      "address": "大分県杵築市南杵築2580-1",
      "lat": 33.42315,
      "lng": 131.60033,
      "geocoding_level": null,
      "phone": "",
      "license_no": "指令東保第751-3号",
      "license_date": null,
      "expire_date": null
    },
    {
      "name": "和食ダイニング大",
      "name_kana": "",
      "business_type": "飲食店営業",
      "address": "大分県杵築市大字杵築北浜739番1",
      "lat": 33.42007,
      "lng": 131.62334,
      "geocoding_level": null,
      "phone": "",
      "license_no": "指令東保第751-114号",
      "license_date": null,
      "expire_date": null
    },
    {
      "name": "まめのもんや",
      "name_kana": "",
      "business_type": "飲食店営業",
      "address": "大分県杵築市大田小野244",
      "lat": 33.54199,
      "lng": 131.5705,
      "geocoding_level": null,
      "phone": "",
      "license_no": "指令東保第751-287号",
      "license_date": null,
      "expire_date": null
    },
    {
      "name": "農村民泊　つわど",
      "name_kana": "",
      "business_type": "飲食店営業",
      "address": "大分県杵築市山香町大字向野4428の1",
      "lat": 33.5032,
      "lng": 131.4563,
      "geocoding_level": null,
      "phone": "",
      "license_no": "指令東保第751-291号",
      "license_date": null,
      "expire_date": null
    },
    {
      "name": "ローソン杵築山香店",
      "name_kana": "",
      "business_type": "飲食店営業",
      "address": "大分県杵築市山香町大字内河野2879番1",
      "lat": 33.45749,
      "lng": 131.48399,
      "geocoding_level": null,
      "phone": "",
      "license_no": "指令東保第751-386号",
      "license_date": null,
      "expire_date": null
    },
    {
      "name": "ウェルカム井上",
      "name_kana": "",
      "business_type": "飲食店営業",
      "address": "大分県杵築市杵築665－102",
      "lat": 33.41855,
      "lng": 131.62192,
      "geocoding_level": null,
      "phone": "",
      "license_no": "指令東保第751-360号",
      "license_date": null,
      "expire_date": null
    },
    {
      "name": "いち屋",
      "name_kana": "",
      "business_type": "飲食店営業",
      "address": "大分県杵築市杵築9番7号",
      "lat": 33.41885,
      "lng": 131.62219,
      "geocoding_level": null,
      "phone": "",
      "license_no": "指令東保第751-7号",
      "license_date": null,
      "expire_date": null
    },
    {
      "name": "大扇旅館",
      "name_kana": "",
      "business_type": "飲食店営業",
      "address": "大分県杵築市大字杵築13番地1",
      "lat": 33.41661,
      "lng": 131.62561,
      "geocoding_level": null,
      "phone": "",
      "license_no": "指令東保第751-8号",
      "license_date": null,
      "expire_date": null
    },
    {
      "name": "食道園",
      "name_kana": "",
      "business_type": "飲食店営業",
      "address": "大分県杵築市南杵築1660-1",
      "lat": 33.41743,
      "lng": 131.61111,
      "geocoding_level": null,
      "phone": "",
      "license_no": "指令東保第751-41号",
      "license_date": null,
      "expire_date": null
    },
    {
      "name": "みやちゃんまんじゅう",
      "name_kana": "",
      "business_type": "菓子製造業",
      "address": "大分県杵築市大字溝井597番地2",
      "lat": 33.43499,
      "lng": 131.58403,
      "geocoding_level": null,
      "phone": "",
      "license_no": "指令東保第751-145号",
      "license_date": null,
      "expire_date": null
    },
    {
      "name": "今富水産",
      "name_kana": "",
      "business_type": "魚介類販売業",
      "address": "大分県杵築市守江3897－9",
      "lat": 33.4216,
      "lng": 131.64401,
      "geocoding_level": null,
      "phone": "",
      "license_no": "指令東保第751-131号",
      "license_date": null,
      "expire_date": null
    },
    {
      "name": "ノラのはこ舟",
      "name_kana": "",
      "business_type": "飲食店営業",
      "address": "大分県杵築市大字大内2436－7",
      "lat": 33.43426,
      "lng": 131.63852,
      "geocoding_level": null,
      "phone": "",
      "license_no": "指令東保第751-233号",
      "license_date": null,
      "expire_date": null
    },
    {
      "name": "からあげ　たつ",
      "name_kana": "",
      "business_type": "飲食店営業",
      "address": "大分県杵築市大字南杵築2225番地2",
      "lat": 33.41621,
      "lng": 131.60391,
      "geocoding_level": null,
      "phone": "",
      "license_no": "指令東保第751-356号",
      "license_date": null,
      "expire_date": null
    },
    {
      "name": "守江湾牡蠣の家",
      "name_kana": "",
      "business_type": "飲食店営業",
      "address": "大分県杵築市大字守江4780－86",
      "lat": 33.42059,
      "lng": 131.64706,
      "geocoding_level": null,
      "phone": "",
      "license_no": "指令東保第751-322号",
      "license_date": null,
      "expire_date": null
    },
    {
      "name": "大黒鮮魚店",
      "name_kana": "",
      "business_type": "魚介類販売業",
      "address": "大分県杵築市大字杵築424",
      "lat": 33.41844,
      "lng": 131.61497,
      "geocoding_level": null,
      "phone": "",
      "license_no": "指令東保第751-358号",
      "license_date": null,
      "expire_date": null
    },
    {
      "name": "こだま亭",
      "name_kana": "",
      "business_type": "そうざい製造業",
      "address": "大分県杵築市山香町内河野2717－4",
      "lat": 33.45749,
      "lng": 131.48399,
      "geocoding_level": null,
      "phone": "",
      "license_no": "指令東保第751-19号",
      "license_date": null,
      "expire_date": null
    },
    {
      "name": "揚鶏屋　こけこっ幸",
      "name_kana": "",
      "business_type": "食肉販売業",
      "address": "大分県杵築市南杵築2442番2号",
      "lat": 33.42135,
      "lng": 131.60199,
      "geocoding_level": null,
      "phone": "",
      "license_no": "指令東保第751-23号",
      "license_date": null,
      "expire_date": null
    },
    {
      "name": "Ｐｉｅｎａ",
      "name_kana": "",
      "business_type": "飲食店営業",
      "address": "大分県杵築市大字杵築字仲町285－2",
      "lat": 33.41885,
      "lng": 131.62219,
      "geocoding_level": null,
      "phone": "",
      "license_no": "指令東保第751-132号",
      "license_date": null,
      "expire_date": null
    },
    {
      "name": "Sweets　atelier　管理栄養士yukariの部屋",
      "name_kana": "",
      "business_type": "菓子製造業",
      "address": "大分県杵築市大字狩宿1969－23",
      "lat": 33.42166,
      "lng": 131.69151,
      "geocoding_level": null,
      "phone": "",
      "license_no": "指令東保第751-174号",
      "license_date": null,
      "expire_date": null
    },
    {
      "name": "松浦鮮魚店",
      "name_kana": "",
      "business_type": "魚介類販売業",
      "address": "大分県杵築市大田沓掛1413－6",
      "lat": 33.50572,
      "lng": 131.54947,
      "geocoding_level": null,
      "phone": "",
      "license_no": "指令東保第751-129号",
      "license_date": null,
      "expire_date": null
    },
    {
      "name": "田ご作",
      "name_kana": "",
      "business_type": "菓子製造業",
      "address": "大分県杵築市山香町大字野原3940の2",
      "lat": 33.42169,
      "lng": 131.49568,
      "geocoding_level": null,
      "phone": "",
      "license_no": "指令東保第751-262号",
      "license_date": null,
      "expire_date": null
    },
    {
      "name": "Ｓｔａｎｄ－７　木付や茶房　なかひら庵",
      "name_kana": "",
      "business_type": "飲食店営業",
      "address": "大分県杵築市大字南杵築2914",
      "lat": 33.41833,
      "lng": 131.60675,
      "geocoding_level": null,
      "phone": "",
      "license_no": "指令東保第751-290号",
      "license_date": null,
      "expire_date": null
    },
    {
      "name": "柳家",
      "name_kana": "",
      "business_type": "飲食店営業",
      "address": "大分県杵築市大字杵築1143番地",
      "lat": 33.4182,
      "lng": 131.6138,
      "geocoding_level": null,
      "phone": "",
      "license_no": "指令東保第751-303号",
      "license_date": null,
      "expire_date": null
    },
    {
      "name": "柳家",
      "name_kana": "",
      "business_type": "菓子製造業",
      "address": "大分県杵築市大字杵築1143番地",
      "lat": 33.4182,
      "lng": 131.6138,
      "geocoding_level": null,
      "phone": "",
      "license_no": "指令東保第751-304号",
      "license_date": null,
      "expire_date": null
    },
    {
      "name": "まきのマキ",
      "name_kana": "",
      "business_type": "菓子製造業",
      "address": "大分県杵築市大字南杵築291－1",
      "lat": 33.41742,
      "lng": 131.61482,
      "geocoding_level": null,
      "phone": "",
      "license_no": "指令東保第750-313号",
      "license_date": null,
      "expire_date": null
    },
    {
      "name": "南俣水研究会加工グループすずかけ",
      "name_kana": "",
      "business_type": "菓子製造業",
      "address": "大分県杵築市大田俣水3861番地の1 （旧朝日小学校給食室）",
      "lat": 33.49329,
      "lng": 131.59189,
      "geocoding_level": null,
      "phone": "",
      "license_no": "指令東保第750-325号",
      "license_date": null,
      "expire_date": null
    },
    {
      "name": "あざみ食堂",
      "name_kana": "",
      "business_type": "飲食店営業",
      "address": "大分県杵築市大字南杵築2393－2",
      "lat": 33.4196,
      "lng": 131.60461,
      "geocoding_level": null,
      "phone": "",
      "license_no": "指令東保第750-348号",
      "license_date": null,
      "expire_date": null
    },
    {
      "name": "スナック　ＬＵＮＡ",
      "name_kana": "",
      "business_type": "飲食店営業",
      "address": "大分県杵築市杵築662－5",
      "lat": 33.41809,
      "lng": 131.62302,
      "geocoding_level": null,
      "phone": "",
      "license_no": "指令東保第753-164号",
      "license_date": null,
      "expire_date": null
    },
    {
      "name": "からあげ　たつ",
      "name_kana": "",
      "business_type": "食肉販売業",
      "address": "大分県杵築市大字南杵築2225番地2",
      "lat": 33.41621,
      "lng": 131.60391,
      "geocoding_level": null,
      "phone": "",
      "license_no": "指令東保第750-368号",
      "license_date": null,
      "expire_date": null
    },
    {
      "name": "やーやまや",
      "name_kana": "",
      "business_type": "清涼飲料水製造業",
      "address": "大分県杵築市大田波多方3255番地",
      "lat": 33.48844,
      "lng": 131.5746,
      "geocoding_level": null,
      "phone": "",
      "license_no": "指令東保第750-372号",
      "license_date": null,
      "expire_date": null
    },
    {
      "name": "キッチン　ぶるーむ",
      "name_kana": "",
      "business_type": "飲食店営業",
      "address": "大分県杵築市大字杵築129",
      "lat": 33.41536,
      "lng": 131.62234,
      "geocoding_level": null,
      "phone": "",
      "license_no": "指令東保第750-376号",
      "license_date": null,
      "expire_date": null
    },
    {
      "name": "キッチン　ぶるーむ",
      "name_kana": "",
      "business_type": "菓子製造業",
      "address": "大分県杵築市大字杵築129",
      "lat": 33.41536,
      "lng": 131.62234,
      "geocoding_level": null,
      "phone": "",
      "license_no": "指令東保第750-377号",
      "license_date": null,
      "expire_date": null
    },
    {
      "name": "七菜",
      "name_kana": "",
      "business_type": "飲食店営業",
      "address": "大分県杵築市山香町大字久木野尾 唐川生活改善センター",
      "lat": 33.39481,
      "lng": 131.42529,
      "geocoding_level": null,
      "phone": "",
      "license_no": "指令東保第750-7号",
      "license_date": null,
      "expire_date": null
    },
    {
      "name": "ｐｌａｉｎ　ｊａｎｅ",
      "name_kana": "",
      "business_type": "菓子製造業",
      "address": "大分県杵築市大字杵築1143番地",
      "lat": 33.4182,
      "lng": 131.6138,
      "geocoding_level": null,
      "phone": "",
      "license_no": "指令東保第750-66号",
      "license_date": null,
      "expire_date": null
    },
    {
      "name": "綾部味噌醸造元",
      "name_kana": "",
      "business_type": "みそ製造業",
      "address": "大分県杵築市大字杵築169",
      "lat": 33.41581,
      "lng": 131.62027,
      "geocoding_level": null,
      "phone": "",
      "license_no": "指令東保第750-36号",
      "license_date": null,
      "expire_date": null
    },