{
  "meta": {
    "updated": 1783906731,
    "sources": [
      {
        "source": "長崎県 食品営業許可一覧",
        "license": "Creative Commons Attribution 4.0 International"
      },
      {
        "source": "厚生労働省 食品衛生申請等システム（オープンデータ）",
        "license": "公共データ利用規約（第1.0版, PDL1.0）"
      }
    ]
  },
  "data": [
    {
      "name": "特別養護老人ホーム　もみの木荘",
      "name_kana": "トクベツヨウゴロウジンホーム　モミノキソウ",
      "business_type": "① 飲食店営業",
      "address": "長崎県東彼杵郡東彼杵町里郷2435",
      "lat": 32.998728,
      "lng": 129.951463,
      "geocoding_level": 3,
      "phone": "0957470111",
      "license_no": "",
      "license_date": null,
      "expire_date": null
    },
    {
      "name": "障害者支援施設　もみの木園",
      "name_kana": "ショウガイシャシエンシセツ　モミノキエン",
      "business_type": "① 飲食店営業",
      "address": "長崎県東彼杵郡東彼杵町里郷2431-3",
      "lat": 33.003200978,
      "lng": 129.955170848,
      "geocoding_level": 8,
      "phone": "0957470721",
      "license_no": "",
      "license_date": null,
      "expire_date": null
    },
    {
      "name": "長崎県農林技術開発センター  果樹・茶研究部門  茶業研究室",
      "name_kana": "ナガサキケンノウリンギジュツカイハツセンター  カジュ・チャケンキュウブモン  チャギョウケンキュウシツ",
      "business_type": "㉑ 製茶業",
      "address": "長崎県東彼杵郡東彼杵町中尾郷14141414",
      "lat": 33.046419,
      "lng": 129.976548,
      "geocoding_level": 3,
      "phone": "",
      "license_no": "",
      "license_date": null,
      "expire_date": null
    },
    {
      "name": "リンガーハット長崎東彼杵店",
      "name_kana": "リンガーハットナガサキヒガシソノギテン",
      "business_type": "⑬ その他の食料・飲料販売業",
      "address": "長崎県東彼杵郡東彼杵町彼杵宿郷758-2",
      "lat": 33.034933,
      "lng": 129.928405,
      "geocoding_level": 3,
      "phone": "0957-47-1674",
      "license_no": "",
      "license_date": null,
      "expire_date": null
    },
    {
      "name": "とんかつ濱かつ長崎東彼杵店",
      "name_kana": "トンカツハマカツナガサキヒガシソノギテン",
      "business_type": "⑬ その他の食料・飲料販売業",
      "address": "長崎県東彼杵郡東彼杵町彼杵宿郷758−２",
      "lat": 33.034933,
      "lng": 129.928405,
      "geocoding_level": 3,
      "phone": "",
      "license_no": "",
      "license_date": null,
      "expire_date": null
    },
    {
      "name": "尾上製茶",
      "name_kana": "オノウエセイチャ",
      "business_type": "㉑ 製茶業",
      "address": "長崎県東彼杵郡東彼杵町中尾郷615",
      "lat": 33.053517339,
      "lng": 129.963648593,
      "geocoding_level": 8,
      "phone": "0957460736",
      "license_no": "",
      "license_date": null,
      "expire_date": null
    },
    {
      "name": "西坂秀徳製茶",
      "name_kana": "ニシザカヒデノリセイチャ",
      "business_type": "㉑ 製茶業",
      "address": "長崎県東彼杵郡東彼杵町三根郷318",
      "lat": 33.043979322,
      "lng": 129.933467402,
      "geocoding_level": 8,
      "phone": "0957-46-1303",
      "license_no": "",
      "license_date": null,
      "expire_date": null
    },
    {
      "name": "岡田商会",
      "name_kana": "オカダショウカイ",
      "business_type": "㉑ 製茶業",
      "address": "長崎県東彼杵郡東彼杵町1067",
      "lat": 33.037031000000006,
      "lng": 129.917149,
      "geocoding_level": 2,
      "phone": "",
      "license_no": "",
      "license_date": null,
      "expire_date": null
    },
    {
      "name": "有限会社西海園",
      "name_kana": "ユウゲンカイシャサイカイエン",
      "business_type": "㉑ 製茶業",
      "address": "長崎県東彼杵郡東彼杵町三根郷1349",
      "lat": 33.05073,
      "lng": 129.922354,
      "geocoding_level": 3,
      "phone": "0957-46-0072",
      "license_no": "",
      "license_date": null,
      "expire_date": null
    },
    {
      "name": "東坂こくまる商店",
      "name_kana": "トウザカコクマルショウテン",
      "business_type": "㉑ 製茶業",
      "address": "長崎県東彼杵郡東彼杵町坂本郷1383",
      "lat": 33.06069103000001,
      "lng": 129.955370923,
      "geocoding_level": 8,
      "phone": "08017048339",
      "license_no": "",
      "license_date": null,
      "expire_date": null
    },
    {
      "name": "橙",
      "name_kana": "ダイダイ",
      "business_type": "⑯ コーヒー製造・加工業（飲料の製造を除く。）",
      "address": "長崎県東彼杵郡東彼杵町千綿宿郷1003-2",
      "lat": 33.025418556,
      "lng": 129.934950559,
      "geocoding_level": 8,
      "phone": "0957569065",
      "license_no": "",
      "license_date": null,
      "expire_date": null
    },
    {
      "name": "近藤農園",
      "name_kana": "コンドウノウエン",
      "business_type": "⑬ その他の食料・飲料販売業",
      "address": "長崎県東彼杵郡東彼杵町彼杵宿郷2421",
      "lat": 33.034933,
      "lng": 129.928405,
      "geocoding_level": 3,
      "phone": "",
      "license_no": "",
      "license_date": null,
      "expire_date": null
    },
    {
      "name": "ＦＯＲＴＨＥＥＳ",
      "name_kana": "フォーティーズ",
      "business_type": "㉔ その他の食料品製造・加工業",
      "address": "長崎県東彼杵郡東彼杵町八反田郷684-2",
      "lat": 33.026259682,
      "lng": 129.946210812,
      "geocoding_level": 8,
      "phone": "0957-47-8711",
      "license_no": "",
      "license_date": null,
      "expire_date": null
    },
    {
      "name": "ヒーリングファーム井手農園",
      "name_kana": "ヒーリングファームイデノウエン",
      "business_type": "⑦ 野菜果物販売業",
      "address": "長崎県東彼杵郡東彼杵町中岳郷679-2 679",
      "lat": 33.020371622,
      "lng": 129.970302303,
      "geocoding_level": 8,
      "phone": "",
      "license_no": "",
      "license_date": null,
      "expire_date": null
    },
    {
      "name": "ヒーリングファーム井手農園",
      "name_kana": "ヒーリングファームイデノウエン",
      "business_type": "⑧ 米穀類販売業",
      "address": "長崎県東彼杵郡東彼杵町中岳郷679-2 679",
      "lat": 33.020371622,
      "lng": 129.970302303,
      "geocoding_level": 8,
      "phone": "",
      "license_no": "",
      "license_date": null,
      "expire_date": null
    },
    {
      "name": "ヒーリングファーム井手農園",
      "name_kana": "ヒーリングファームイデノウエン",
      "business_type": "⑨ 通信販売・訪問販売による販売業",
      "address": "長崎県東彼杵郡東彼杵町中岳郷679-2 679",
      "lat": 33.020371622,
      "lng": 129.970302303,
      "geocoding_level": 8,
      "phone": "",
      "license_no": "",
      "license_date": null,
      "expire_date": null
    },
    {
      "name": "ヒーリングファーム井手農園",
      "name_kana": "ヒーリングファームイデノウエン",
      "business_type": "⑬ その他の食料・飲料販売業",
      "address": "長崎県東彼杵郡東彼杵町中岳郷679-2 679",
      "lat": 33.020371622,
      "lng": 129.970302303,
      "geocoding_level": 8,
      "phone": "",
      "license_no": "",
      "license_date": null,
      "expire_date": null
    },
    {
      "name": "ヒーリングファーム井手農園",
      "name_kana": "ヒーリングファームイデノウエン",
      "business_type": "⑰ 農産保存食料品製造・加工業",
      "address": "長崎県東彼杵郡東彼杵町中岳郷679-2 679",
      "lat": 33.020371622,
      "lng": 129.970302303,
      "geocoding_level": 8,
      "phone": "",
      "license_no": "",
      "license_date": null,
      "expire_date": null
    },
    {
      "name": "ヒーリングファーム井手農園",
      "name_kana": "ヒーリングファームイデノウエン",
      "business_type": "⑱ 調味料製造・加工業",
      "address": "長崎県東彼杵郡東彼杵町中岳郷679-2 679",
      "lat": 33.020371622,
      "lng": 129.970302303,
      "geocoding_level": 8,
      "phone": "",
      "license_no": "",
      "license_date": null,
      "expire_date": null
    },
    {
      "name": "ヒーリングファーム井手農園",
      "name_kana": "ヒーリングファームイデノウエン",
      "business_type": "⑳ 精穀・製粉業",
      "address": "長崎県東彼杵郡東彼杵町中岳郷679-2 679",
      "lat": 33.020371622,
      "lng": 129.970302303,
      "geocoding_level": 8,
      "phone": "",
      "license_no": "",
      "license_date": null,
      "expire_date": null
    },
    {
      "name": "ヒーリングファーム井手農園",
      "name_kana": "ヒーリングファームイデノウエン",
      "business_type": "㉑ 製茶業",
      "address": "長崎県東彼杵郡東彼杵町中岳郷679-2 679",
      "lat": 33.020371622,
      "lng": 129.970302303,
      "geocoding_level": 8,
      "phone": "",
      "license_no": "",
      "license_date": null,
      "expire_date": null
    },
    {
      "name": "ファーミライズ株式会社",
      "name_kana": "ファーミライズカブシキカイシャ",
      "business_type": "⑰ 農産保存食料品製造・加工業",
      "address": "長崎県東彼杵郡東彼杵町八反田郷１０２１番地２",
      "lat": 33.023047469,
      "lng": 129.938198452,
      "geocoding_level": 8,
      "phone": "0957-47-7626",
      "license_no": "",
      "license_date": null,
      "expire_date": null
    },
    {
      "name": "山口製茶",
      "name_kana": "ヤマグチセイチャ",
      "business_type": "㉔ その他の食料品製造・加工業",
      "address": "長崎県東彼杵郡東彼杵町中尾郷1318",
      "lat": 33.046419,
      "lng": 129.976548,
      "geocoding_level": 3,
      "phone": "08017053891",
      "license_no": "",
      "license_date": null,
      "expire_date": null
    },
    {
      "name": "特別養護老人ホーム　もみの木荘",
      "name_kana": "トクベツヨウゴロウジンホーム　モミノキソウ",
      "business_type": "① 飲食店営業",
      "address": "長崎県東彼杵郡東彼杵町里郷2435",
      "lat": 33.003008,
      "lng": 129.955389,
      "geocoding_level": null,
      "phone": "0957470111",
      "license_no": "長崎県指令7県央振保衛第2351号",
      "license_date": "2026-03-03",
      "expire_date": "2032-03-31"
    },
    {
      "name": "障害者支援施設　もみの木園",
      "name_kana": "ショウガイシャシエンシセツ　モミノキエン",
      "business_type": "① 飲食店営業",
      "address": "長崎県東彼杵郡東彼杵町里郷2431-3",
      "lat": 33.003636,
      "lng": 129.954881,
      "geocoding_level": null,
      "phone": "0957470721",
      "license_no": "長崎県指令7県央振保衛第2352号",
      "license_date": "2026-03-03",
      "expire_date": "2032-03-31"
    },
    {
      "name": "長崎県農林技術開発センター  果樹・茶研究部門  茶業研究室",
      "name_kana": "ナガサキケンノウリンギジュツカイハツセンター  カジュ・チャケンキュウブモン  チャギョウケンキュウシツ",
      "business_type": "㉑ 製茶業",
      "address": "長崎県東彼杵郡東彼杵町中尾郷14141414",
      "lat": 33.041439,
      "lng": 129.976101,
      "geocoding_level": null,
      "phone": "",
      "license_no": "",
      "license_date": null,
      "expire_date": null
    },
    {
      "name": "リンガーハット長崎東彼杵店",
      "name_kana": "リンガーハットナガサキヒガシソノギテン",
      "business_type": "⑬ その他の食料・飲料販売業",
      "address": "長崎県東彼杵郡東彼杵町彼杵宿郷758-2",
      "lat": 33.035863,
      "lng": 129.922956,
      "geocoding_level": null,
      "phone": "0957-47-1674",
      "license_no": "",
      "license_date": null,
      "expire_date": null
    },
    {
      "name": "とんかつ濱かつ長崎東彼杵店",
      "name_kana": "トンカツハマカツナガサキヒガシソノギテン",
      "business_type": "⑬ その他の食料・飲料販売業",
      "address": "長崎県東彼杵郡東彼杵町彼杵宿郷758−２",
      "lat": 33.035863,
      "lng": 129.922956,
      "geocoding_level": null,
      "phone": "",
      "license_no": "",
      "license_date": null,
      "expire_date": null
    },
    {
      "name": "尾上製茶",
      "name_kana": "オノウエセイチャ",
      "business_type": "㉑ 製茶業",
      "address": "長崎県東彼杵郡東彼杵町中尾郷615",
      "lat": 33.053447,
      "lng": 129.963947,
      "geocoding_level": null,
      "phone": "0957460736",
      "license_no": "",
      "license_date": null,
      "expire_date": null
    },
    {
      "name": "西坂秀徳製茶",
      "name_kana": "ニシザカヒデノリセイチャ",
      "business_type": "㉑ 製茶業",
      "address": "長崎県東彼杵郡東彼杵町三根郷318",
      "lat": 33.043972,
      "lng": 129.93339,
      "geocoding_level": null,
      "phone": "0957-46-1303",
      "license_no": "",
      "license_date": null,
      "expire_date": null
    },
    {
      "name": "岡田商会",
      "name_kana": "オカダショウカイ",
      "business_type": "㉑ 製茶業",
      "address": "長崎県東彼杵郡東彼杵町1067",
      "lat": 33.037093,
      "lng": 129.917203,
      "geocoding_level": null,
      "phone": "",
      "license_no": "",
      "license_date": null,
      "expire_date": null
    },
    {
      "name": "有限会社西海園",
      "name_kana": "ユウゲンカイシャサイカイエン",
      "business_type": "㉑ 製茶業",
      "address": "長崎県東彼杵郡東彼杵町三根郷1349",
      "lat": 33.043682,
      "lng": 129.918942,
      "geocoding_level": null,
      "phone": "0957-46-0072",
      "license_no": "",
      "license_date": null,
      "expire_date": null
    },
    {
      "name": "東坂こくまる商店",
      "name_kana": "トウザカコクマルショウテン",
      "business_type": "㉑ 製茶業",
      "address": "長崎県東彼杵郡東彼杵町坂本郷1383",
      "lat": 33.060677,
      "lng": 129.955342,
      "geocoding_level": null,
      "phone": "08017048339",
      "license_no": "",
      "license_date": null,
      "expire_date": null
    },
    {
      "name": "橙",
      "name_kana": "ダイダイ",
      "business_type": "⑯ コーヒー製造・加工業（飲料の製造を除く。）",
      "address": "長崎県東彼杵郡東彼杵町千綿宿郷1003-2",
      "lat": 33.025411,
      "lng": 129.934917,
      "geocoding_level": null,
      "phone": "0957569065",
      "license_no": "",
      "license_date": null,
      "expire_date": null
    },
    {
      "name": "近藤農園",
      "name_kana": "コンドウノウエン",
      "business_type": "⑬ その他の食料・飲料販売業",
      "address": "長崎県東彼杵郡東彼杵町彼杵宿郷2421",
      "lat": 33.041321,
      "lng": 129.934676,
      "geocoding_level": null,
      "phone": "",
      "license_no": "",
      "license_date": null,
      "expire_date": null
    },
    {
      "name": "ＦＯＲＴＨＥＥＳ",
      "name_kana": "フォーティーズ",
      "business_type": "㉔ その他の食料品製造・加工業",
      "address": "長崎県東彼杵郡東彼杵町八反田郷684-2",
      "lat": 33.026554,
      "lng": 129.946573,
      "geocoding_level": null,
      "phone": "0957-47-8711",
      "license_no": "",
      "license_date": null,
      "expire_date": null
    },
    {
      "name": "ヒーリングファーム井手農園",
      "name_kana": "ヒーリングファームイデノウエン",
      "business_type": "⑦ 野菜果物販売業",
      "address": "長崎県東彼杵郡東彼杵町中岳郷679-2 679",
      "lat": 33.020345,
      "lng": 129.970318,
      "geocoding_level": null,
      "phone": "",
      "license_no": "",
      "license_date": null,
      "expire_date": null
    },
    {
      "name": "ヒーリングファーム井手農園",
      "name_kana": "ヒーリングファームイデノウエン",
      "business_type": "⑧ 米穀類販売業",
      "address": "長崎県東彼杵郡東彼杵町中岳郷679-2 679",
      "lat": 33.020345,
      "lng": 129.970318,
      "geocoding_level": null,
      "phone": "",
      "license_no": "",
      "license_date": null,
      "expire_date": null
    },
    {
      "name": "ヒーリングファーム井手農園",
      "name_kana": "ヒーリングファームイデノウエン",
      "business_type": "⑨ 通信販売・訪問販売による販売業",
      "address": "長崎県東彼杵郡東彼杵町中岳郷679-2 679",
      "lat": 33.020345,
      "lng": 129.970318,
      "geocoding_level": null,
      "phone": "",
      "license_no": "",
      "license_date": null,
      "expire_date": null
    },
    {
      "name": "ヒーリングファーム井手農園",
      "name_kana": "ヒーリングファームイデノウエン",
      "business_type": "⑬ その他の食料・飲料販売業",
      "address": "長崎県東彼杵郡東彼杵町中岳郷679-2 679",
      "lat": 33.020345,
      "lng": 129.970318,
      "geocoding_level": null,
      "phone": "",
      "license_no": "",
      "license_date": null,
      "expire_date": null
    },
    {
      "name": "ヒーリングファーム井手農園",
      "name_kana": "ヒーリングファームイデノウエン",
      "business_type": "⑰ 農産保存食料品製造・加工業",
      "address": "長崎県東彼杵郡東彼杵町中岳郷679-2 679",
      "lat": 33.020345,
      "lng": 129.970318,
      "geocoding_level": null,
      "phone": "",
      "license_no": "",
      "license_date": null,
      "expire_date": null
    },
    {
      "name": "ヒーリングファーム井手農園",
      "name_kana": "ヒーリングファームイデノウエン",
      "business_type": "⑱ 調味料製造・加工業",
      "address": "長崎県東彼杵郡東彼杵町中岳郷679-2 679",
      "lat": 33.020345,
      "lng": 129.970318,
      "geocoding_level": null,
      "phone": "",
      "license_no": "",
      "license_date": null,
      "expire_date": null
    },
    {
      "name": "ヒーリングファーム井手農園",
      "name_kana": "ヒーリングファームイデノウエン",
      "business_type": "⑳ 精穀・製粉業",
      "address": "長崎県東彼杵郡東彼杵町中岳郷679-2 679",
      "lat": 33.020345,
      "lng": 129.970318,
      "geocoding_level": null,
      "phone": "",
      "license_no": "",
      "license_date": null,
      "expire_date": null
    },
    {
      "name": "ヒーリングファーム井手農園",
      "name_kana": "ヒーリングファームイデノウエン",
      "business_type": "㉑ 製茶業",
      "address": "長崎県東彼杵郡東彼杵町中岳郷679-2 679",
      "lat": 33.020345,
      "lng": 129.970318,
      "geocoding_level": null,
      "phone": "",
      "license_no": "",
      "license_date": null,
      "expire_date": null
    },
    {
      "name": "ファーミライズ株式会社",
      "name_kana": "ファーミライズカブシキカイシャ",
      "business_type": "⑰ 農産保存食料品製造・加工業",
      "address": "長崎県東彼杵郡東彼杵町八反田郷１０２１番地２",
      "lat": 33.023003,
      "lng": 129.938189,
      "geocoding_level": null,
      "phone": "0957-47-7626",
      "license_no": "",
      "license_date": null,
      "expire_date": null
    },
    {
      "name": "山口製茶",
      "name_kana": "ヤマグチセイチャ",
      "business_type": "㉔ その他の食料品製造・加工業",
      "address": "長崎県東彼杵郡東彼杵町中尾郷1318",
      "lat": 33.0389,
      "lng": 129.974196,
      "geocoding_level": null,
      "phone": "08017053891",
      "license_no": "",
      "license_date": null,
      "expire_date": null
    }
  ]
}
