{
  "meta": {
    "updated": 1783906731,
    "sources": [
      {
        "source": "岐阜県食品営業許可施設情報",
        "license": "CC BY 2.0"
      },
      {
        "source": "厚生労働省 食品衛生申請等システム（オープンデータ）",
        "license": "公共データ利用規約（第1.0版, PDL1.0）"
      }
    ]
  },
  "data": [
    {
      "name": "朝日大学「６号館食堂」",
      "name_kana": "",
      "business_type": "飲食店営業",
      "address": "岐阜県瑞穂市穂積１８５１　朝日大学　６号館",
      "lat": 35.382130000000004,
      "lng": 136.697341,
      "geocoding_level": 3,
      "phone": "",
      "license_no": "52000055",
      "license_date": "2021-09-14",
      "expire_date": "2026-11-30"
    },
    {
      "name": "株式会社ふじ十瑞穂工場",
      "name_kana": "",
      "business_type": "菓子製造業",
      "address": "岐阜県瑞穂市稲里５０８－１",
      "lat": 35.386375,
      "lng": 136.686712,
      "geocoding_level": 3,
      "phone": "058-327-3977",
      "license_no": "52000064",
      "license_date": "2021-10-08",
      "expire_date": "2026-11-30"
    },
    {
      "name": "満洋",
      "name_kana": "",
      "business_type": "飲食店営業",
      "address": "岐阜県瑞穂市宝江１８３－１",
      "lat": 35.37341700000001,
      "lng": 136.66638,
      "geocoding_level": 3,
      "phone": "090-4085-5826",
      "license_no": "52000070",
      "license_date": "2021-10-13",
      "expire_date": "2026-11-30"
    },
    {
      "name": "水月",
      "name_kana": "",
      "business_type": "飲食店営業",
      "address": "岐阜県瑞穂市穂積１９１７－１",
      "lat": 35.382207282,
      "lng": 136.6940919,
      "geocoding_level": 8,
      "phone": "058-327-9291",
      "license_no": "52000073",
      "license_date": "2021-10-13",
      "expire_date": "2026-11-30"
    },
    {
      "name": "ジンギスカン　あずまし家",
      "name_kana": "",
      "business_type": "飲食店営業",
      "address": "岐阜県瑞穂市馬場上光町３－７　河合ビル１０６号",
      "lat": 35.411021554,
      "lng": 136.687475908,
      "geocoding_level": 8,
      "phone": "058-322-2900",
      "license_no": "52000080",
      "license_date": "2021-10-13",
      "expire_date": "2026-11-30"
    },
    {
      "name": "(株)ながもり西濃店",
      "name_kana": "",
      "business_type": "飲食店営業",
      "address": "岐阜県瑞穂市野田新田伊勢田４０８８－１",
      "lat": 35.386007,
      "lng": 136.679908,
      "geocoding_level": 3,
      "phone": "058-327-8839",
      "license_no": "52000081",
      "license_date": "2021-10-27",
      "expire_date": "2026-11-30"
    },
    {
      "name": "株式会社ジーシー東海",
      "name_kana": "",
      "business_type": "添加物製造業",
      "address": "岐阜県瑞穂市本田１７００番地",
      "lat": 35.409664,
      "lng": 136.674391,
      "geocoding_level": 3,
      "phone": "058-327-5557",
      "license_no": "52000082",
      "license_date": "2021-10-19",
      "expire_date": "2026-11-30"
    },
    {
      "name": "ｂｏｉｓ　ｃａｆｅ",
      "name_kana": "",
      "business_type": "飲食店営業",
      "address": "岐阜県瑞穂市馬場春雨町１－４９　第一吉田ビル１０２",
      "lat": 35.411213628,
      "lng": 136.687890947,
      "geocoding_level": 8,
      "phone": "058-327-8039",
      "license_no": "52000085",
      "license_date": "2021-10-27",
      "expire_date": "2026-11-30"
    },
    {
      "name": "花福",
      "name_kana": "",
      "business_type": "飲食店営業",
      "address": "岐阜県瑞穂市本田１０５１－３",
      "lat": 35.409664,
      "lng": 136.674391,
      "geocoding_level": 3,
      "phone": "058-327-2915",
      "license_no": "52000090",
      "license_date": "2021-10-25",
      "expire_date": "2026-11-30"
    },
    {
      "name": "串麿",
      "name_kana": "",
      "business_type": "飲食店営業",
      "address": "岐阜県瑞穂市本田１０２５－１",
      "lat": 35.409664,
      "lng": 136.674391,
      "geocoding_level": 3,
      "phone": "058-326-8557",
      "license_no": "52000092",
      "license_date": "2021-10-25",
      "expire_date": "2026-11-30"
    },
    {
      "name": "楡の樹",
      "name_kana": "",
      "business_type": "飲食店営業",
      "address": "岐阜県瑞穂市本田１６２－１",
      "lat": 35.409664,
      "lng": 136.674391,
      "geocoding_level": 3,
      "phone": "058-326-5858",
      "license_no": "52000095",
      "license_date": "2021-10-25",
      "expire_date": "2026-11-30"
    },
    {
      "name": "岐セン株式会社穂積工場",
      "name_kana": "",
      "business_type": "飲食店営業",
      "address": "岐阜県瑞穂市牛牧７５８",
      "lat": 35.381062,
      "lng": 136.670618,
      "geocoding_level": 3,
      "phone": "058-326-5111",
      "license_no": "52000097",
      "license_date": "2021-10-27",
      "expire_date": "2026-11-30"
    },
    {
      "name": "株式会社平和堂穂積店",
      "name_kana": "",
      "business_type": "飲食店営業",
      "address": "岐阜県瑞穂市別府６２４番地",
      "lat": 35.39451700000001,
      "lng": 136.684624,
      "geocoding_level": 3,
      "phone": "0583271211",
      "license_no": "52000098",
      "license_date": "2021-10-27",
      "expire_date": "2026-11-30"
    },
    {
      "name": "株式会社平和堂穂積店",
      "name_kana": "",
      "business_type": "飲食店営業",
      "address": "岐阜県瑞穂市別府６２４番地",
      "lat": 35.39451700000001,
      "lng": 136.684624,
      "geocoding_level": 3,
      "phone": "0583271211",
      "license_no": "52000099",
      "license_date": "2021-10-27",
      "expire_date": "2026-11-30"
    },
    {
      "name": "株式会社平和堂穂積店",
      "name_kana": "",
      "business_type": "飲食店営業",
      "address": "岐阜県瑞穂市別府６２４番地",
      "lat": 35.39451700000001,
      "lng": 136.684624,
      "geocoding_level": 3,
      "phone": "0583271211",
      "license_no": "52000100",
      "license_date": "2021-10-27",
      "expire_date": "2026-11-30"
    },
    {
      "name": "株式会社平和堂穂積店",
      "name_kana": "",
      "business_type": "食肉販売業",
      "address": "岐阜県瑞穂市別府６２４番地",
      "lat": 35.39451700000001,
      "lng": 136.684624,
      "geocoding_level": 3,
      "phone": "0583271211",
      "license_no": "52000101",
      "license_date": "2021-10-27",
      "expire_date": "2026-11-30"
    },
    {
      "name": "株式会社平和堂穂積店",
      "name_kana": "",
      "business_type": "魚介類販売業",
      "address": "岐阜県瑞穂市別府６２４番地",
      "lat": 35.39451700000001,
      "lng": 136.684624,
      "geocoding_level": 3,
      "phone": "0583271211",
      "license_no": "52000102",
      "license_date": "2021-10-27",
      "expire_date": "2026-11-30"
    },
    {
      "name": "馬渕屋",
      "name_kana": "",
      "business_type": "飲食店営業",
      "address": "岐阜県瑞穂市別府６２４番地　平和堂穂積店",
      "lat": 35.39451700000001,
      "lng": 136.684624,
      "geocoding_level": 3,
      "phone": "058-327-2923",
      "license_no": "52000103",
      "license_date": "2021-10-27",
      "expire_date": "2026-11-30"
    },
    {
      "name": "カフェ１／ｆ",
      "name_kana": "",
      "business_type": "飲食店営業",
      "address": "岐阜県瑞穂市馬場上光町１",
      "lat": 35.416531,
      "lng": 136.680413,
      "geocoding_level": 3,
      "phone": "090-2135-7050",
      "license_no": "52000104",
      "license_date": "2021-11-30",
      "expire_date": "2026-11-30"
    },
    {
      "name": "とんかつ　みなみ川　瑞穂店",
      "name_kana": "",
      "business_type": "飲食店営業",
      "address": "岐阜県瑞穂市本田２１１２－１",
      "lat": 35.409664,
      "lng": 136.674391,
      "geocoding_level": 3,
      "phone": "058-327-7188",
      "license_no": "52000109",
      "license_date": "2021-10-25",
      "expire_date": "2026-11-30"
    },
    {
      "name": "トキノ屋食品株式会社",
      "name_kana": "",
      "business_type": "飲食店営業",
      "address": "岐阜県瑞穂市別府１０１－１６",
      "lat": 35.39451700000001,
      "lng": 136.684624,
      "geocoding_level": 3,
      "phone": "058-326-5566",
      "license_no": "52000112",
      "license_date": "2021-10-25",
      "expire_date": "2026-11-30"
    },
    {
      "name": "ＳＰＡＤＡ　ＨＯＺＵＭＩ",
      "name_kana": "",
      "business_type": "飲食店営業",
      "address": "岐阜県瑞穂市別府３６２－１",
      "lat": 35.39451700000001,
      "lng": 136.684624,
      "geocoding_level": 3,
      "phone": "090-6518-3810",
      "license_no": "52000123",
      "license_date": "2021-11-22",
      "expire_date": "2026-11-30"
    },
    {
      "name": "七菜",
      "name_kana": "",
      "business_type": "飲食店営業",
      "address": "岐阜県瑞穂市宝江１８３－２　地域のコミュニティサロンＮａＮａ",
      "lat": 35.37341700000001,
      "lng": 136.66638,
      "geocoding_level": 3,
      "phone": "090-3146-3837",
      "license_no": "52000130",
      "license_date": "2021-12-21",
      "expire_date": "2027-11-30"
    },
    {
      "name": "ゆで太郎　もつ次郎　穂積店",
      "name_kana": "",
      "business_type": "飲食店営業",
      "address": "岐阜県瑞穂市穂積６０５－１",
      "lat": 35.382130000000004,
      "lng": 136.697341,
      "geocoding_level": 3,
      "phone": "058-322-7708",
      "license_no": "52000131",
      "license_date": "2021-12-21",
      "expire_date": "2027-11-30"
    },
    {
      "name": "介護老人保健施設巣南リハビリセンター様内富士産業(株)給食室",
      "name_kana": "",
      "business_type": "飲食店営業",
      "address": "岐阜県瑞穂市重里１９９６",
      "lat": 35.417532,
      "lng": 136.663217,
      "geocoding_level": 3,
      "phone": "",
      "license_no": "52000139",
      "license_date": "2022-01-24",
      "expire_date": "2027-02-28"
    },
    {
      "name": "コノミヤ　巣南店",
      "name_kana": "",
      "business_type": "飲食店営業",
      "address": "岐阜県瑞穂市田之上１６５番地",
      "lat": 35.409376,
      "lng": 136.64816,
      "geocoding_level": 3,
      "phone": "058-328-3745",
      "license_no": "52000155",
      "license_date": "2022-02-07",
      "expire_date": "2027-02-28"
    },
    {
      "name": "コノミヤ　巣南店",
      "name_kana": "",
      "business_type": "魚介類販売業",
      "address": "岐阜県瑞穂市田之上１６５番地",
      "lat": 35.409376,
      "lng": 136.64816,
      "geocoding_level": 3,
      "phone": "058-328-3745",
      "license_no": "52000156",
      "license_date": "2022-02-07",
      "expire_date": "2027-02-28"
    },
    {
      "name": "コノミヤ　巣南店",
      "name_kana": "",
      "business_type": "そうざい製造業",
      "address": "岐阜県瑞穂市田之上１６５番地",
      "lat": 35.409376,
      "lng": 136.64816,
      "geocoding_level": 3,
      "phone": "058-328-3745",
      "license_no": "52000157",
      "license_date": "2022-02-07",
      "expire_date": "2027-02-28"
    },
    {
      "name": "福祉作業所　すみれの家",
      "name_kana": "",
      "business_type": "菓子製造業",
      "address": "岐阜県瑞穂市古橋１６３５－１",
      "lat": 35.392265,
      "lng": 136.65409,
      "geocoding_level": 3,
      "phone": "058-328-7187",
      "license_no": "52000158",
      "license_date": "2022-02-07",
      "expire_date": "2027-02-28"
    },
    {
      "name": "時々",
      "name_kana": "",
      "business_type": "飲食店営業",
      "address": "岐阜県瑞穂市祖父江１６３－２",
      "lat": 35.374306,
      "lng": 136.685813,
      "geocoding_level": 3,
      "phone": "",
      "license_no": "52000171",
      "license_date": "2022-02-16",
      "expire_date": "2027-11-30"
    },
    {
      "name": "麺切り　白流",
      "name_kana": "",
      "business_type": "そうざい製造業",
      "address": "岐阜県瑞穂市森８６０－１",
      "lat": 35.419326,
      "lng": 136.651206,
      "geocoding_level": 3,
      "phone": "058-322-3231",
      "license_no": "52000174",
      "license_date": "2022-02-16",
      "expire_date": "2027-02-28"
    },
    {
      "name": "おにぎりとおべんとうのてとて",
      "name_kana": "",
      "business_type": "飲食店営業",
      "address": "岐阜県瑞穂市馬場上光町２丁目６６番地１",
      "lat": 35.410772677,
      "lng": 136.686802326,
      "geocoding_level": 8,
      "phone": "058-322-5008",
      "license_no": "52000175",
      "license_date": "2022-02-10",
      "expire_date": "2027-11-30"
    },
    {
      "name": "時々",
      "name_kana": "",
      "business_type": "菓子製造業",
      "address": "岐阜県瑞穂市祖父江１６３－２",
      "lat": 35.374306,
      "lng": 136.685813,
      "geocoding_level": 3,
      "phone": "",
      "license_no": "52000182",
      "license_date": "2022-02-16",
      "expire_date": "2027-11-30"
    },
    {
      "name": "パン工房　瓦（ぐらむ）",
      "name_kana": "",
      "business_type": "菓子製造業",
      "address": "岐阜県瑞穂市別府１１８５番地１　エスポワール１０５",
      "lat": 35.39451700000001,
      "lng": 136.684624,
      "geocoding_level": 3,
      "phone": "058-322-7771",
      "license_no": "52000186",
      "license_date": "2022-03-08",
      "expire_date": "2027-11-30"
    },
    {
      "name": "ドミノ・ピザ　生津外宮前町店",
      "name_kana": "",
      "business_type": "飲食店営業",
      "address": "岐阜県瑞穂市生津外宮前町１－１",
      "lat": 35.404539796,
      "lng": 136.689942294,
      "geocoding_level": 8,
      "phone": "058-329-2333",
      "license_no": "52000238",
      "license_date": "2022-04-28",
      "expire_date": "2027-11-30"
    },
    {
      "name": "ＨＡＮＧ　ＯＵＴ",
      "name_kana": "",
      "business_type": "飲食店営業",
      "address": "岐阜県瑞穂市古橋５９０番地１",
      "lat": 35.394876926,
      "lng": 136.656103833,
      "geocoding_level": 8,
      "phone": "",
      "license_no": "52000258",
      "license_date": "2022-05-30",
      "expire_date": "2028-02-29"
    },
    {
      "name": "ＨＡＮＤ３",
      "name_kana": "",
      "business_type": "飲食店営業",
      "address": "岐阜県瑞穂市十八条３９０－１",
      "lat": 35.400051,
      "lng": 136.662469,
      "geocoding_level": 3,
      "phone": "058-257-2178",
      "license_no": "52000261",
      "license_date": "2022-06-10",
      "expire_date": "2028-02-29"
    },
    {
      "name": "ＨＡＮＤ３",
      "name_kana": "",
      "business_type": "菓子製造業",
      "address": "岐阜県瑞穂市十八条３９０－１",
      "lat": 35.400051,
      "lng": 136.662469,
      "geocoding_level": 3,
      "phone": "058-257-2178",
      "license_no": "52000262",
      "license_date": "2022-06-10",
      "expire_date": "2028-02-29"
    },
    {
      "name": "縁屋",
      "name_kana": "",
      "business_type": "飲食店営業",
      "address": "岐阜県瑞穂市横屋３４５－２",
      "lat": 35.382405,
      "lng": 136.661551,
      "geocoding_level": 3,
      "phone": "058-328-1183",
      "license_no": "52000289",
      "license_date": "2022-08-12",
      "expire_date": "2028-02-29"
    },
    {
      "name": "ＩＧＥＴＡＹＡ＋",
      "name_kana": "",
      "business_type": "飲食店営業",
      "address": "岐阜県瑞穂市別府１２８４－１",
      "lat": 35.39451700000001,
      "lng": 136.684624,
      "geocoding_level": 3,
      "phone": "058-326-3834",
      "license_no": "52000311",
      "license_date": "2022-08-29",
      "expire_date": "2027-11-30"
    },
    {
      "name": "グランフォート清流内富士産業（株）給食室",
      "name_kana": "",
      "business_type": "飲食店営業",
      "address": "岐阜県瑞穂市本田９０８－１",
      "lat": 35.409664,
      "lng": 136.674391,
      "geocoding_level": 3,
      "phone": "",
      "license_no": "52000318",
      "license_date": "2022-09-26",
      "expire_date": "2027-11-30"
    },
    {
      "name": "おおやまホルモン瑞穂店",
      "name_kana": "",
      "business_type": "飲食店営業",
      "address": "岐阜県瑞穂市別府７５２－１",
      "lat": 35.39451700000001,
      "lng": 136.684624,
      "geocoding_level": 3,
      "phone": "058-327-6873",
      "license_no": "52000321",
      "license_date": "2022-10-20",
      "expire_date": "2027-11-30"
    },
    {
      "name": "モスバーガーみずほほづみ店",
      "name_kana": "",
      "business_type": "飲食店営業",
      "address": "岐阜県瑞穂市穂積字中原１６２５－１",
      "lat": 35.382130000000004,
      "lng": 136.697341,
      "geocoding_level": 3,
      "phone": "058-329-3155",
      "license_no": "52000322",
      "license_date": "2022-10-20",
      "expire_date": "2027-11-30"
    },
    {
      "name": "ファミリーマート瑞穂牛牧店",
      "name_kana": "",
      "business_type": "飲食店営業",
      "address": "岐阜県瑞穂市牛牧札木９３４番２",
      "lat": 35.381062,
      "lng": 136.670618,
      "geocoding_level": 3,
      "phone": "058-329-1506",
      "license_no": "52000323",
      "license_date": "2022-10-24",
      "expire_date": "2027-11-30"
    },
    {
      "name": "珈楽珈琲店",
      "name_kana": "",
      "business_type": "飲食店営業",
      "address": "岐阜県瑞穂市穂積１４６５－１",
      "lat": 35.382130000000004,
      "lng": 136.697341,
      "geocoding_level": 3,
      "phone": "058-326-5326",
      "license_no": "52000324",
      "license_date": "2022-10-20",
      "expire_date": "2027-11-30"
    },
    {
      "name": "くらしこ",
      "name_kana": "",
      "business_type": "飲食店営業",
      "address": "岐阜県瑞穂市馬場春雨町１－４",
      "lat": 35.413939638,
      "lng": 136.686181243,
      "geocoding_level": 8,
      "phone": "058-329-0055",
      "license_no": "52000325",
      "license_date": "2022-10-24",
      "expire_date": "2027-11-30"
    },
    {
      "name": "カラオケ夢待倉",
      "name_kana": "",
      "business_type": "飲食店営業",
      "address": "岐阜県瑞穂市馬場春雨町１－３",
      "lat": 35.4140198,
      "lng": 136.686400977,
      "geocoding_level": 8,
      "phone": "058-327-8533",
      "license_no": "52000326",
      "license_date": "2022-11-30",
      "expire_date": "2027-11-30"
    },
    {
      "name": "ル・バニーエ",
      "name_kana": "",
      "business_type": "菓子製造業",
      "address": "岐阜県瑞穂市馬場春雨町２－４６－１",
      "lat": 35.411144622,
      "lng": 136.692160385,
      "geocoding_level": 8,
      "phone": "058-327-7232",
      "license_no": "52000327",
      "license_date": "2022-10-24",
      "expire_date": "2027-11-30"
    },
    {
      "name": "バロー穂積西店",
      "name_kana": "",
      "business_type": "食肉販売業",
      "address": "岐阜県瑞穂市十九条字鳥居前２６６ー１",
      "lat": 35.393699,
      "lng": 136.664542,
      "geocoding_level": 3,
      "phone": "058-329-5050",
      "license_no": "52000328",
      "license_date": "2022-10-24",
      "expire_date": "2027-11-30"
    },
    {
      "name": "バロー穂積西店",
      "name_kana": "",
      "business_type": "魚介類販売業",
      "address": "岐阜県瑞穂市十九条字鳥居前２６６ー１",
      "lat": 35.393699,
      "lng": 136.664542,
      "geocoding_level": 3,
      "phone": "058-329-5050",
      "license_no": "52000329",
      "license_date": "2022-10-24",
      "expire_date": "2027-11-30"
    },
    {
      "name": "サンドイッチ・パンの店　ＭＹ（マイ）",
      "name_kana": "",
      "business_type": "飲食店営業",
      "address": "岐阜県瑞穂市生津外宮前町２－２－４",
      "lat": 35.404637269,
      "lng": 136.691741237,
      "geocoding_level": 8,
      "phone": "058-326-7926",
      "license_no": "52000331",
      "license_date": "2022-10-20",
      "expire_date": "2027-11-30"
    },
    {
      "name": "中華食堂　梵",
      "name_kana": "",
      "business_type": "飲食店営業",
      "address": "岐阜県瑞穂市穂積１７５４－１　コーポ２１　１Ｆ－２",
      "lat": 35.386252229,
      "lng": 136.691773495,
      "geocoding_level": 8,
      "phone": "058-326-8350",
      "license_no": "52000332",
      "license_date": "2022-11-17",
      "expire_date": "2027-11-30"
    },
    {
      "name": "ＭＡＺＥ",
      "name_kana": "",
      "business_type": "飲食店営業",
      "address": "岐阜県瑞穂市稲里６６７－１３",
      "lat": 35.386375,
      "lng": 136.686712,
      "geocoding_level": 3,
      "phone": "090-6078-5435",
      "license_no": "52000333",
      "license_date": "2022-10-24",
      "expire_date": "2027-11-30"
    },
    {
      "name": "株式会社ジョイフル岐阜瑞穂店",
      "name_kana": "",
      "business_type": "飲食店営業",
      "address": "岐阜県瑞穂市稲里５８０－１",
      "lat": 35.386375,
      "lng": 136.686712,
      "geocoding_level": 3,
      "phone": "058-329-3888",
      "license_no": "52000336",
      "license_date": "2022-11-17",
      "expire_date": "2027-11-30"
    },
    {
      "name": "大安株式会社",
      "name_kana": "",
      "business_type": "菓子製造業",
      "address": "岐阜県瑞穂市稲里３６番地１",
      "lat": 35.386375,
      "lng": 136.686712,
      "geocoding_level": 3,
      "phone": "058-372-3989",
      "license_no": "52000337",
      "license_date": "2022-11-18",
      "expire_date": "2027-11-30"
    },
    {
      "name": "コメダコーヒー岐阜穂積店",
      "name_kana": "",
      "business_type": "飲食店営業",
      "address": "岐阜県瑞穂市馬場春雨町１－２２",
      "lat": 35.413206352,
      "lng": 136.687029633,
      "geocoding_level": 8,
      "phone": "058-327-7700",
      "license_no": "52000341",
      "license_date": "2022-10-24",
      "expire_date": "2027-11-30"
    },
    {
      "name": "かつや岐阜瑞穂店",
      "name_kana": "",
      "business_type": "飲食店営業",
      "address": "岐阜県瑞穂市馬場上光町１丁目１０８－２",
      "lat": 35.41364316,
      "lng": 136.685693345,
      "geocoding_level": 8,
      "phone": "058-329-0475",
      "license_no": "52000342",
      "license_date": "2022-10-24",
      "expire_date": "2027-11-30"
    },
    {
      "name": "セブンイレブン瑞穂馬場小城町１丁目店",
      "name_kana": "",
      "business_type": "飲食店営業",
      "address": "岐阜県瑞穂市馬場小城町１丁目３０番地",
      "lat": 35.409995928,
      "lng": 136.688648223,
      "geocoding_level": 8,
      "phone": "058-326-8077",
      "license_no": "52000343",
      "license_date": "2022-10-24",
      "expire_date": "2027-11-30"
    },
    {
      "name": "清水屋",
      "name_kana": "",
      "business_type": "飲食店営業",
      "address": "岐阜県瑞穂市本田５７８、５７９の各一部、５８０",
      "lat": 35.409664,
      "lng": 136.674391,
      "geocoding_level": 3,
      "phone": "058-326-3363",
      "license_no": "52000344",
      "license_date": "2022-10-20",
      "expire_date": "2027-11-30"
    },
    {
      "name": "縁屋",
      "name_kana": "",
      "business_type": "菓子製造業",
      "address": "岐阜県瑞穂市横屋３４５－２",
      "lat": 35.382405,
      "lng": 136.661551,
      "geocoding_level": 3,
      "phone": "058-328-1183",
      "license_no": "52000349",
      "license_date": "2022-10-21",
      "expire_date": "2028-02-29"
    },
    {
      "name": "花穂苑喫茶部",
      "name_kana": "",
      "business_type": "飲食店営業",
      "address": "岐阜県瑞穂市別府花塚２３１０－１",
      "lat": 35.39451700000001,
      "lng": 136.684624,
      "geocoding_level": 3,
      "phone": "058-326-9051",
      "license_no": "52000352",
      "license_date": "2022-11-01",
      "expire_date": "2027-11-30"
    },
    {
      "name": "割烹　みかみ",
      "name_kana": "",
      "business_type": "飲食店営業",
      "address": "岐阜県瑞穂市只越１０６１番地",
      "lat": 35.399688,
      "lng": 136.682674,
      "geocoding_level": 3,
      "phone": "058-327-6353",
      "license_no": "52000353",
      "license_date": "2022-11-01",
      "expire_date": "2027-11-30"
    },
    {
      "name": "三栄給食センター",
      "name_kana": "",
      "business_type": "飲食店営業",
      "address": "岐阜県瑞穂市只越１０６１番地",
      "lat": 35.399688,
      "lng": 136.682674,
      "geocoding_level": 3,
      "phone": "058-326-5463",
      "license_no": "52000354",
      "license_date": "2022-11-01",
      "expire_date": "2027-11-30"
    },
    {
      "name": "三栄給食センター",
      "name_kana": "",
      "business_type": "そうざい製造業",
      "address": "岐阜県瑞穂市只越１０６１番地",
      "lat": 35.399688,
      "lng": 136.682674,
      "geocoding_level": 3,
      "phone": "058-326-5463",
      "license_no": "52000355",
      "license_date": "2022-11-01",
      "expire_date": "2027-11-30"
    },
    {
      "name": "空桶集会所　ホワイトローズ",
      "name_kana": "",
      "business_type": "飲食店営業",
      "address": "岐阜県瑞穂市馬場上光町１－１０１",
      "lat": 35.412693259,
      "lng": 136.685025566,
      "geocoding_level": 8,
      "phone": "090-1238-2411",
      "license_no": "52000357",
      "license_date": "2022-11-04",
      "expire_date": "2027-11-30"
    },
    {
      "name": "居酒屋大吉",
      "name_kana": "",
      "business_type": "飲食店営業",
      "address": "岐阜県瑞穂市別府７９４－４",
      "lat": 35.39451700000001,
      "lng": 136.684624,
      "geocoding_level": 3,
      "phone": "058-327-3188",
      "license_no": "52000358",
      "license_date": "2022-11-04",
      "expire_date": "2027-11-30"
    },
    {
      "name": "喫茶サンライズ",
      "name_kana": "",
      "business_type": "飲食店営業",
      "address": "岐阜県瑞穂市穂積１８５１－１　朝日大学３号館",
      "lat": 35.382130000000004,
      "lng": 136.697341,
      "geocoding_level": 3,
      "phone": "058-327-3044",
      "license_no": "52000364",
      "license_date": "2022-11-30",
      "expire_date": "2027-11-30"
    },
    {
      "name": "（有）エムエスピー　マクドナルド瑞穂店",
      "name_kana": "",
      "business_type": "飲食店営業",
      "address": "岐阜県瑞穂市馬場上光町１－１２１",
      "lat": 35.41308321,
      "lng": 136.685936907,
      "geocoding_level": 8,
      "phone": "058-326-5707",
      "license_no": "52000365",
      "license_date": "2022-11-17",
      "expire_date": "2027-11-30"
    },
    {
      "name": "風来坊",
      "name_kana": "",
      "business_type": "飲食店営業",
      "address": "岐阜県瑞穂市別府１０８６－１",
      "lat": 35.39451700000001,
      "lng": 136.684624,
      "geocoding_level": 3,
      "phone": "058-326-4520",
      "license_no": "52000369",
      "license_date": "2022-11-30",
      "expire_date": "2027-11-30"
    },
    {
      "name": "めいちゃん",
      "name_kana": "",
      "business_type": "飲食店営業",
      "address": "岐阜県瑞穂市中宮４２３－１",
      "lat": 35.389929255,
      "lng": 136.648739548,
      "geocoding_level": 8,
      "phone": "058-227-7941",
      "license_no": "52000371",
      "license_date": "2022-11-30",
      "expire_date": "2028-02-29"
    },
    {
      "name": "はなのかファーム",
      "name_kana": "",
      "business_type": "飲食店営業",
      "address": "岐阜県瑞穂市田之上５０８－１",
      "lat": 35.409376,
      "lng": 136.64816,
      "geocoding_level": 3,
      "phone": "080-9118-1187",
      "license_no": "52000384",
      "license_date": "2022-12-20",
      "expire_date": "2028-02-29"
    },
    {
      "name": "はなのかファーム",
      "name_kana": "",
      "business_type": "菓子製造業",
      "address": "岐阜県瑞穂市田之上５０８－１",
      "lat": 35.409376,
      "lng": 136.64816,
      "geocoding_level": 3,
      "phone": "080-9118-1187",
      "license_no": "52000385",
      "license_date": "2022-12-20",
      "expire_date": "2028-02-29"
    },
    {
      "name": "彩　ｉｒｏｄｏｒｉ",
      "name_kana": "",
      "business_type": "飲食店営業",
      "address": "岐阜県瑞穂市穂積１５９６番地４",
      "lat": 35.382130000000004,
      "lng": 136.697341,
      "geocoding_level": 3,
      "phone": "",
      "license_no": "52000390",
      "license_date": "2022-12-27",
      "expire_date": "2028-11-30"
    },
    {
      "name": "岐阜マルタマフーズ株式会社",
      "name_kana": "",
      "business_type": "そうざい製造業",
      "address": "岐阜県瑞穂市野白新田５８番地",
      "lat": 35.378954,
      "lng": 136.679498,
      "geocoding_level": 3,
      "phone": "058-327-3300",
      "license_no": "52000391",
      "license_date": "2022-12-28",
      "expire_date": "2028-11-30"
    },
    {
      "name": "てぃーるーむ　さつき",
      "name_kana": "",
      "business_type": "飲食店営業",
      "address": "岐阜県瑞穂市横屋３７６－１",
      "lat": 35.382405,
      "lng": 136.661551,
      "geocoding_level": 3,
      "phone": "058-328-4646",
      "license_no": "52000419",
      "license_date": "2023-02-06",
      "expire_date": "2028-02-29"
    },
    {
      "name": "アサ",
      "name_kana": "",
      "business_type": "飲食店営業",
      "address": "岐阜県瑞穂市古橋１７４４－１",
      "lat": 35.392265,
      "lng": 136.65409,
      "geocoding_level": 3,
      "phone": "058-328-4195",
      "license_no": "52000420",
      "license_date": "2023-02-07",
      "expire_date": "2028-02-29"
    },
    {
      "name": "豊田屋",
      "name_kana": "",
      "business_type": "飲食店営業",
      "address": "岐阜県瑞穂市美江寺９５７",
      "lat": 35.412043,
      "lng": 136.661499,
      "geocoding_level": 3,
      "phone": "058-328-2013",
      "license_no": "52000421",
      "license_date": "2023-02-06",
      "expire_date": "2028-02-29"
    },
    {
      "name": "林柿園",
      "name_kana": "",
      "business_type": "密封包装食品製造業",
      "address": "岐阜県瑞穂市十八条７４２",
      "lat": 35.400051,
      "lng": 136.662469,
      "geocoding_level": 3,
      "phone": "058-328-2302",
      "license_no": "52000423",
      "license_date": "2023-02-06",
      "expire_date": "2028-02-29"
    },
    {
      "name": "中華料理小槌",
      "name_kana": "",
      "business_type": "飲食店営業",
      "address": "岐阜県瑞穂市田之上６２６",
      "lat": 35.409376,
      "lng": 136.64816,
      "geocoding_level": 3,
      "phone": "080-4544-9151",
      "license_no": "52000425",
      "license_date": "2023-02-10",
      "expire_date": "2028-02-29"
    },
    {
      "name": "株式会社小川ミートセンター",
      "name_kana": "",
      "business_type": "食肉処理業",
      "address": "岐阜県瑞穂市田之上字東町１７４－３",
      "lat": 35.409376,
      "lng": 136.64816,
      "geocoding_level": 3,
      "phone": "058-328-4341",
      "license_no": "52000426",
      "license_date": "2023-02-06",
      "expire_date": "2028-02-29"
    },
    {
      "name": "ｓｈｕｅｎ",
      "name_kana": "",
      "business_type": "飲食店営業",
      "address": "岐阜県瑞穂市別府８１３－１Ｆ　マルキビル",
      "lat": 35.39451700000001,
      "lng": 136.684624,
      "geocoding_level": 3,
      "phone": "090-5103-4471",
      "license_no": "52000434",
      "license_date": "2023-02-17",
      "expire_date": "2028-11-30"
    },
    {
      "name": "巣南ホルモン",
      "name_kana": "",
      "business_type": "飲食店営業",
      "address": "岐阜県瑞穂市森６５６－２",
      "lat": 35.419326,
      "lng": 136.651206,
      "geocoding_level": 3,
      "phone": "058-328-6022",
      "license_no": "52000435",
      "license_date": "2023-02-10",
      "expire_date": "2028-02-29"
    },
    {
      "name": "牛しおＢＡＳＥ",
      "name_kana": "",
      "business_type": "飲食店営業",
      "address": "岐阜県瑞穂市田之上２４１－１　北４",
      "lat": 35.409376,
      "lng": 136.64816,
      "geocoding_level": 3,
      "phone": "058-328-7020",
      "license_no": "52000436",
      "license_date": "2023-02-10",
      "expire_date": "2028-02-29"
    },
    {
      "name": "かっぱ寿司穂積店",
      "name_kana": "",
      "business_type": "菓子製造業",
      "address": "岐阜県瑞穂市穂積１６６６－１",
      "lat": 35.387242742,
      "lng": 136.691841692,
      "geocoding_level": 8,
      "phone": "058-329-5020",
      "license_no": "52000447",
      "license_date": "2023-02-24",
      "expire_date": "2028-11-30"
    },
    {
      "name": "そーすどん",
      "name_kana": "",
      "business_type": "飲食店営業",
      "address": "岐阜県瑞穂市穂積１４５２－１",
      "lat": 35.382130000000004,
      "lng": 136.697341,
      "geocoding_level": 3,
      "phone": "",
      "license_no": "52000449",
      "license_date": "2023-02-28",
      "expire_date": "2028-11-30"
    },
    {
      "name": "ぶたとら氷",
      "name_kana": "",
      "business_type": "飲食店営業",
      "address": "岐阜県瑞穂市別府７２４－１０（２Ｆ）",
      "lat": 35.39451700000001,
      "lng": 136.684624,
      "geocoding_level": 3,
      "phone": "058-326-8710",
      "license_no": "52000479",
      "license_date": "2023-04-12",
      "expire_date": "2028-11-30"
    },
    {
      "name": "ぎょうざのとら",
      "name_kana": "",
      "business_type": "飲食店営業",
      "address": "岐阜県瑞穂市別府８１３",
      "lat": 35.39451700000001,
      "lng": 136.684624,
      "geocoding_level": 3,
      "phone": "058-326-8535",
      "license_no": "52000480",
      "license_date": "2023-04-12",
      "expire_date": "2028-11-30"
    },
    {
      "name": "ぎふ初寿司　瑞穂総本店",
      "name_kana": "",
      "business_type": "飲食店営業",
      "address": "岐阜県瑞穂市馬場春雨町１丁目２０",
      "lat": 35.413206634,
      "lng": 136.68675673,
      "geocoding_level": 8,
      "phone": "058-327-3025",
      "license_no": "52000497",
      "license_date": "2023-04-17",
      "expire_date": "2028-11-30"
    },
    {
      "name": "焼肉ざんまい　じゅうじゅう家",
      "name_kana": "",
      "business_type": "食肉処理業",
      "address": "岐阜県瑞穂市穂積１８６０－１",
      "lat": 35.383248592,
      "lng": 136.691725562,
      "geocoding_level": 8,
      "phone": "058-326-8929",
      "license_no": "52000545",
      "license_date": "2023-09-26",
      "expire_date": "2028-11-30"
    },
    {
      "name": "Ｒｅ住む和の輪",
      "name_kana": "",
      "business_type": "飲食店営業",
      "address": "岐阜県瑞穂市祖父江２８７－１",
      "lat": 35.374306,
      "lng": 136.685813,
      "geocoding_level": 3,
      "phone": "058-322-3111",
      "license_no": "52000565",
      "license_date": "2023-06-20",
      "expire_date": "2028-11-30"
    },
    {
      "name": "バロー穂積西店",
      "name_kana": "",
      "business_type": "飲食店営業",
      "address": "岐阜県瑞穂市十九条字鳥居前２６６ー１",
      "lat": 35.393699,
      "lng": 136.664542,
      "geocoding_level": 3,
      "phone": "058-329-5050",
      "license_no": "52000569",
      "license_date": "2023-06-21",
      "expire_date": "2028-11-30"
    },
    {
      "name": "バロー穂積西店",
      "name_kana": "",
      "business_type": "菓子製造業",
      "address": "岐阜県瑞穂市十九条字鳥居前２６６ー１",
      "lat": 35.393699,
      "lng": 136.664542,
      "geocoding_level": 3,
      "phone": "058-329-5050",
      "license_no": "52000570",
      "license_date": "2023-06-21",
      "expire_date": "2028-11-30"
    },
    {
      "name": "中部フーズ株式会社穂積西店",
      "name_kana": "",
      "business_type": "飲食店営業",
      "address": "岐阜県瑞穂市十九条鳥居前２６６－１",
      "lat": 35.393699,
      "lng": 136.664542,
      "geocoding_level": 3,
      "phone": "058-329-5050",
      "license_no": "52000571",
      "license_date": "2023-06-21",
      "expire_date": "2028-11-30"
    },
    {
      "name": "ＧＡＬＬＥＲＩＡ",
      "name_kana": "",
      "business_type": "飲食店営業",
      "address": "岐阜県瑞穂市馬場春雨町２丁目５４番地",
      "lat": 35.410792489,
      "lng": 136.69282236,
      "geocoding_level": 8,
      "phone": "058-372-3339",
      "license_no": "52000575",
      "license_date": "2023-06-27",
      "expire_date": "2028-11-30"
    },
    {
      "name": "９６℃珈琲",
      "name_kana": "",
      "business_type": "飲食店営業",
      "address": "岐阜県瑞穂市穂積１８１３－４",
      "lat": 35.384913252,
      "lng": 136.691702772,
      "geocoding_level": 8,
      "phone": "080-5301-0773",
      "license_no": "52000642",
      "license_date": "2023-08-28",
      "expire_date": "2028-11-30"
    },
    {
      "name": "株式会社Ｋ－ｓｔｅｐ",
      "name_kana": "",
      "business_type": "菓子製造業",
      "address": "岐阜県瑞穂市別府１６１５番地１",
      "lat": 35.39451700000001,
      "lng": 136.684624,
      "geocoding_level": 3,
      "phone": "058-327-7069",
      "license_no": "52000646",
      "license_date": "2023-09-08",
      "expire_date": "2028-11-30"
    },
    {
      "name": "株式会社Ｋ－ｓｔｅｐ",
      "name_kana": "",
      "business_type": "密封包装食品製造業",
      "address": "岐阜県瑞穂市別府１６１５番地１",
      "lat": 35.39451700000001,
      "lng": 136.684624,
      "geocoding_level": 3,
      "phone": "058-327-7069",
      "license_no": "52000647",
      "license_date": "2023-09-08",
      "expire_date": "2028-11-30"
    },
    {
      "name": "株式会社キィポーション穂積工場",
      "name_kana": "",
      "business_type": "密封包装食品製造業",
      "address": "岐阜県瑞穂市別府１６１５－１",
      "lat": 35.39451700000001,
      "lng": 136.684624,
      "geocoding_level": 3,
      "phone": "058-327-7069",
      "license_no": "52000653",
      "license_date": "2023-10-25",
      "expire_date": "2028-11-30"
    },
    {
      "name": "ファミリーマート瑞穂十九条店",
      "name_kana": "",
      "business_type": "飲食店営業",
      "address": "岐阜県瑞穂市十九条２５４番地１",
      "lat": 35.393699,
      "lng": 136.664542,
      "geocoding_level": 3,
      "phone": "058-329-0370",
      "license_no": "52000654",
      "license_date": "2023-10-25",
      "expire_date": "2028-11-30"
    },
    {
      "name": "味彩　やちぐさ",
      "name_kana": "",
      "business_type": "飲食店営業",
      "address": "岐阜県瑞穂市祖父江１１８６",
      "lat": 35.374306,
      "lng": 136.685813,
      "geocoding_level": 3,
      "phone": "058-326-8188",
      "license_no": "52000655",
      "license_date": "2023-10-25",
      "expire_date": "2028-11-30"
    },
    {
      "name": "ビッグボーイ岐阜穂積店",
      "name_kana": "",
      "business_type": "飲食店営業",
      "address": "岐阜県瑞穂市馬場春雨町１－２４",
      "lat": 35.412697751,
      "lng": 136.687317511,
      "geocoding_level": 8,
      "phone": "058-326-1092",
      "license_no": "52000657",
      "license_date": "2023-10-25",
      "expire_date": "2028-11-30"
    },
    {
      "name": "ＷｏｏＬ　Ｃａｆｅ",
      "name_kana": "",
      "business_type": "飲食店営業",
      "address": "岐阜県瑞穂市別府１２５７",
      "lat": 35.39451700000001,
      "lng": 136.684624,
      "geocoding_level": 3,
      "phone": "058-326-8637",
      "license_no": "52000659",
      "license_date": "2023-10-10",
      "expire_date": "2028-11-30"
    },
    {
      "name": "ＷｏｏＬ　Ｃａｆｅ",
      "name_kana": "",
      "business_type": "菓子製造業",
      "address": "岐阜県瑞穂市別府１２５７",
      "lat": 35.39451700000001,
      "lng": 136.684624,
      "geocoding_level": 3,
      "phone": "058-326-8637",
      "license_no": "52000660",
      "license_date": "2023-10-10",
      "expire_date": "2028-11-30"
    },
    {
      "name": "チェックイン",
      "name_kana": "",
      "business_type": "飲食店営業",
      "address": "岐阜県瑞穂市本田仲西９１０－１",
      "lat": 35.409664,
      "lng": 136.674391,
      "geocoding_level": 3,
      "phone": "058-327-2435",
      "license_no": "52000663",
      "license_date": "2023-11-24",
      "expire_date": "2028-11-30"
    },
    {
      "name": "ｓｔｕｄｉｏ　ｃｈａｌｅｕｒ＋",
      "name_kana": "",
      "business_type": "菓子製造業",
      "address": "岐阜県瑞穂市本田１３０１－１０",
      "lat": 35.409664,
      "lng": 136.674391,
      "geocoding_level": 3,
      "phone": "058-227-5776",
      "license_no": "52000666",
      "license_date": "2023-10-25",
      "expire_date": "2028-11-30"
    },
    {
      "name": "魚　伴",
      "name_kana": "",
      "business_type": "飲食店営業",
      "address": "岐阜県瑞穂市本田１３０３－２",
      "lat": 35.409664,
      "lng": 136.674391,
      "geocoding_level": 3,
      "phone": "058-326-3411",
      "license_no": "52000668",
      "license_date": "2023-10-25",
      "expire_date": "2028-11-30"
    },
    {
      "name": "ふじ十らーめんほがらほがら",
      "name_kana": "",
      "business_type": "飲食店営業",
      "address": "岐阜県瑞穂市穂積１７１１番地１",
      "lat": 35.386986711,
      "lng": 136.691754414,
      "geocoding_level": 8,
      "phone": "058-326-7254",
      "license_no": "52000670",
      "license_date": "2023-10-25",
      "expire_date": "2028-11-30"
    },
    {
      "name": "軽食喫茶　イーグル",
      "name_kana": "",
      "business_type": "飲食店営業",
      "address": "岐阜県瑞穂市野田新田４１０１－１",
      "lat": 35.386007,
      "lng": 136.679908,
      "geocoding_level": 3,
      "phone": "058-326-6288",
      "license_no": "52000672",
      "license_date": "2023-11-08",
      "expire_date": "2028-11-30"
    },
    {
      "name": "清流ホルモン信長　瑞穂店",
      "name_kana": "",
      "business_type": "飲食店営業",
      "address": "岐阜県瑞穂市只越１０６１",
      "lat": 35.399688,
      "lng": 136.682674,
      "geocoding_level": 3,
      "phone": "058-322-6667",
      "license_no": "52000678",
      "license_date": "2023-11-08",
      "expire_date": "2028-11-30"
    },
    {
      "name": "セブン-イレブン瑞穂馬場上光町店",
      "name_kana": "",
      "business_type": "飲食店営業",
      "address": "岐阜県瑞穂市馬場上光町１丁目９６番地",
      "lat": 35.412732947,
      "lng": 136.684268749,
      "geocoding_level": 8,
      "phone": "058-326-8010",
      "license_no": "52000679",
      "license_date": "2023-10-25",
      "expire_date": "2028-11-30"
    },
    {
      "name": "カレーハウスＣｏＣｏ壱番屋　穂積店",
      "name_kana": "",
      "business_type": "飲食店営業",
      "address": "岐阜県瑞穂市穂積１６４４",
      "lat": 35.382130000000004,
      "lng": 136.697341,
      "geocoding_level": 3,
      "phone": "058-326-6124",
      "license_no": "52000680",
      "license_date": "2023-10-25",
      "expire_date": "2028-11-30"
    },
    {
      "name": "ほっともっと　穂積店",
      "name_kana": "",
      "business_type": "飲食店営業",
      "address": "岐阜県瑞穂市馬場上光町３－１４７－２",
      "lat": 35.407795003,
      "lng": 136.689138058,
      "geocoding_level": 8,
      "phone": "058-329-1626",
      "license_no": "52000681",
      "license_date": "2023-10-25",
      "expire_date": "2028-11-30"
    },
    {
      "name": "鶏笑　穂積店",
      "name_kana": "",
      "business_type": "飲食店営業",
      "address": "岐阜県瑞穂市稲里６３０番地",
      "lat": 35.386375,
      "lng": 136.686712,
      "geocoding_level": 3,
      "phone": "058-327-7800",
      "license_no": "52000683",
      "license_date": "2023-11-08",
      "expire_date": "2028-11-30"
    },
    {
      "name": "韓国家庭料理プサン",
      "name_kana": "",
      "business_type": "飲食店営業",
      "address": "岐阜県瑞穂市別府７９２－３",
      "lat": 35.39451700000001,
      "lng": 136.684624,
      "geocoding_level": 3,
      "phone": "058-327-0034",
      "license_no": "52000684",
      "license_date": "2023-11-15",
      "expire_date": "2028-11-30"
    },
    {
      "name": "カラオケ喫茶ソレイユ",
      "name_kana": "",
      "business_type": "飲食店営業",
      "address": "岐阜県瑞穂市本田８４０－５",
      "lat": 35.409664,
      "lng": 136.674391,
      "geocoding_level": 3,
      "phone": "058-327-6800",
      "license_no": "52000685",
      "license_date": "2023-11-17",
      "expire_date": "2028-11-30"
    },
    {
      "name": "インドカレー　ツルシ",
      "name_kana": "",
      "business_type": "飲食店営業",
      "address": "岐阜県瑞穂市別府花塚二ノ町２１３６－１",
      "lat": 35.39451700000001,
      "lng": 136.684624,
      "geocoding_level": 3,
      "phone": "058-329-1585",
      "license_no": "52000686",
      "license_date": "2023-11-08",
      "expire_date": "2028-11-30"
    },
    {
      "name": "かっぱ寿司穂積店",
      "name_kana": "",
      "business_type": "飲食店営業",
      "address": "岐阜県瑞穂市穂積１６６６－１",
      "lat": 35.387242742,
      "lng": 136.691841692,
      "geocoding_level": 8,
      "phone": "058-329-5020",
      "license_no": "52000688",
      "license_date": "2023-10-25",
      "expire_date": "2028-11-30"
    },
    {
      "name": "洋駄菓子工房　Ｌｕ　ｍａｓａ",
      "name_kana": "",
      "business_type": "飲食店営業",
      "address": "岐阜県瑞穂市野田新田字伊勢田４１１２－２",
      "lat": 35.386007,
      "lng": 136.679908,
      "geocoding_level": 3,
      "phone": "058-322-2962",
      "license_no": "52000689",
      "license_date": "2023-10-30",
      "expire_date": "2028-11-30"
    },
    {
      "name": "洋駄菓子工房　Ｌｕ　ｍａｓａ",
      "name_kana": "",
      "business_type": "菓子製造業",
      "address": "岐阜県瑞穂市野田新田字伊勢田４１１２－２",
      "lat": 35.386007,
      "lng": 136.679908,
      "geocoding_level": 3,
      "phone": "058-322-2962",
      "license_no": "52000690",
      "license_date": "2023-10-30",
      "expire_date": "2028-11-30"
    },
    {
      "name": "油そば専門店歌志軒　ドン・キホーテ岐阜瑞穂店",
      "name_kana": "",
      "business_type": "飲食店営業",
      "address": "岐阜県瑞穂市稲里５８０－１",
      "lat": 35.386375,
      "lng": 136.686712,
      "geocoding_level": 3,
      "phone": "058-326-1616",
      "license_no": "52000691",
      "license_date": "2023-11-24",
      "expire_date": "2028-11-30"
    },
    {
      "name": "９６℃珈琲",
      "name_kana": "",
      "business_type": "そうざい製造業",
      "address": "岐阜県瑞穂市穂積１８１３－４",
      "lat": 35.384913252,
      "lng": 136.691702772,
      "geocoding_level": 8,
      "phone": "080-5301-0773",
      "license_no": "52000692",
      "license_date": "2023-11-06",
      "expire_date": "2028-11-30"
    },
    {
      "name": "株式会社麦パン工房　岐阜本社工場",
      "name_kana": "",
      "business_type": "菓子製造業",
      "address": "岐阜県瑞穂市十七条１０３５番１",
      "lat": 35.405941,
      "lng": 136.661357,
      "geocoding_level": 3,
      "phone": "058-328-7011",
      "license_no": "52000695",
      "license_date": "2023-11-17",
      "expire_date": "2029-02-28"
    },
    {
      "name": "キッチンてとて",
      "name_kana": "",
      "business_type": "飲食店営業",
      "address": "岐阜県瑞穂市穂積１９０５－１　ソレアードＭ　１階",
      "lat": 35.382118421,
      "lng": 136.691703441,
      "geocoding_level": 8,
      "phone": "050-8888-0004",
      "license_no": "52000706",
      "license_date": "2023-12-28",
      "expire_date": "2029-11-30"
    },
    {
      "name": "キッチンてとて",
      "name_kana": "",
      "business_type": "そうざい製造業",
      "address": "岐阜県瑞穂市穂積１９０５－１　ソレアードＭ　１階",
      "lat": 35.382118421,
      "lng": 136.691703441,
      "geocoding_level": 8,
      "phone": "050-8888-0004",
      "license_no": "52000707",
      "license_date": "2023-12-28",
      "expire_date": "2029-11-30"
    },
    {
      "name": "Ｃａｆｅ　Ｃｏｔｔｏｎ",
      "name_kana": "",
      "business_type": "飲食店営業",
      "address": "岐阜県瑞穂市美江寺５２３－１",
      "lat": 35.412043,
      "lng": 136.661499,
      "geocoding_level": 3,
      "phone": "058-227-9816",
      "license_no": "52000727",
      "license_date": "2024-02-21",
      "expire_date": "2029-02-28"
    },
    {
      "name": "（株）トモ岐阜　ほほえみの郷店",
      "name_kana": "",
      "business_type": "飲食店営業",
      "address": "岐阜県瑞穂市古橋１７８４－１",
      "lat": 35.392265,
      "lng": 136.65409,
      "geocoding_level": 3,
      "phone": "058-328-3731",
      "license_no": "52000728",
      "license_date": "2024-02-15",
      "expire_date": "2029-02-28"
    },
    {
      "name": "キッコーマンソイフーズ株式会社内（株）トモ岐阜",
      "name_kana": "",
      "business_type": "飲食店営業",
      "address": "岐阜県瑞穂市宝江５７６－３",
      "lat": 35.37341700000001,
      "lng": 136.66638,
      "geocoding_level": 3,
      "phone": "058-326-5623",
      "license_no": "52000731",
      "license_date": "2024-02-21",
      "expire_date": "2029-02-28"
    },
    {
      "name": "セブン-イレブン瑞穂田之上倉町店",
      "name_kana": "",
      "business_type": "飲食店営業",
      "address": "岐阜県瑞穂市田之上字倉町２３６番地１",
      "lat": 35.409376,
      "lng": 136.64816,
      "geocoding_level": 3,
      "phone": "058-328-2707",
      "license_no": "52000737",
      "license_date": "2024-02-15",
      "expire_date": "2029-02-28"
    },
    {
      "name": "ラーメン天外　瑞穂店",
      "name_kana": "",
      "business_type": "飲食店営業",
      "address": "岐阜県瑞穂市牛牧４７７番１",
      "lat": 35.381062,
      "lng": 136.670618,
      "geocoding_level": 3,
      "phone": "058-200-5710",
      "license_no": "52000772",
      "license_date": "2024-02-26",
      "expire_date": "2029-11-30"
    },
    {
      "name": "コノミヤ　巣南店",
      "name_kana": "",
      "business_type": "食肉販売業",
      "address": "岐阜県瑞穂市田之上１６５番地",
      "lat": 35.409376,
      "lng": 136.64816,
      "geocoding_level": 3,
      "phone": "058-328-3745",
      "license_no": "52000782",
      "license_date": "2024-04-09",
      "expire_date": "2030-02-28"
    },
    {
      "name": "清流みずほ認定こども園",
      "name_kana": "",
      "business_type": "飲食店営業",
      "address": "岐阜県瑞穂市森５６４",
      "lat": 35.419326,
      "lng": 136.651206,
      "geocoding_level": 3,
      "phone": "058-328-7228",
      "license_no": "52000922",
      "license_date": "2024-09-20",
      "expire_date": "2030-02-28"
    },
    {
      "name": "とり匠",
      "name_kana": "",
      "business_type": "飲食店営業",
      "address": "岐阜県瑞穂市別府７５２－１",
      "lat": 35.39451700000001,
      "lng": 136.684624,
      "geocoding_level": 3,
      "phone": "058-216-8808",
      "license_no": "52000925",
      "license_date": "2024-09-27",
      "expire_date": "2029-11-30"
    },
    {
      "name": "とり匠",
      "name_kana": "",
      "business_type": "食肉販売業",
      "address": "岐阜県瑞穂市別府７５２－１",
      "lat": 35.39451700000001,
      "lng": 136.684624,
      "geocoding_level": 3,
      "phone": "058-216-8808",
      "license_no": "52000926",
      "license_date": "2024-09-27",
      "expire_date": "2029-11-30"
    },
    {
      "name": "餃子の王将 穂積店",
      "name_kana": "",
      "business_type": "飲食店営業",
      "address": "岐阜県瑞穂市馬場春雨町１－１４",
      "lat": 35.413669283000004,
      "lng": 136.686394381,
      "geocoding_level": 8,
      "phone": "058-326-9711",
      "license_no": "52000931",
      "license_date": "2024-10-23",
      "expire_date": "2029-11-30"
    },
    {
      "name": "ローソン瑞穂牛牧北店",
      "name_kana": "",
      "business_type": "飲食店営業",
      "address": "岐阜県瑞穂市牛牧字五反田５５２",
      "lat": 35.381062,
      "lng": 136.670618,
      "geocoding_level": 3,
      "phone": "058-326-6979",
      "license_no": "52000932",
      "license_date": "2024-10-23",
      "expire_date": "2029-11-30"
    },
    {
      "name": "天一中華",
      "name_kana": "",
      "business_type": "飲食店営業",
      "address": "岐阜県瑞穂市本田２１４４－３",
      "lat": 35.409664,
      "lng": 136.674391,
      "geocoding_level": 3,
      "phone": "058-322-4863",
      "license_no": "52000933",
      "license_date": "2024-10-23",
      "expire_date": "2029-11-30"
    },
    {
      "name": "株式会社平和堂穂積店",
      "name_kana": "",
      "business_type": "菓子製造業",
      "address": "岐阜県瑞穂市別府６２４番地",
      "lat": 35.39451700000001,
      "lng": 136.684624,
      "geocoding_level": 3,
      "phone": "0583271211",
      "license_no": "52000934",
      "license_date": "2024-10-28",
      "expire_date": "2029-11-30"
    },
    {
      "name": "セブン‐イレブン瑞穂市別府店",
      "name_kana": "",
      "business_type": "飲食店営業",
      "address": "岐阜県瑞穂市別府２１００番地１",
      "lat": 35.39451700000001,
      "lng": 136.684624,
      "geocoding_level": 3,
      "phone": "058-326-7011",
      "license_no": "52000936",
      "license_date": "2024-10-23",
      "expire_date": "2029-11-30"
    },
    {
      "name": "セブン‐イレブン穂積駅前通店",
      "name_kana": "",
      "business_type": "飲食店営業",
      "address": "岐阜県瑞穂市別府１２６３－１",
      "lat": 35.39451700000001,
      "lng": 136.684624,
      "geocoding_level": 3,
      "phone": "058-327-3760",
      "license_no": "52000937",
      "license_date": "2024-10-28",
      "expire_date": "2029-11-30"
    },
    {
      "name": "トキノ屋食品株式会社",
      "name_kana": "",
      "business_type": "食肉販売業",
      "address": "岐阜県瑞穂市別府１０１－１６",
      "lat": 35.39451700000001,
      "lng": 136.684624,
      "geocoding_level": 3,
      "phone": "058-326-5566",
      "license_no": "52000938",
      "license_date": "2024-10-28",
      "expire_date": "2029-11-30"
    },
    {
      "name": "カラオケ喫茶　令",
      "name_kana": "",
      "business_type": "飲食店営業",
      "address": "岐阜県瑞穂市本田６２７－７",
      "lat": 35.409664,
      "lng": 136.674391,
      "geocoding_level": 3,
      "phone": "090-9921-0258",
      "license_no": "52000939",
      "license_date": "2024-10-23",
      "expire_date": "2029-11-30"
    },
    {
      "name": "旨辛麻婆麺　かいえん",
      "name_kana": "",
      "business_type": "飲食店営業",
      "address": "岐阜県瑞穂市本田２１４３－１",
      "lat": 35.409664,
      "lng": 136.674391,
      "geocoding_level": 3,
      "phone": "058-372-3728",
      "license_no": "52000943",
      "license_date": "2024-10-23",
      "expire_date": "2029-11-30"
    },
    {
      "name": "カフェポレポレ",
      "name_kana": "",
      "business_type": "飲食店営業",
      "address": "岐阜県瑞穂市別府１２６０－３",
      "lat": 35.39451700000001,
      "lng": 136.684624,
      "geocoding_level": 3,
      "phone": "058-327-3008",
      "license_no": "52000945",
      "license_date": "2024-10-28",
      "expire_date": "2029-11-30"
    },
    {
      "name": "味美",
      "name_kana": "",
      "business_type": "飲食店営業",
      "address": "岐阜県瑞穂市別府井場二ノ町１５３４－１",
      "lat": 35.39451700000001,
      "lng": 136.684624,
      "geocoding_level": 3,
      "phone": "058-327-2336",
      "license_no": "52000949",
      "license_date": "2024-11-22",
      "expire_date": "2029-11-30"
    },
    {
      "name": "ジャルディーノ",
      "name_kana": "",
      "business_type": "飲食店営業",
      "address": "岐阜県瑞穂市生津外宮東町２－８０－１",
      "lat": 35.405079191,
      "lng": 136.693056349,
      "geocoding_level": 8,
      "phone": "058-326-2453",
      "license_no": "52000950",
      "license_date": "2024-10-28",
      "expire_date": "2029-11-30"
    },
    {
      "name": "Ｖａｇｕｅｌｙ",
      "name_kana": "",
      "business_type": "飲食店営業",
      "address": "岐阜県瑞穂市別府井場二の町１５３６－３",
      "lat": 35.39451700000001,
      "lng": 136.684624,
      "geocoding_level": 3,
      "phone": "058-372-7272",
      "license_no": "52000952",
      "license_date": "2024-10-28",
      "expire_date": "2029-11-30"
    },
    {
      "name": "Ｖａｇｕｅｌｙ",
      "name_kana": "",
      "business_type": "菓子製造業",
      "address": "岐阜県瑞穂市別府井場二の町１５３６－３",
      "lat": 35.39451700000001,
      "lng": 136.684624,
      "geocoding_level": 3,
      "phone": "058-372-7272",
      "license_no": "52000953",
      "license_date": "2024-10-28",
      "expire_date": "2029-11-30"
    },
    {
      "name": "マクドナルド２１号穂積町店",
      "name_kana": "",
      "business_type": "飲食店営業",
      "address": "岐阜県瑞穂市穂積１７２７－１",
      "lat": 35.382130000000004,
      "lng": 136.697341,
      "geocoding_level": 3,
      "phone": "058-326-7812",
      "license_no": "52000954",
      "license_date": "2024-11-07",
      "expire_date": "2029-11-30"
    },
    {
      "name": "ファミリーマート瑞穂大西店",
      "name_kana": "",
      "business_type": "飲食店営業",
      "address": "岐阜県瑞穂市稲里字大西６５２番１",
      "lat": 35.386375,
      "lng": 136.686712,
      "geocoding_level": 3,
      "phone": "058-329-0211",
      "license_no": "52000956",
      "license_date": "2024-11-07",
      "expire_date": "2029-11-30"
    },
    {
      "name": "トミダヤ岐大店",
      "name_kana": "",
      "business_type": "飲食店営業",
      "address": "岐阜県瑞穂市稲里６６７番地３",
      "lat": 35.386375,
      "lng": 136.686712,
      "geocoding_level": 3,
      "phone": "058-327-6644",
      "license_no": "52000957",
      "license_date": "2024-11-07",
      "expire_date": "2029-11-30"
    },
    {
      "name": "トミダヤ岐大店",
      "name_kana": "",
      "business_type": "食肉販売業",
      "address": "岐阜県瑞穂市稲里６６７番地３",
      "lat": 35.386375,
      "lng": 136.686712,
      "geocoding_level": 3,
      "phone": "058-327-6644",
      "license_no": "52000958",
      "license_date": "2024-11-07",
      "expire_date": "2029-11-30"
    },
    {
      "name": "トミダヤ岐大店",
      "name_kana": "",
      "business_type": "魚介類販売業",
      "address": "岐阜県瑞穂市稲里６６７番地３",
      "lat": 35.386375,
      "lng": 136.686712,
      "geocoding_level": 3,
      "phone": "058-327-6644",
      "license_no": "52000959",
      "license_date": "2024-11-07",
      "expire_date": "2029-11-30"
    },
    {
      "name": "ボードゲームｃａｆｅ　みーぷるらんど",
      "name_kana": "",
      "business_type": "飲食店営業",
      "address": "岐阜県瑞穂市稲里５４４－１－３",
      "lat": 35.386375,
      "lng": 136.686712,
      "geocoding_level": 3,
      "phone": "070-4202-8662",
      "license_no": "52000960",
      "license_date": "2024-11-07",
      "expire_date": "2029-11-30"
    },
    {
      "name": "お好み焼　太一",
      "name_kana": "",
      "business_type": "飲食店営業",
      "address": "岐阜県瑞穂市犀川６丁目３",
      "lat": 35.368462778,
      "lng": 136.676651438,
      "geocoding_level": 8,
      "phone": "058-327-6513",
      "license_no": "52000961",
      "license_date": "2024-11-07",
      "expire_date": "2029-11-30"
    },
    {
      "name": "インド＆ネパールカレーハウス　ディテヤ",
      "name_kana": "",
      "business_type": "飲食店営業",
      "address": "岐阜県瑞穂市稲里３５６－１７",
      "lat": 35.386375,
      "lng": 136.686712,
      "geocoding_level": 3,
      "phone": "",
      "license_no": "52000964",
      "license_date": "2024-11-11",
      "expire_date": "2029-11-30"
    },
    {
      "name": "ミニストップ瑞穂宝江店",
      "name_kana": "",
      "business_type": "飲食店営業",
      "address": "岐阜県瑞穂市宝江２４８番５",
      "lat": 35.37341700000001,
      "lng": 136.66638,
      "geocoding_level": 3,
      "phone": "058-326-2358",
      "license_no": "52000966",
      "license_date": "2024-11-07",
      "expire_date": "2029-11-30"
    },
    {
      "name": "セブン－イレブン　瑞穂野白新田店",
      "name_kana": "",
      "business_type": "飲食店営業",
      "address": "岐阜県瑞穂市野白新田字八石１０番１",
      "lat": 35.378954,
      "lng": 136.679498,
      "geocoding_level": 3,
      "phone": "058-327-2627",
      "license_no": "52000967",
      "license_date": "2024-11-07",
      "expire_date": "2029-11-30"
    },
    {
      "name": "伊予製麺　瑞穂店",
      "name_kana": "",
      "business_type": "飲食店営業",
      "address": "岐阜県瑞穂市穂積字タリ３１１０－１",
      "lat": 35.382130000000004,
      "lng": 136.697341,
      "geocoding_level": 3,
      "phone": "058-326-2190",
      "license_no": "52000968",
      "license_date": "2024-11-07",
      "expire_date": "2029-11-30"
    },
    {
      "name": "ファミリーマート新穂積店",
      "name_kana": "",
      "business_type": "飲食店営業",
      "address": "岐阜県瑞穂市穂積字タリ３１１０－１",
      "lat": 35.382130000000004,
      "lng": 136.697341,
      "geocoding_level": 3,
      "phone": "058-329-2511",
      "license_no": "52000969",
      "license_date": "2024-11-07",
      "expire_date": "2029-11-30"
    },
    {
      "name": "マックスバリュ穂積店",
      "name_kana": "",
      "business_type": "飲食店営業",
      "address": "岐阜県瑞穂市穂積字タリ３１１０－１",
      "lat": 35.382130000000004,
      "lng": 136.697341,
      "geocoding_level": 3,
      "phone": "058-329-0810",
      "license_no": "52000971",
      "license_date": "2024-11-07",
      "expire_date": "2029-11-30"
    },
    {
      "name": "マックスバリュ穂積店",
      "name_kana": "",
      "business_type": "飲食店営業",
      "address": "岐阜県瑞穂市穂積字タリ３１１０－１",
      "lat": 35.382130000000004,
      "lng": 136.697341,
      "geocoding_level": 3,
      "phone": "058-329-0810",
      "license_no": "52000972",
      "license_date": "2024-11-07",
      "expire_date": "2029-11-30"
    },
    {
      "name": "マックスバリュ穂積店",
      "name_kana": "",
      "business_type": "食肉販売業",
      "address": "岐阜県瑞穂市穂積字タリ３１１０－１",
      "lat": 35.382130000000004,
      "lng": 136.697341,
      "geocoding_level": 3,
      "phone": "058-329-0810",
      "license_no": "52000973",
      "license_date": "2024-11-07",
      "expire_date": "2029-11-30"
    },
    {
      "name": "マックスバリュ穂積店",
      "name_kana": "",
      "business_type": "魚介類販売業",
      "address": "岐阜県瑞穂市穂積字タリ３１１０－１",
      "lat": 35.382130000000004,
      "lng": 136.697341,
      "geocoding_level": 3,
      "phone": "058-329-0810",
      "license_no": "52000974",
      "license_date": "2024-11-07",
      "expire_date": "2029-11-30"
    },
    {
      "name": "マックスバリュ穂積店",
      "name_kana": "",
      "business_type": "菓子製造業",
      "address": "岐阜県瑞穂市穂積字タリ３１１０－１",
      "lat": 35.382130000000004,
      "lng": 136.697341,
      "geocoding_level": 3,
      "phone": "058-329-0810",
      "license_no": "52000975",
      "license_date": "2024-11-07",
      "expire_date": "2029-11-30"
    },
    {
      "name": "ウイスキークラブ",
      "name_kana": "",
      "business_type": "酒類製造業",
      "address": "岐阜県瑞穂市祖父江８番地２",
      "lat": 35.374306,
      "lng": 136.685813,
      "geocoding_level": 3,
      "phone": "080-2985-7996",
      "license_no": "52000990",
      "license_date": "2024-12-10",
      "expire_date": "2030-11-30"
    },
    {
      "name": "ファミリーマート瑞穂野白新田店",
      "name_kana": "",
      "business_type": "飲食店営業",
      "address": "岐阜県瑞穂市野白新田４０９－３",
      "lat": 35.378954,
      "lng": 136.679498,
      "geocoding_level": 3,
      "phone": "058-329-2202",
      "license_no": "52001001",
      "license_date": "2025-01-06",
      "expire_date": "2030-11-30"
    },
    {
      "name": "喫茶みき",
      "name_kana": "",
      "business_type": "飲食店営業",
      "address": "岐阜県瑞穂市美江寺９６２",
      "lat": 35.412043,
      "lng": 136.661499,
      "geocoding_level": 3,
      "phone": "0583282615",
      "license_no": "52001041",
      "license_date": "2025-02-10",
      "expire_date": "2030-02-28"
    },
    {
      "name": "株式会社キィポーション",
      "name_kana": "",
      "business_type": "密封包装食品製造業",
      "address": "岐阜県瑞穂市居倉８３８－１",
      "lat": 35.419565,
      "lng": 136.642732,
      "geocoding_level": 3,
      "phone": "058-328-3756",
      "license_no": "52001043",
      "license_date": "2025-01-31",
      "expire_date": "2030-02-28"
    },
    {
      "name": "みふく",
      "name_kana": "",
      "business_type": "飲食店営業",
      "address": "岐阜県瑞穂市重里１８５４－１",
      "lat": 35.417532,
      "lng": 136.663217,
      "geocoding_level": 3,
      "phone": "058-328-5545",
      "license_no": "52001044",
      "license_date": "2025-02-26",
      "expire_date": "2030-02-28"
    },
    {
      "name": "りく",
      "name_kana": "",
      "business_type": "飲食店営業",
      "address": "岐阜県瑞穂市馬場上光町３丁目７",
      "lat": 35.411021554,
      "lng": 136.687475908,
      "geocoding_level": 8,
      "phone": "070-2921-6974",
      "license_no": "52001050",
      "license_date": "2025-02-19",
      "expire_date": "2030-11-30"
    },
    {
      "name": "ローソン瑞穂野田新田店",
      "name_kana": "",
      "business_type": "飲食店営業",
      "address": "岐阜県瑞穂市野田新田４０５１",
      "lat": 35.386007,
      "lng": 136.679908,
      "geocoding_level": 3,
      "phone": "058-322-3488",
      "license_no": "52001058",
      "license_date": "2025-03-14",
      "expire_date": "2030-11-30"
    },
    {
      "name": "株式会社ＣＯＯＫｌｉｆｅ　はなみずき給食センター",
      "name_kana": "",
      "business_type": "飲食店営業",
      "address": "岐阜県瑞穂市牛牧１２３６－１",
      "lat": 35.381062,
      "lng": 136.670618,
      "geocoding_level": 3,
      "phone": "",
      "license_no": "52001068",
      "license_date": "2025-03-28",
      "expire_date": "2030-11-30"
    },
    {
      "name": "こおひいはうす　珈琲人たち",
      "name_kana": "",
      "business_type": "飲食店営業",
      "address": "岐阜県瑞穂市穂積１４５２－１",
      "lat": 35.382130000000004,
      "lng": 136.697341,
      "geocoding_level": 3,
      "phone": "058-327-6078",
      "license_no": "52073504",
      "license_date": "2020-10-26",
      "expire_date": "2025-11-30"
    },
    {
      "name": "くねくね　穂積店",
      "name_kana": "",
      "business_type": "飲食店営業",
      "address": "岐阜県瑞穂市稲里大西６３０",
      "lat": 35.386375,
      "lng": 136.686712,
      "geocoding_level": 3,
      "phone": "058-326-2368",
      "license_no": "52073782",
      "license_date": "2020-10-26",
      "expire_date": "2025-11-30"
    },
    {
      "name": "喫茶レストラン　きくみ",
      "name_kana": "",
      "business_type": "飲食店営業",
      "address": "岐阜県瑞穂市古橋外浦１７９－１",
      "lat": 35.392265,
      "lng": 136.65409,
      "geocoding_level": 3,
      "phone": "058-328-6660",
      "license_no": "52074110",
      "license_date": "2021-01-25",
      "expire_date": "2026-02-28"
    },
    {
      "name": "石ばし",
      "name_kana": "",
      "business_type": "飲食店営業",
      "address": "岐阜県瑞穂市穂積中原１５９６－４",
      "lat": 35.382130000000004,
      "lng": 136.697341,
      "geocoding_level": 3,
      "phone": "058-327-0851",
      "license_no": "52074534",
      "license_date": "2020-11-12",
      "expire_date": "2025-11-30"
    },
    {
      "name": "焼肉勝美",
      "name_kana": "",
      "business_type": "飲食店営業",
      "address": "岐阜県瑞穂市生津内宮町２－７２－１",
      "lat": 35.40654345,
      "lng": 136.689002881,
      "geocoding_level": 8,
      "phone": "058-326-6732",
      "license_no": "52083151",
      "license_date": "2020-11-02",
      "expire_date": "2025-11-30"
    },
    {
      "name": "和風カフェさくら",
      "name_kana": "",
      "business_type": "飲食店営業",
      "address": "岐阜県瑞穂市牛牧９９１－１",
      "lat": 35.381062,
      "lng": 136.670618,
      "geocoding_level": 3,
      "phone": "058-326-1025",
      "license_no": "52083185",
      "license_date": "2020-10-26",
      "expire_date": "2025-11-30"
    },
    {
      "name": "（株）ハイビックス社員食堂",
      "name_kana": "",
      "business_type": "飲食店営業",
      "address": "岐阜県瑞穂市宮田２４５",
      "lat": 35.40501,
      "lng": 136.645136,
      "geocoding_level": 3,
      "phone": "058-328-3131",
      "license_no": "52083339",
      "license_date": "2021-01-25",
      "expire_date": "2026-02-28"
    },
    {
      "name": "株式会社ふじ十瑞穂工場",
      "name_kana": "",
      "business_type": "麺類製造業",
      "address": "岐阜県瑞穂市稲里５０８－１",
      "lat": 35.386375,
      "lng": 136.686712,
      "geocoding_level": 3,
      "phone": "058-398-7094",
      "license_no": "52083410",
      "license_date": "2020-10-26",
      "expire_date": "2025-11-30"
    },
    {
      "name": "ＳＵＰＥＲ　ＣＥＮＴＥＲ　ＰＬＡＮＴ－６　瑞穂店",
      "name_kana": "",
      "business_type": "魚介類販売業",
      "address": "岐阜県瑞穂市犀川５丁目３８",
      "lat": 35.370102617,
      "lng": 136.676643391,
      "geocoding_level": 8,
      "phone": "058-329-3700",
      "license_no": "52083567",
      "license_date": "2020-10-26",
      "expire_date": "2025-11-30"
    },
    {
      "name": "ＳＵＰＥＲ　ＣＥＮＴＥＲ　ＰＬＡＮＴ－６　瑞穂店",
      "name_kana": "",
      "business_type": "飲食店営業",
      "address": "岐阜県瑞穂市犀川５丁目３８",
      "lat": 35.370102617,
      "lng": 136.676643391,
      "geocoding_level": 8,
      "phone": "058-329-3700",
      "license_no": "52083575",
      "license_date": "2020-10-26",
      "expire_date": "2025-11-30"
    },
    {
      "name": "ＳＵＰＥＲ　ＣＥＮＴＥＲ　ＰＬＡＮＴ－６　瑞穂店",
      "name_kana": "",
      "business_type": "食肉販売業",
      "address": "岐阜県瑞穂市犀川５丁目３８",
      "lat": 35.370102617,
      "lng": 136.676643391,
      "geocoding_level": 8,
      "phone": "058-329-3700",
      "license_no": "52083583",
      "license_date": "2020-10-26",
      "expire_date": "2025-11-30"
    },
    {
      "name": "ＳＵＰＥＲ　ＣＥＮＴＥＲ　ＰＬＡＮＴ－６　瑞穂店",
      "name_kana": "",
      "business_type": "飲食店営業",
      "address": "岐阜県瑞穂市犀川５丁目３８",
      "lat": 35.370102617,
      "lng": 136.676643391,
      "geocoding_level": 8,
      "phone": "058-329-3700",
      "license_no": "52083591",
      "license_date": "2020-10-26",
      "expire_date": "2025-11-30"
    },
    {
      "name": "ＳＵＰＥＲ　ＣＥＮＴＥＲ　ＰＬＡＮＴ－６　瑞穂店",
      "name_kana": "",
      "business_type": "飲食店営業",
      "address": "岐阜県瑞穂市犀川５丁目３８",
      "lat": 35.370102617,
      "lng": 136.676643391,
      "geocoding_level": 8,
      "phone": "058-329-3700",
      "license_no": "52083606",
      "license_date": "2020-10-26",
      "expire_date": "2025-11-30"
    },
    {
      "name": "ＳＵＰＥＲ　ＣＥＮＴＥＲ　ＰＬＡＮＴ－６　瑞穂店",
      "name_kana": "",
      "business_type": "菓子製造業",
      "address": "岐阜県瑞穂市犀川５丁目３８",
      "lat": 35.370102617,
      "lng": 136.676643391,
      "geocoding_level": 8,
      "phone": "058-329-3700",
      "license_no": "52083622",
      "license_date": "2020-10-26",
      "expire_date": "2025-11-30"
    },
    {
      "name": "ＳＵＰＥＲ　ＣＥＮＴＥＲ　ＰＬＡＮＴ－６　瑞穂店",
      "name_kana": "",
      "business_type": "飲食店営業",
      "address": "岐阜県瑞穂市犀川５丁目３８",
      "lat": 35.370102617,
      "lng": 136.676643391,
      "geocoding_level": 8,
      "phone": "058-329-3700",
      "license_no": "52083630",
      "license_date": "2020-10-26",
      "expire_date": "2025-11-30"
    },
    {
      "name": "スガキヤ瑞穂プラント店",
      "name_kana": "",
      "business_type": "飲食店営業",
      "address": "岐阜県瑞穂市犀川５丁目２８スーパーセンタープラント６内",
      "lat": 35.369453959,
      "lng": 136.677237957,
      "geocoding_level": 8,
      "phone": "058-325-0675",
      "license_no": "52083698",
      "license_date": "2020-10-26",
      "expire_date": "2025-11-30"
    },
    {
      "name": "スガキヤ瑞穂プラント店",
      "name_kana": "",
      "business_type": "アイスクリーム類製造業",
      "address": "岐阜県瑞穂市犀川５丁目２８スーパーセンタープラント６内",
      "lat": 35.369453959,
      "lng": 136.677237957,
      "geocoding_level": 8,
      "phone": "058-325-0675",
      "license_no": "52083703",
      "license_date": "2020-10-26",
      "expire_date": "2025-11-30"
    },
    {
      "name": "焼肉ざんまい　じゅうじゅう家",
      "name_kana": "",
      "business_type": "飲食店営業",
      "address": "岐阜県瑞穂市穂積１８６０－１",
      "lat": 35.383248592,
      "lng": 136.691725562,
      "geocoding_level": 8,
      "phone": "058-326-8929",
      "license_no": "52094089",
      "license_date": "2020-11-18",
      "expire_date": "2025-11-30"
    },
    {
      "name": "柿りん",
      "name_kana": "",
      "business_type": "菓子製造業",
      "address": "岐阜県瑞穂市居倉字村前４８６",
      "lat": 35.419565,
      "lng": 136.642732,
      "geocoding_level": 3,
      "phone": "058-328-2762",
      "license_no": "52094877",
      "license_date": "2021-01-25",
      "expire_date": "2026-02-28"
    },
    {
      "name": "ＫＫ東海応用生物研究所食品部",
      "name_kana": "",
      "business_type": "そうざい製造業",
      "address": "岐阜県瑞穂市牛牧９３８－２３",
      "lat": 35.381062,
      "lng": 136.670618,
      "geocoding_level": 3,
      "phone": "058-326-3564",
      "license_no": "52101054",
      "license_date": "2020-10-26",
      "expire_date": "2025-11-30"
    },
    {
      "name": "株式会社ワールドグルメハウス丸髙食品",
      "name_kana": "",
      "business_type": "飲食店営業",
      "address": "岐阜県瑞穂市馬場春雨町１丁目４６番地",
      "lat": 35.41074648,
      "lng": 136.688230172,
      "geocoding_level": 8,
      "phone": "058-327-0833",
      "license_no": "52101096",
      "license_date": "2020-10-26",
      "expire_date": "2025-11-30"
    },
    {
      "name": "ます福屋",
      "name_kana": "",
      "business_type": "飲食店営業",
      "address": "岐阜県瑞穂市穂積１５９６－１",
      "lat": 35.382130000000004,
      "lng": 136.697341,
      "geocoding_level": 3,
      "phone": "058-326-4180",
      "license_no": "52101099",
      "license_date": "2020-11-18",
      "expire_date": "2025-11-30"
    },
    {
      "name": "ローソン瑞穂本田店",
      "name_kana": "",
      "business_type": "飲食店営業",
      "address": "岐阜県瑞穂市本田７５２－１",
      "lat": 35.409664,
      "lng": 136.674391,
      "geocoding_level": 3,
      "phone": "058-327-5550",
      "license_no": "52101104",
      "license_date": "2020-10-26",
      "expire_date": "2025-11-30"
    },
    {
      "name": "ローソン瑞穂本田店",
      "name_kana": "",
      "business_type": "菓子製造業",
      "address": "岐阜県瑞穂市本田７５２－１",
      "lat": 35.409664,
      "lng": 136.674391,
      "geocoding_level": 3,
      "phone": "058-327-5550",
      "license_no": "52101105",
      "license_date": "2020-10-26",
      "expire_date": "2025-11-30"
    },
    {
      "name": "中華ダイニング　紡夢",
      "name_kana": "",
      "business_type": "飲食店営業",
      "address": "岐阜県瑞穂市稲里６６７番地１２",
      "lat": 35.386375,
      "lng": 136.686712,
      "geocoding_level": 3,
      "phone": "058-322-5750",
      "license_no": "52101128",
      "license_date": "2020-10-26",
      "expire_date": "2025-11-30"
    },
    {
      "name": "(有)髙田水産",
      "name_kana": "",
      "business_type": "飲食店営業",
      "address": "岐阜県瑞穂市宮田１番地",
      "lat": 35.40501,
      "lng": 136.645136,
      "geocoding_level": 3,
      "phone": "058-328-3750",
      "license_no": "52101134",
      "license_date": "2021-01-25",
      "expire_date": "2026-02-28"
    },
    {
      "name": "(有)髙田水産",
      "name_kana": "",
      "business_type": "そうざい製造業",
      "address": "岐阜県瑞穂市宮田１番地",
      "lat": 35.40501,
      "lng": 136.645136,
      "geocoding_level": 3,
      "phone": "058-328-3750",
      "license_no": "52101135",
      "license_date": "2021-01-25",
      "expire_date": "2026-02-28"
    },
    {
      "name": "有料老人ホーム　らんか穂積",
      "name_kana": "",
      "business_type": "飲食店営業",
      "address": "岐阜県瑞穂市稲里１４１－１",
      "lat": 35.386375,
      "lng": 136.686712,
      "geocoding_level": 3,
      "phone": "058-327-7085",
      "license_no": "52101141",
      "license_date": "2020-10-27",
      "expire_date": "2025-11-30"
    },
    {
      "name": "源花",
      "name_kana": "",
      "business_type": "飲食店営業",
      "address": "岐阜県瑞穂市別府８１３番地　丸紀ビル１F",
      "lat": 35.39451700000001,
      "lng": 136.684624,
      "geocoding_level": 3,
      "phone": "058-327-6065",
      "license_no": "52101160",
      "license_date": "2020-10-26",
      "expire_date": "2025-11-30"
    },
    {
      "name": "株式会社エム・シー・システム",
      "name_kana": "",
      "business_type": "飲食店営業",
      "address": "岐阜県瑞穂市生津天王町１丁目１０３番地",
      "lat": 35.404305512,
      "lng": 136.694319161,
      "geocoding_level": 8,
      "phone": "058-372-2481",
      "license_no": "52101164",
      "license_date": "2020-10-26",
      "expire_date": "2025-11-30"
    },
    {
      "name": "や台ずし　穂積駅前店",
      "name_kana": "",
      "business_type": "飲食店営業",
      "address": "岐阜県瑞穂市別府６０６",
      "lat": 35.39451700000001,
      "lng": 136.684624,
      "geocoding_level": 3,
      "phone": "058-327-1511",
      "license_no": "52101165",
      "license_date": "2020-10-26",
      "expire_date": "2025-11-30"
    },
    {
      "name": "タパス　瑞穂店",
      "name_kana": "",
      "business_type": "飲食店営業",
      "address": "岐阜県瑞穂市穂積字タリ３１１０番１",
      "lat": 35.382130000000004,
      "lng": 136.697341,
      "geocoding_level": 3,
      "phone": "058-326-2123",
      "license_no": "52101175",
      "license_date": "2020-10-26",
      "expire_date": "2025-11-30"
    },
    {
      "name": "タパス　瑞穂店",
      "name_kana": "",
      "business_type": "菓子製造業",
      "address": "岐阜県瑞穂市穂積字タリ３１１０番１",
      "lat": 35.382130000000004,
      "lng": 136.697341,
      "geocoding_level": 3,
      "phone": "058-326-2123",
      "license_no": "52101176",
      "license_date": "2020-10-26",
      "expire_date": "2025-11-30"
    },
    {
      "name": "タパス　瑞穂店",
      "name_kana": "",
      "business_type": "アイスクリーム類製造業",
      "address": "岐阜県瑞穂市穂積字タリ３１１０番１",
      "lat": 35.382130000000004,
      "lng": 136.697341,
      "geocoding_level": 3,
      "phone": "058-326-2123",
      "license_no": "52101177",
      "license_date": "2020-10-26",
      "expire_date": "2025-11-30"
    },
    {
      "name": "笑い飯",
      "name_kana": "",
      "business_type": "飲食店営業",
      "address": "岐阜県瑞穂市稲里６６６－２　ＫＡＴＯハイツ１Ｆテナント",
      "lat": 35.386375,
      "lng": 136.686712,
      "geocoding_level": 3,
      "phone": "058-322-7400",
      "license_no": "52101200",
      "license_date": "2020-10-26",
      "expire_date": "2025-11-30"
    },
    {
      "name": "ふじ十瑞穂工場",
      "name_kana": "",
      "business_type": "食品の冷凍又は冷蔵業",
      "address": "岐阜県瑞穂市稲里５０８－１",
      "lat": 35.386375,
      "lng": 136.686712,
      "geocoding_level": 3,
      "phone": "058-327-3977",
      "license_no": "52101206",
      "license_date": "2020-10-26",
      "expire_date": "2025-11-30"
    },
    {
      "name": "ほづみ園",
      "name_kana": "",
      "business_type": "飲食店営業",
      "address": "岐阜県瑞穂市宝江５７６－１",
      "lat": 35.37341700000001,
      "lng": 136.66638,
      "geocoding_level": 3,
      "phone": "058-326-3255",
      "license_no": "52101233",
      "license_date": "2020-10-26",
      "expire_date": "2025-11-30"
    },
    {
      "name": "Lounge Urara",
      "name_kana": "",
      "business_type": "飲食店営業",
      "address": "岐阜県瑞穂市田之上２４１番地２",
      "lat": 35.409376,
      "lng": 136.64816,
      "geocoding_level": 3,
      "phone": "090-6610-0942",
      "license_no": "52101246",
      "license_date": "2021-01-25",
      "expire_date": "2026-02-28"
    },
    {
      "name": "ふるさとホーム瑞穂",
      "name_kana": "",
      "business_type": "飲食店営業",
      "address": "岐阜県瑞穂市十九条２３２番地１",
      "lat": 35.393699,
      "lng": 136.664542,
      "geocoding_level": 3,
      "phone": "058-329-3634",
      "license_no": "52101255",
      "license_date": "2020-10-26",
      "expire_date": "2025-11-30"
    },
    {
      "name": "コノミヤ　巣南店",
      "name_kana": "",
      "business_type": "菓子製造業",
      "address": "岐阜県瑞穂市田之上１６５",
      "lat": 35.409376,
      "lng": 136.64816,
      "geocoding_level": 3,
      "phone": "058-328-3745",
      "license_no": "52101279",
      "license_date": "2021-01-25",
      "expire_date": "2026-02-28"
    },
    {
      "name": "小樽食堂　穂積店",
      "name_kana": "",
      "business_type": "飲食店営業",
      "address": "岐阜県瑞穂市穂積１５１７－２",
      "lat": 35.382130000000004,
      "lng": 136.697341,
      "geocoding_level": 3,
      "phone": "058-329-1720",
      "license_no": "52102152",
      "license_date": "2019-12-12",
      "expire_date": "2025-11-30"
    },
    {
      "name": "ＭＯＡ　ｃａｆｅ",
      "name_kana": "",
      "business_type": "飲食店営業",
      "address": "岐阜県瑞穂市稲里６０７",
      "lat": 35.386375,
      "lng": 136.686712,
      "geocoding_level": 3,
      "phone": "058-227-1111",
      "license_no": "52102163",
      "license_date": "2020-01-16",
      "expire_date": "2025-11-30"
    },
    {
      "name": "ミニストップ瑞穂只越店",
      "name_kana": "",
      "business_type": "飲食店営業",
      "address": "岐阜県瑞穂市只越９１４－１",
      "lat": 35.399688,
      "lng": 136.682674,
      "geocoding_level": 3,
      "phone": "058-329-0177",
      "license_no": "52102166",
      "license_date": "2020-01-20",
      "expire_date": "2025-11-30"
    },
    {
      "name": "ミニストップ瑞穂只越店",
      "name_kana": "",
      "business_type": "アイスクリーム類製造業",
      "address": "岐阜県瑞穂市只越９１４－１",
      "lat": 35.399688,
      "lng": 136.682674,
      "geocoding_level": 3,
      "phone": "058-329-0177",
      "license_no": "52102169",
      "license_date": "2020-01-20",
      "expire_date": "2025-11-30"
    },
    {
      "name": "吉野家　瑞穂店",
      "name_kana": "",
      "business_type": "飲食店営業",
      "address": "岐阜県瑞穂市馬場小城町１丁目２３",
      "lat": 35.409310332,
      "lng": 136.689059209,
      "geocoding_level": 8,
      "phone": "058-329-3335",
      "license_no": "52102182",
      "license_date": "2020-02-19",
      "expire_date": "2025-11-30"
    },
    {
      "name": "セブン-イレブン瑞穂田之上倉町店",
      "name_kana": "",
      "business_type": "菓子製造業",
      "address": "岐阜県瑞穂市田之上字倉町２３６番地１",
      "lat": 35.409376,
      "lng": 136.64816,
      "geocoding_level": 3,
      "phone": "058-328-2707",
      "license_no": "52102192",
      "license_date": "2020-03-02",
      "expire_date": "2026-02-28"
    },
    {
      "name": "呑処　田舎茶屋",
      "name_kana": "",
      "business_type": "飲食店営業",
      "address": "岐阜県瑞穂市馬場小城町２－１",
      "lat": 35.410447762,
      "lng": 136.691093683,
      "geocoding_level": 8,
      "phone": "090-3952-2115",
      "license_no": "52102201",
      "license_date": "2020-03-10",
      "expire_date": "2025-11-30"
    },
    {
      "name": "小川ミート　巣南店",
      "name_kana": "",
      "business_type": "食肉処理業",
      "address": "岐阜県瑞穂市田之上１６５",
      "lat": 35.409376,
      "lng": 136.64816,
      "geocoding_level": 3,
      "phone": "058-328-5766",
      "license_no": "52102208",
      "license_date": "2020-03-13",
      "expire_date": "2026-02-28"
    },
    {
      "name": "小川ミート　岐大店",
      "name_kana": "",
      "business_type": "食肉処理業",
      "address": "岐阜県瑞穂市稲里６６７－３",
      "lat": 35.386375,
      "lng": 136.686712,
      "geocoding_level": 3,
      "phone": "058-327-8625",
      "license_no": "52102209",
      "license_date": "2020-03-13",
      "expire_date": "2025-11-30"
    },
    {
      "name": "ミニストップ瑞穂朝日大学前店",
      "name_kana": "",
      "business_type": "飲食店営業",
      "address": "岐阜県瑞穂市穂積１９４７",
      "lat": 35.382130000000004,
      "lng": 136.697341,
      "geocoding_level": 3,
      "phone": "058-327-5870",
      "license_no": "52102215",
      "license_date": "2020-03-24",
      "expire_date": "2025-11-30"
    },
    {
      "name": "ミニストップ瑞穂朝日大学前店",
      "name_kana": "",
      "business_type": "アイスクリーム類製造業",
      "address": "岐阜県瑞穂市穂積１９４７",
      "lat": 35.382130000000004,
      "lng": 136.697341,
      "geocoding_level": 3,
      "phone": "058-327-5870",
      "license_no": "52102216",
      "license_date": "2020-03-24",
      "expire_date": "2025-11-30"
    },
    {
      "name": "和松",
      "name_kana": "",
      "business_type": "飲食店営業",
      "address": "岐阜県瑞穂市野田新田４１３８番地１５",
      "lat": 35.386007,
      "lng": 136.679908,
      "geocoding_level": 3,
      "phone": "058-260-4411",
      "license_no": "52102230",
      "license_date": "2020-04-10",
      "expire_date": "2025-11-30"
    },
    {
      "name": "クレム",
      "name_kana": "",
      "business_type": "飲食店営業",
      "address": "岐阜県瑞穂市穂積１８１３－４　井上第３マンション１Ｆ北号室",
      "lat": 35.384913252,
      "lng": 136.691702772,
      "geocoding_level": 8,
      "phone": "080-5130-1329",
      "license_no": "52102237",
      "license_date": "2020-04-24",
      "expire_date": "2025-11-30"
    },
    {
      "name": "台湾料理　福千",
      "name_kana": "",
      "business_type": "飲食店営業",
      "address": "岐阜県瑞穂市別府６３０",
      "lat": 35.39451700000001,
      "lng": 136.684624,
      "geocoding_level": 3,
      "phone": "058-327-7677",
      "license_no": "52102238",
      "license_date": "2020-04-24",
      "expire_date": "2025-11-30"
    },
    {
      "name": "cafe こはるぞら",
      "name_kana": "",
      "business_type": "菓子製造業",
      "address": "岐阜県瑞穂市只越９１３－１",
      "lat": 35.399688,
      "lng": 136.682674,
      "geocoding_level": 3,
      "phone": "058-327-1514",
      "license_no": "52102239",
      "license_date": "2020-04-24",
      "expire_date": "2025-11-30"
    },
    {
      "name": "ＰＥＡＲＬ　ＴＥＡ",
      "name_kana": "",
      "business_type": "飲食店営業",
      "address": "岐阜県瑞穂市稲里５８０－１",
      "lat": 35.386375,
      "lng": 136.686712,
      "geocoding_level": 3,
      "phone": "058-372-3772",
      "license_no": "52102241",
      "license_date": "2020-04-24",
      "expire_date": "2025-11-30"
    },
    {
      "name": "ＰＥＡＲＬ　ＴＥＡ",
      "name_kana": "",
      "business_type": "菓子製造業",
      "address": "岐阜県瑞穂市稲里５８０－１",
      "lat": 35.386375,
      "lng": 136.686712,
      "geocoding_level": 3,
      "phone": "058-372-3772",
      "license_no": "52102242",
      "license_date": "2020-04-24",
      "expire_date": "2025-11-30"
    },
    {
      "name": "Ｂｉｅｃｏ－ｓｈｏｐ",
      "name_kana": "",
      "business_type": "飲食店営業",
      "address": "岐阜県瑞穂市森５６４　清流みずほ認定こども園内",
      "lat": 35.419326,
      "lng": 136.651206,
      "geocoding_level": 3,
      "phone": "090-2612-7677",
      "license_no": "52102243",
      "license_date": "2020-04-28",
      "expire_date": "2026-02-28"
    },
    {
      "name": "サンコック瑞穂店",
      "name_kana": "",
      "business_type": "飲食店営業",
      "address": "岐阜県瑞穂市十九条鳥居前２５６－１",
      "lat": 35.393699,
      "lng": 136.664542,
      "geocoding_level": 3,
      "phone": "",
      "license_no": "52102244",
      "license_date": "2020-05-08",
      "expire_date": "2025-11-30"
    },
    {
      "name": "麻雀荘　若様",
      "name_kana": "",
      "business_type": "飲食店営業",
      "address": "岐阜県瑞穂市稲里５４４－１",
      "lat": 35.386375,
      "lng": 136.686712,
      "geocoding_level": 3,
      "phone": "058-326-3260",
      "license_no": "52102250",
      "license_date": "2020-05-20",
      "expire_date": "2025-11-30"
    },
    {
      "name": "シェ・デュモン",
      "name_kana": "",
      "business_type": "飲食店営業",
      "address": "岐阜県瑞穂市馬場前畑町２丁目７５",
      "lat": 35.412423436,
      "lng": 136.681144914,
      "geocoding_level": 8,
      "phone": "058-327-4323",
      "license_no": "52102251",
      "license_date": "2020-05-20",
      "expire_date": "2025-11-30"
    },
    {
      "name": "シェ・デュモン",
      "name_kana": "",
      "business_type": "菓子製造業",
      "address": "岐阜県瑞穂市馬場前畑町２丁目７５",
      "lat": 35.412423436,
      "lng": 136.681144914,
      "geocoding_level": 8,
      "phone": "058-327-4323",
      "license_no": "52102252",
      "license_date": "2020-05-20",
      "expire_date": "2025-11-30"
    },
    {
      "name": "Ｃａｆｅ　Ｃｏｔｔｏｎ",
      "name_kana": "",
      "business_type": "菓子製造業",
      "address": "岐阜県瑞穂市美江寺５２３－１",
      "lat": 35.412043,
      "lng": 136.661499,
      "geocoding_level": 3,
      "phone": "058-227-9816",
      "license_no": "52102255",
      "license_date": "2020-05-22",
      "expire_date": "2026-02-28"
    },
    {
      "name": "和の菓　さんのう",
      "name_kana": "",
      "business_type": "菓子製造業",
      "address": "岐阜県瑞穂市野白新田３３７－１　メゾンクレール１０２号",
      "lat": 35.378954,
      "lng": 136.679498,
      "geocoding_level": 3,
      "phone": "090-3834-3444",
      "license_no": "52102263",
      "license_date": "2020-06-03",
      "expire_date": "2025-11-30"
    },
    {
      "name": "八剣伝　穂積店",
      "name_kana": "",
      "business_type": "飲食店営業",
      "address": "岐阜県瑞穂市穂積１８１３－４　井上第３マンション１Ｆ南",
      "lat": 35.384913252,
      "lng": 136.691702772,
      "geocoding_level": 8,
      "phone": "058-326-8304",
      "license_no": "52102264",
      "license_date": "2020-06-10",
      "expire_date": "2025-11-30"
    },
    {
      "name": "麺切り　白流　麺渡し　白流",
      "name_kana": "",
      "business_type": "麺類製造業",
      "address": "岐阜県瑞穂市森８６０－１",
      "lat": 35.419326,
      "lng": 136.651206,
      "geocoding_level": 3,
      "phone": "058-322-3231",
      "license_no": "52102273",
      "license_date": "2020-07-13",
      "expire_date": "2026-02-28"
    },
    {
      "name": "株式会社令和桜サービス",
      "name_kana": "",
      "business_type": "飲食店営業",
      "address": "岐阜県瑞穂市牛牧３１３",
      "lat": 35.381062,
      "lng": 136.670618,
      "geocoding_level": 3,
      "phone": "058-372-7051",
      "license_no": "52102283",
      "license_date": "2020-07-20",
      "expire_date": "2025-11-30"
    },
    {
      "name": "大安株式会社",
      "name_kana": "",
      "business_type": "飲食店営業",
      "address": "岐阜県瑞穂市稲里３６－１",
      "lat": 35.386375,
      "lng": 136.686712,
      "geocoding_level": 3,
      "phone": "058-372-3989",
      "license_no": "52102286",
      "license_date": "2020-08-06",
      "expire_date": "2025-11-30"
    },
    {
      "name": "大安株式会社",
      "name_kana": "",
      "business_type": "菓子製造業",
      "address": "岐阜県瑞穂市稲里３６－１",
      "lat": 35.386375,
      "lng": 136.686712,
      "geocoding_level": 3,
      "phone": "058-372-3989",
      "license_no": "52102287",
      "license_date": "2020-08-06",
      "expire_date": "2025-11-30"
    },
    {
      "name": "Ｂａｃｋｈａｕｓ　Ｂｌａｕ",
      "name_kana": "",
      "business_type": "飲食店営業",
      "address": "岐阜県瑞穂市本田１０７７－１",
      "lat": 35.409664,
      "lng": 136.674391,
      "geocoding_level": 3,
      "phone": "058-322-6953",
      "license_no": "52102288",
      "license_date": "2020-08-06",
      "expire_date": "2025-11-30"
    },
    {
      "name": "Ｂａｃｋｈａｕｓ　Ｂｌａｕ",
      "name_kana": "",
      "business_type": "菓子製造業",
      "address": "岐阜県瑞穂市本田１０７７－１",
      "lat": 35.409664,
      "lng": 136.674391,
      "geocoding_level": 3,
      "phone": "058-322-6953",
      "license_no": "52102289",
      "license_date": "2020-08-06",
      "expire_date": "2025-11-30"
    },
    {
      "name": "光っちゃん",
      "name_kana": "",
      "business_type": "飲食店営業",
      "address": "岐阜県瑞穂市別府８１３　マルキビル２Ｆ",
      "lat": 35.39451700000001,
      "lng": 136.684624,
      "geocoding_level": 3,
      "phone": "090-4469-5005",
      "license_no": "52102291",
      "license_date": "2020-08-14",
      "expire_date": "2025-11-30"
    },
    {
      "name": "株式会社ワールドグルメハウス丸髙食品",
      "name_kana": "",
      "business_type": "食肉処理業",
      "address": "岐阜県瑞穂市馬場春雨町１丁目４６番地",
      "lat": 35.41074648,
      "lng": 136.688230172,
      "geocoding_level": 8,
      "phone": "058-327-0833",
      "license_no": "52102302",
      "license_date": "2020-09-25",
      "expire_date": "2025-11-30"
    },
    {
      "name": "Ｈéｒｏｎ　ｃｅｎｄｒé",
      "name_kana": "",
      "business_type": "飲食店営業",
      "address": "岐阜県瑞穂市只越１０９８－１",
      "lat": 35.399688,
      "lng": 136.682674,
      "geocoding_level": 3,
      "phone": "058-260-3678",
      "license_no": "52102312",
      "license_date": "2020-10-26",
      "expire_date": "2025-11-30"
    },
    {
      "name": "バロー穂積店",
      "name_kana": "",
      "business_type": "飲食店営業",
      "address": "岐阜県瑞穂市馬場春雨町１丁目３２番地",
      "lat": 35.411950079,
      "lng": 136.687843678,
      "geocoding_level": 8,
      "phone": "058-329-0866",
      "license_no": "52102314",
      "license_date": "2020-11-09",
      "expire_date": "2025-11-30"
    },
    {
      "name": "バロー穂積店",
      "name_kana": "",
      "business_type": "飲食店営業",
      "address": "岐阜県瑞穂市馬場春雨町１丁目３２番地",
      "lat": 35.411950079,
      "lng": 136.687843678,
      "geocoding_level": 8,
      "phone": "058-329-0866",
      "license_no": "52102315",
      "license_date": "2020-11-09",
      "expire_date": "2025-11-30"
    },
    {
      "name": "バロー穂積店",
      "name_kana": "",
      "business_type": "飲食店営業",
      "address": "岐阜県瑞穂市馬場春雨町１丁目３２番地",
      "lat": 35.411950079,
      "lng": 136.687843678,
      "geocoding_level": 8,
      "phone": "058-329-0866",
      "license_no": "52102316",
      "license_date": "2020-11-09",
      "expire_date": "2025-11-30"
    },
    {
      "name": "バロー穂積店",
      "name_kana": "",
      "business_type": "魚介類販売業",
      "address": "岐阜県瑞穂市馬場春雨町１丁目３２番地",
      "lat": 35.411950079,
      "lng": 136.687843678,
      "geocoding_level": 8,
      "phone": "058-329-0866",
      "license_no": "52102317",
      "license_date": "2020-11-09",
      "expire_date": "2025-11-30"
    },
    {
      "name": "バロー穂積店",
      "name_kana": "",
      "business_type": "食肉販売業",
      "address": "岐阜県瑞穂市馬場春雨町１丁目３２番地",
      "lat": 35.411950079,
      "lng": 136.687843678,
      "geocoding_level": 8,
      "phone": "058-329-0866",
      "license_no": "52102318",
      "license_date": "2020-11-09",
      "expire_date": "2025-11-30"
    },
    {
      "name": "バロー穂積店",
      "name_kana": "",
      "business_type": "菓子製造業",
      "address": "岐阜県瑞穂市馬場春雨町１丁目３２番地",
      "lat": 35.411950079,
      "lng": 136.687843678,
      "geocoding_level": 8,
      "phone": "058-329-0866",
      "license_no": "52102319",
      "license_date": "2020-11-09",
      "expire_date": "2025-11-30"
    },
    {
      "name": "バロー穂積店",
      "name_kana": "",
      "business_type": "飲食店営業",
      "address": "岐阜県瑞穂市馬場春雨町１丁目３２番",
      "lat": 35.411950079,
      "lng": 136.687843678,
      "geocoding_level": 8,
      "phone": "058-329-0866",
      "license_no": "52102321",
      "license_date": "2020-11-09",
      "expire_date": "2025-11-30"
    },
    {
      "name": "カネサダ　バロー穂積店",
      "name_kana": "",
      "business_type": "飲食店営業",
      "address": "岐阜県瑞穂市馬場春雨町１丁目３２番地",
      "lat": 35.411950079,
      "lng": 136.687843678,
      "geocoding_level": 8,
      "phone": "080-3587-1199",
      "license_no": "52102322",
      "license_date": "2020-11-09",
      "expire_date": "2025-11-30"
    },
    {
      "name": "魚惣菜いろは",
      "name_kana": "",
      "business_type": "飲食店営業",
      "address": "岐阜県瑞穂市馬場春雨町１－３２",
      "lat": 35.411950079,
      "lng": 136.687843678,
      "geocoding_level": 8,
      "phone": "058-329-0866",
      "license_no": "52102323",
      "license_date": "2020-11-09",
      "expire_date": "2025-11-30"
    },
    {
      "name": "三甲ゴルフ倶楽部瑞穂シティクラブ",
      "name_kana": "",
      "business_type": "飲食店営業",
      "address": "岐阜県瑞穂市馬場上光町１丁目１１７　三甲不動産本社ビル　５階",
      "lat": 35.412614952,
      "lng": 136.686421045,
      "geocoding_level": 8,
      "phone": "",
      "license_no": "52102328",
      "license_date": "2020-11-18",
      "expire_date": "2025-11-30"
    },
    {
      "name": "ドミノ・ピザ生津外宮前町店",
      "name_kana": "",
      "business_type": "飲食店営業",
      "address": "岐阜県瑞穂市生津外宮前町１丁目１",
      "lat": 35.404539796,
      "lng": 136.689942294,
      "geocoding_level": 8,
      "phone": "058-329-2333",
      "license_no": "52102344",
      "license_date": "2020-12-03",
      "expire_date": "2026-11-30"
    },
    {
      "name": "ドミノ・ピザ生津外宮前町店",
      "name_kana": "",
      "business_type": "菓子製造業",
      "address": "岐阜県瑞穂市生津外宮前町１丁目１",
      "lat": 35.404539796,
      "lng": 136.689942294,
      "geocoding_level": 8,
      "phone": "058-329-2333",
      "license_no": "52102345",
      "license_date": "2020-12-03",
      "expire_date": "2026-11-30"
    },
    {
      "name": "キッチン　エムズ",
      "name_kana": "",
      "business_type": "飲食店営業",
      "address": "岐阜県瑞穂市馬場前畑町３丁目１３２番２",
      "lat": 35.412459097,
      "lng": 136.681836069,
      "geocoding_level": 8,
      "phone": "070-2214-1930",
      "license_no": "52102348",
      "license_date": "2020-12-10",
      "expire_date": "2026-11-30"
    },
    {
      "name": "８",
      "name_kana": "",
      "business_type": "飲食店営業",
      "address": "岐阜県瑞穂市別府８１３番地　マルキビル２Ｆ",
      "lat": 35.39451700000001,
      "lng": 136.684624,
      "geocoding_level": 3,
      "phone": "090-9926-6509",
      "license_no": "52102349",
      "license_date": "2020-12-10",
      "expire_date": "2026-11-30"
    },
    {
      "name": "マックスバリュ穂積店",
      "name_kana": "",
      "business_type": "飲食店営業",
      "address": "岐阜県瑞穂市穂積字タリ３１１０－１",
      "lat": 35.382130000000004,
      "lng": 136.697341,
      "geocoding_level": 3,
      "phone": "058-329-0810",
      "license_no": "52102356",
      "license_date": "2021-01-13",
      "expire_date": "2026-11-30"
    },
    {
      "name": "ａｔｅｌｉｅｒ　Ｈｙｇｇｅ",
      "name_kana": "",
      "business_type": "飲食店営業",
      "address": "岐阜県瑞穂市古橋１３６７－１",
      "lat": 35.392265,
      "lng": 136.65409,
      "geocoding_level": 3,
      "phone": "058-328-7573",
      "license_no": "52102358",
      "license_date": "2021-01-13",
      "expire_date": "2026-02-28"
    },
    {
      "name": "ａｔｅｌｉｅｒ　Ｈｙｇｇｅ",
      "name_kana": "",
      "business_type": "菓子製造業",
      "address": "岐阜県瑞穂市古橋１３６７－１",
      "lat": 35.392265,
      "lng": 136.65409,
      "geocoding_level": 3,
      "phone": "058-328-7573",
      "license_no": "52102359",
      "license_date": "2021-01-13",
      "expire_date": "2026-02-28"
    },
    {
      "name": "朝日大学食堂「カフェテリア」「花水木」",
      "name_kana": "",
      "business_type": "飲食店営業",
      "address": "岐阜県瑞穂市穂積１８５１　朝日大学１０周年記念館内",
      "lat": 35.382130000000004,
      "lng": 136.697341,
      "geocoding_level": 3,
      "phone": "058-327-0252",
      "license_no": "52102391",
      "license_date": "2021-03-22",
      "expire_date": "2026-11-30"
    },
    {
      "name": "ＩＮＩＨＡＷ　ＲＥＳＴＡＵＲＡＮＴ",
      "name_kana": "",
      "business_type": "飲食店営業",
      "address": "岐阜県瑞穂市稲里６６７－１",
      "lat": 35.386375,
      "lng": 136.686712,
      "geocoding_level": 3,
      "phone": "090-5634-1740",
      "license_no": "52102399",
      "license_date": "2021-04-01",
      "expire_date": "2026-11-30"
    },
    {
      "name": "ＥＩＧＨＴ",
      "name_kana": "",
      "business_type": "飲食店営業",
      "address": "岐阜県瑞穂市別府８１３　　丸紀ビル２Ｆ",
      "lat": 35.39451700000001,
      "lng": 136.684624,
      "geocoding_level": 3,
      "phone": "090-7030-0839",
      "license_no": "52102408",
      "license_date": "2021-04-21",
      "expire_date": "2026-11-30"
    },
    {
      "name": "おてんとＳｕｎ",
      "name_kana": "",
      "business_type": "飲食店営業",
      "address": "岐阜県瑞穂市穂積１７３４番１",
      "lat": 35.382130000000004,
      "lng": 136.697341,
      "geocoding_level": 3,
      "phone": "058-322-8407",
      "license_no": "52102413",
      "license_date": "2021-04-30",
      "expire_date": "2026-11-30"
    },
    {
      "name": "ドリー夢",
      "name_kana": "",
      "business_type": "飲食店営業",
      "address": "岐阜県瑞穂市野田新田４１３８－１５",
      "lat": 35.386007,
      "lng": 136.679908,
      "geocoding_level": 3,
      "phone": "058-326-8444",
      "license_no": "52102419",
      "license_date": "2021-05-10",
      "expire_date": "2026-11-30"
    },
    {
      "name": "住宅型有料老人ホーム　にこり",
      "name_kana": "",
      "business_type": "飲食店営業",
      "address": "岐阜県瑞穂市生津外宮東町１丁目５５",
      "lat": 35.406794331,
      "lng": 136.690863798,
      "geocoding_level": 8,
      "phone": "058-322-6644",
      "license_no": "52102429",
      "license_date": "2021-05-20",
      "expire_date": "2026-11-30"
    },
    {
      "name": "そば処　松琴亭",
      "name_kana": "",
      "business_type": "飲食店営業",
      "address": "岐阜県瑞穂市牛牧１４５６－１",
      "lat": 35.381062,
      "lng": 136.670618,
      "geocoding_level": 3,
      "phone": "058-326-5555",
      "license_no": "52102432",
      "license_date": "2021-05-25",
      "expire_date": "2026-11-30"
    },
    {
      "name": "ポニー",
      "name_kana": "",
      "business_type": "飲食店営業",
      "address": "岐阜県瑞穂市十九条３２５",
      "lat": 35.393699,
      "lng": 136.664542,
      "geocoding_level": 3,
      "phone": "058-327-0024",
      "license_no": "55010377",
      "license_date": "2020-10-26",
      "expire_date": "2025-11-30"
    },
    {
      "name": "福松",
      "name_kana": "",
      "business_type": "飲食店営業",
      "address": "岐阜県瑞穂市別府８７４－１",
      "lat": 35.39451700000001,
      "lng": 136.684624,
      "geocoding_level": 3,
      "phone": "058-327-0225",
      "license_no": "55010408",
      "license_date": "2020-10-26",
      "expire_date": "2025-11-30"
    },
    {
      "name": "宮川産業",
      "name_kana": "",
      "business_type": "菓子製造業",
      "address": "岐阜県瑞穂市祖父江１００２－４",
      "lat": 35.374306,
      "lng": 136.685813,
      "geocoding_level": 3,
      "phone": "058-327-5167",
      "license_no": "55022756",
      "license_date": "2020-10-26",
      "expire_date": "2025-11-30"
    },
    {
      "name": "和風レストラン八石",
      "name_kana": "",
      "business_type": "飲食店営業",
      "address": "岐阜県瑞穂市野白新田５０－１",
      "lat": 35.378954,
      "lng": 136.679498,
      "geocoding_level": 3,
      "phone": "058-327-5814",
      "license_no": "55022780",
      "license_date": "2020-10-26",
      "expire_date": "2025-11-30"
    },
    {
      "name": "レスティハウスファイン",
      "name_kana": "",
      "business_type": "飲食店営業",
      "address": "岐阜県瑞穂市穂積１８６２－１",
      "lat": 35.383235316,
      "lng": 136.692173661,
      "geocoding_level": 8,
      "phone": "058-327-1448",
      "license_no": "55023053",
      "license_date": "2020-11-25",
      "expire_date": "2025-11-30"
    },
    {
      "name": "コーヒーショップジョイ",
      "name_kana": "",
      "business_type": "飲食店営業",
      "address": "岐阜県瑞穂市穂積５５２－１",
      "lat": 35.382130000000004,
      "lng": 136.697341,
      "geocoding_level": 3,
      "phone": "058-326-6425",
      "license_no": "55027463",
      "license_date": "2020-10-26",
      "expire_date": "2025-11-30"
    },
    {
      "name": "喫茶かつら",
      "name_kana": "",
      "business_type": "飲食店営業",
      "address": "岐阜県瑞穂市牛牧９５４",
      "lat": 35.381062,
      "lng": 136.670618,
      "geocoding_level": 3,
      "phone": "058-326-6054",
      "license_no": "55027722",
      "license_date": "2020-10-26",
      "expire_date": "2025-11-30"
    },
    {
      "name": "株式会社　井桁屋",
      "name_kana": "",
      "business_type": "飲食店営業",
      "address": "岐阜県瑞穂市別府９８８",
      "lat": 35.39451700000001,
      "lng": 136.684624,
      "geocoding_level": 3,
      "phone": "058-326-3834",
      "license_no": "55028053",
      "license_date": "2020-10-26",
      "expire_date": "2025-11-30"
    },
    {
      "name": "井桁屋パーラー",
      "name_kana": "",
      "business_type": "飲食店営業",
      "address": "岐阜県瑞穂市別府４１１－８",
      "lat": 35.39451700000001,
      "lng": 136.684624,
      "geocoding_level": 3,
      "phone": "058-326-3040",
      "license_no": "55032874",
      "license_date": "2020-10-26",
      "expire_date": "2025-11-30"
    },
    {
      "name": "くいしんぼう",
      "name_kana": "",
      "business_type": "飲食店営業",
      "address": "岐阜県瑞穂市田之上２４１－１",
      "lat": 35.409376,
      "lng": 136.64816,
      "geocoding_level": 3,
      "phone": "058328-4190",
      "license_no": "55033511",
      "license_date": "2021-01-25",
      "expire_date": "2026-02-28"
    },
    {
      "name": "トキノ屋食品株式会社",
      "name_kana": "",
      "business_type": "食肉処理業",
      "address": "岐阜県瑞穂市別府１０１－１６",
      "lat": 35.39451700000001,
      "lng": 136.684624,
      "geocoding_level": 3,
      "phone": "058-326-5566",
      "license_no": "55038862",
      "license_date": "2020-10-26",
      "expire_date": "2025-11-30"
    },
    {
      "name": "サッポロラ－メン　２１番穂積店",
      "name_kana": "",
      "business_type": "飲食店営業",
      "address": "岐阜県瑞穂市穂積字中原１６４１－１",
      "lat": 35.382130000000004,
      "lng": 136.697341,
      "geocoding_level": 3,
      "phone": "058-327-5012",
      "license_no": "55046912",
      "license_date": "2020-11-02",
      "expire_date": "2025-11-30"
    },
    {
      "name": "ココス　穂積店",
      "name_kana": "",
      "business_type": "飲食店営業",
      "address": "岐阜県瑞穂市穂積東原５９３",
      "lat": 35.382130000000004,
      "lng": 136.697341,
      "geocoding_level": 3,
      "phone": "058-329-0069",
      "license_no": "55052507",
      "license_date": "2020-11-24",
      "expire_date": "2025-11-30"
    },
    {
      "name": "旭化成穂積工場内食堂",
      "name_kana": "",
      "business_type": "飲食店営業",
      "address": "岐阜県瑞穂市別府２１６２",
      "lat": 35.39451700000001,
      "lng": 136.684624,
      "geocoding_level": 3,
      "phone": "058-327-2510",
      "license_no": "55053503",
      "license_date": "2020-10-26",
      "expire_date": "2025-11-30"
    },
    {
      "name": "ｃａｆｅ　鼓童",
      "name_kana": "",
      "business_type": "飲食店営業",
      "address": "岐阜県瑞穂市穂積東原１２－１",
      "lat": 35.382130000000004,
      "lng": 136.697341,
      "geocoding_level": 3,
      "phone": "058-327-9678",
      "license_no": "55053781",
      "license_date": "2020-10-26",
      "expire_date": "2025-11-30"
    },
    {
      "name": "ぎふ初寿司十九条分店",
      "name_kana": "",
      "business_type": "飲食店営業",
      "address": "岐阜県瑞穂市十九条２３０－６",
      "lat": 35.393699,
      "lng": 136.664542,
      "geocoding_level": 3,
      "phone": "058-327-4704",
      "license_no": "55061132",
      "license_date": "2020-10-26",
      "expire_date": "2025-11-30"
    },
    {
      "name": "シャトレーゼ穂積店",
      "name_kana": "",
      "business_type": "菓子製造業",
      "address": "岐阜県瑞穂市只越八幡前１０６０",
      "lat": 35.399688,
      "lng": 136.682674,
      "geocoding_level": 3,
      "phone": "058-326-1223",
      "license_no": "55065916",
      "license_date": "2020-11-25",
      "expire_date": "2025-11-30"
    },
    {
      "name": "まるみ亭",
      "name_kana": "",
      "business_type": "飲食店営業",
      "address": "岐阜県瑞穂市穂積東原４２９－２８",
      "lat": 35.382130000000004,
      "lng": 136.697341,
      "geocoding_level": 3,
      "phone": "058-326-4842",
      "license_no": "55066629",
      "license_date": "2020-10-26",
      "expire_date": "2025-11-30"
    },