{
  "meta": {
    "updated": 1783906731,
    "sources": [
      {
        "source": "鹿児島県 鹿児島県食品営業許可施設一覧",
        "license": "Creative Commons Attribution 4.0 International"
      },
      {
        "source": "厚生労働省 食品衛生申請等システム（オープンデータ）",
        "license": "公共データ利用規約（第1.0版, PDL1.0）"
      }
    ]
  },
  "data": [
    {
      "name": "河口　修",
      "name_kana": "",
      "business_type": "飲食店営業（その他）",
      "address": "西之表市西之表２０１ （鹿児島市を除く県内一円）",
      "lat": 30.768308824,
      "lng": 131.009873238,
      "geocoding_level": 8,
      "phone": "",
      "license_no": "第036-000113号",
      "license_date": null,
      "expire_date": "2030-07-31"
    },
    {
      "name": "藤本　努",
      "name_kana": "",
      "business_type": "飲食店営業（その他）",
      "address": "西之表市現和６２８２ （鹿児島市を除く県内一円）",
      "lat": 30.695801475,
      "lng": 131.057908207,
      "geocoding_level": 8,
      "phone": "",
      "license_no": "第034-000016号",
      "license_date": null,
      "expire_date": "2027-04-30"
    },
    {
      "name": "福元　繁行",
      "name_kana": "",
      "business_type": "冷凍食品製造業",
      "address": "西之表市国上３９８０－２",
      "lat": 30.783142273,
      "lng": 131.019960126,
      "geocoding_level": 8,
      "phone": "",
      "license_no": "第034-000017号",
      "license_date": null,
      "expire_date": "2027-04-30"
    },
    {
      "name": "合名会社　荒木旅館",
      "name_kana": "",
      "business_type": "飲食店営業（その他）",
      "address": "西之表市西町７９、７５、７４、７３",
      "lat": 30.733325999999998,
      "lng": 130.994598,
      "geocoding_level": 3,
      "phone": "",
      "license_no": "第034-000020号",
      "license_date": null,
      "expire_date": "2028-04-30"
    },
    {
      "name": "有限会社　種子島ブロイラー",
      "name_kana": "",
      "business_type": "飲食店営業（一般食堂・ﾚｽﾄﾗﾝ等）",
      "address": "西之表市西之表７４８１－１",
      "lat": 30.730970000000003,
      "lng": 131.020729,
      "geocoding_level": 3,
      "phone": "",
      "license_no": "第034-000021号",
      "license_date": null,
      "expire_date": "2028-04-30"
    },
    {
      "name": "松山　孔夫",
      "name_kana": "",
      "business_type": "飲食店営業（一般食堂・ﾚｽﾄﾗﾝ等）",
      "address": "西之表市東町３９",
      "lat": 30.730641,
      "lng": 130.995858,
      "geocoding_level": 3,
      "phone": "",
      "license_no": "第034-000022号",
      "license_date": null,
      "expire_date": "2028-04-30"
    },
    {
      "name": "原田　加代子",
      "name_kana": "",
      "business_type": "飲食店営業（仕出し屋・弁当屋）",
      "address": "西之表市鴨女町１２４",
      "lat": 30.724897,
      "lng": 130.994892,
      "geocoding_level": 3,
      "phone": "",
      "license_no": "第034-000024号",
      "license_date": null,
      "expire_date": "2028-04-30"
    },
    {
      "name": "姥　隼人",
      "name_kana": "",
      "business_type": "飲食店営業（その他）",
      "address": "西之表市栄町２－４－１階",
      "lat": 30.729752,
      "lng": 130.993431,
      "geocoding_level": 3,
      "phone": "",
      "license_no": "第034-000023号",
      "license_date": null,
      "expire_date": "2028-04-30"
    },
    {
      "name": "古市　光徳",
      "name_kana": "",
      "business_type": "水産製品製造業",
      "address": "西之表市西之表１６２７０－２",
      "lat": 30.730970000000003,
      "lng": 131.020729,
      "geocoding_level": 3,
      "phone": "",
      "license_no": "第034-000028号",
      "license_date": null,
      "expire_date": "2028-04-30"
    },
    {
      "name": "古市　光徳",
      "name_kana": "",
      "business_type": "飲食店営業（その他）",
      "address": "西之表市西之表１６２７０－２ （鹿児島市を除く県内一円）",
      "lat": 30.730970000000003,
      "lng": 131.020729,
      "geocoding_level": 3,
      "phone": "",
      "license_no": "第034-000029号",
      "license_date": null,
      "expire_date": "2027-04-30"
    },
    {
      "name": "荒河　大輔",
      "name_kana": "",
      "business_type": "水産製品製造業",
      "address": "西之表市国上２０１１－６",
      "lat": 30.804713576,
      "lng": 131.040427327,
      "geocoding_level": 8,
      "phone": "",
      "license_no": "第034-000038号",
      "license_date": null,
      "expire_date": "2028-07-31"
    },
    {
      "name": "美㘴　忠一",
      "name_kana": "",
      "business_type": "漬物製造業",
      "address": "西之表市西之表７４４２",
      "lat": 30.730970000000003,
      "lng": 131.020729,
      "geocoding_level": 3,
      "phone": "",
      "license_no": "第034-000045号",
      "license_date": null,
      "expire_date": "2027-07-31"
    },
    {
      "name": "中園　由美子",
      "name_kana": "",
      "business_type": "飲食店営業（仕出し屋・弁当屋）",
      "address": "西之表市安納２９９－４",
      "lat": 30.742812999999998,
      "lng": 131.060012,
      "geocoding_level": 3,
      "phone": "",
      "license_no": "第034-000046号",
      "license_date": null,
      "expire_date": "2028-07-31"
    },
    {
      "name": "中園　由美子",
      "name_kana": "",
      "business_type": "菓子製造業",
      "address": "西之表市安納２９９－４",
      "lat": 30.742812999999998,
      "lng": 131.060012,
      "geocoding_level": 3,
      "phone": "",
      "license_no": "第034-000047号",
      "license_date": null,
      "expire_date": "2028-07-31"
    },
    {
      "name": "丸山　和久",
      "name_kana": "",
      "business_type": "飲食店営業（仕出し屋・弁当屋）",
      "address": "西之表市住吉１６０３",
      "lat": 30.666313000000002,
      "lng": 130.96511400000003,
      "geocoding_level": 3,
      "phone": "",
      "license_no": "第034-000050号",
      "license_date": null,
      "expire_date": "2027-07-31"
    },
    {
      "name": "有限会社　岩坪鮮魚精肉店",
      "name_kana": "",
      "business_type": "魚介類販売業",
      "address": "西之表市安城１０１４－１",
      "lat": 30.651278594,
      "lng": 131.043632942,
      "geocoding_level": 8,
      "phone": "",
      "license_no": "第034-000069号",
      "license_date": null,
      "expire_date": "2028-07-31"
    },
    {
      "name": "松下　隆輝",
      "name_kana": "",
      "business_type": "飲食店営業（仕出し屋・弁当屋）",
      "address": "西之表市鴨女町８０",
      "lat": 30.724897,
      "lng": 130.994892,
      "geocoding_level": 3,
      "phone": "",
      "license_no": "第034-000070号",
      "license_date": null,
      "expire_date": "2028-07-31"
    },
    {
      "name": "松下　隆輝",
      "name_kana": "",
      "business_type": "菓子製造業",
      "address": "西之表市鴨女町８０",
      "lat": 30.724897,
      "lng": 130.994892,
      "geocoding_level": 3,
      "phone": "",
      "license_no": "第034-000071号",
      "license_date": null,
      "expire_date": "2028-07-31"
    },
    {
      "name": "種子島酒造　株式会社",
      "name_kana": "",
      "business_type": "冷凍食品製造業",
      "address": "西之表市国上２４２－４",
      "lat": 30.815956022000005,
      "lng": 131.041312755,
      "geocoding_level": 8,
      "phone": "",
      "license_no": "第034-000072号",
      "license_date": null,
      "expire_date": "2028-07-31"
    },
    {
      "name": "濱尾　武義",
      "name_kana": "",
      "business_type": "飲食店営業（一般食堂・ﾚｽﾄﾗﾝ等）",
      "address": "西之表市住吉２４１４",
      "lat": 30.682924846999995,
      "lng": 130.952085543,
      "geocoding_level": 8,
      "phone": "",
      "license_no": "第034-000073号",
      "license_date": null,
      "expire_date": "2028-07-31"
    },
    {
      "name": "川畑　律子",
      "name_kana": "",
      "business_type": "飲食店営業（その他）",
      "address": "西之表市西町３４ （鹿児島市を除く県内一円）",
      "lat": 30.733325999999998,
      "lng": 130.994598,
      "geocoding_level": 3,
      "phone": "",
      "license_no": "第034-000074号",
      "license_date": null,
      "expire_date": "2027-07-31"
    },
    {
      "name": "丸山水産有限会社",
      "name_kana": "",
      "business_type": "水産製品製造業",
      "address": "西之表市西町４４",
      "lat": 30.733325999999998,
      "lng": 130.994598,
      "geocoding_level": 3,
      "phone": "",
      "license_no": "第034-000076号",
      "license_date": null,
      "expire_date": "2028-07-31"
    },
    {
      "name": "有限会社　種子島環境整備",
      "name_kana": "",
      "business_type": "飲食店営業（その他）",
      "address": "西之表市西之表１９１０ （鹿児島市を除く県内一円）",
      "lat": 30.730970000000003,
      "lng": 131.020729,
      "geocoding_level": 3,
      "phone": "",
      "license_no": "第034-000077号",
      "license_date": null,
      "expire_date": "2027-07-31"
    },
    {
      "name": "中村　政信",
      "name_kana": "",
      "business_type": "冷凍食品製造業",
      "address": "西之表市西之表８６４７",
      "lat": 30.727231458,
      "lng": 131.017480334,
      "geocoding_level": 8,
      "phone": "",
      "license_no": "第034-000078号",
      "license_date": null,
      "expire_date": "2027-07-31"
    },
    {
      "name": "平園　イツ子",
      "name_kana": "",
      "business_type": "飲食店営業（その他）",
      "address": "西之表市東町２４",
      "lat": 30.730641,
      "lng": 130.995858,
      "geocoding_level": 3,
      "phone": "",
      "license_no": "第034-000079号",
      "license_date": null,
      "expire_date": "2028-07-31"
    },
    {
      "name": "金子　二三矢",
      "name_kana": "",
      "business_type": "菓子製造業",
      "address": "西之表市西町２５",
      "lat": 30.733325999999998,
      "lng": 130.994598,
      "geocoding_level": 3,
      "phone": "",
      "license_no": "第034-000081号",
      "license_date": null,
      "expire_date": "2028-07-31"
    },
    {
      "name": "山内　恵利加",
      "name_kana": "",
      "business_type": "飲食店営業（その他）",
      "address": "西之表市西之表１３０６７－１０９",
      "lat": 30.678271125,
      "lng": 131.012308108,
      "geocoding_level": 8,
      "phone": "",
      "license_no": "第034-000082号",
      "license_date": null,
      "expire_date": "2028-07-31"
    },
    {
      "name": "株式会社ゼウスプランニング",
      "name_kana": "",
      "business_type": "飲食店営業（旅館）",
      "address": "西之表市現和字アラマキ田９２２７",
      "lat": 30.699186999999995,
      "lng": 131.05278,
      "geocoding_level": 3,
      "phone": "",
      "license_no": "第034-000089号",
      "license_date": null,
      "expire_date": "2028-10-31"
    },
    {
      "name": "株式会社　うしじまストアー",
      "name_kana": "",
      "business_type": "飲食店営業（仕出し屋・弁当屋）",
      "address": "西之表市天神町３－１２",
      "lat": 30.727702,
      "lng": 130.995129,
      "geocoding_level": 3,
      "phone": "",
      "license_no": "第034-000090号",
      "license_date": null,
      "expire_date": "2028-10-31"
    },
    {
      "name": "梶原　敏夫",
      "name_kana": "",
      "business_type": "飲食店営業（仕出し屋・弁当屋）",
      "address": "西之表市安城２９５９",
      "lat": 30.612491488,
      "lng": 131.046607102,
      "geocoding_level": 8,
      "phone": "",
      "license_no": "第034-000098号",
      "license_date": null,
      "expire_date": "2027-10-31"
    },
    {
      "name": "栗﨑　勝喜",
      "name_kana": "",
      "business_type": "菓子製造業",
      "address": "西之表市古田４５６－３",
      "lat": 30.655605,
      "lng": 131.002872,
      "geocoding_level": 3,
      "phone": "",
      "license_no": "第034-000114号",
      "license_date": null,
      "expire_date": "2028-10-31"
    },
    {
      "name": "吉冨　和枝",
      "name_kana": "",
      "business_type": "飲食店営業（その他）",
      "address": "西之表市西町１３",
      "lat": 30.733325999999998,
      "lng": 130.994598,
      "geocoding_level": 3,
      "phone": "",
      "license_no": "第034-000115号",
      "license_date": null,
      "expire_date": "2027-10-31"
    },
    {
      "name": "阿世知　保子",
      "name_kana": "",
      "business_type": "飲食店営業（一般食堂・ﾚｽﾄﾗﾝ等）",
      "address": "西之表市西町７０８２　大洋ビル１Ｆ",
      "lat": 30.733325999999998,
      "lng": 130.994598,
      "geocoding_level": 3,
      "phone": "",
      "license_no": "第034-000116号",
      "license_date": null,
      "expire_date": "2028-10-31"
    },
    {
      "name": "有限会社　味処井元",
      "name_kana": "",
      "business_type": "飲食店営業（一般食堂・ﾚｽﾄﾗﾝ等）",
      "address": "西之表市西町７０９０",
      "lat": 30.733325999999998,
      "lng": 130.994598,
      "geocoding_level": 3,
      "phone": "",
      "license_no": "第034-000117号",
      "license_date": null,
      "expire_date": "2028-10-31"
    },
    {
      "name": "有限会社　岩坪鮮魚精肉店",
      "name_kana": "",
      "business_type": "魚介類販売業",
      "address": "西之表市西町８",
      "lat": 30.733325999999998,
      "lng": 130.994598,
      "geocoding_level": 3,
      "phone": "",
      "license_no": "第034-000118号",
      "license_date": null,
      "expire_date": "2028-10-31"
    },
    {
      "name": "有限会社　岩坪鮮魚精肉店",
      "name_kana": "",
      "business_type": "食肉販売業",
      "address": "西之表市西町８",
      "lat": 30.733325999999998,
      "lng": 130.994598,
      "geocoding_level": 3,
      "phone": "",
      "license_no": "第034-000119号",
      "license_date": null,
      "expire_date": "2028-10-31"
    },
    {
      "name": "有限会社　菓子処酒井屋",
      "name_kana": "",
      "business_type": "飲食店営業（その他）",
      "address": "西之表市西之表１０４１０－１３",
      "lat": 30.730970000000003,
      "lng": 131.020729,
      "geocoding_level": 3,
      "phone": "",
      "license_no": "第034-000120号",
      "license_date": null,
      "expire_date": "2028-10-31"
    },
    {
      "name": "有限会社　菓子処酒井屋",
      "name_kana": "",
      "business_type": "菓子製造業",
      "address": "西之表市西之表１０４１０－１３",
      "lat": 30.730970000000003,
      "lng": 131.020729,
      "geocoding_level": 3,
      "phone": "",
      "license_no": "第034-000121号",
      "license_date": null,
      "expire_date": "2028-10-31"
    },
    {
      "name": "佐藤　康紀",
      "name_kana": "",
      "business_type": "飲食店営業（一般食堂・ﾚｽﾄﾗﾝ等）",
      "address": "西之表市西之表１４４４９－７",
      "lat": 30.730970000000003,
      "lng": 131.020729,
      "geocoding_level": 3,
      "phone": "",
      "license_no": "第034-000122号",
      "license_date": null,
      "expire_date": "2028-10-31"
    },
    {
      "name": "有限会社　種子島ブロイラー",
      "name_kana": "",
      "business_type": "食肉処理業",
      "address": "西之表市西之表７４８１－１",
      "lat": 30.730970000000003,
      "lng": 131.020729,
      "geocoding_level": 3,
      "phone": "",
      "license_no": "第034-000123号",
      "license_date": null,
      "expire_date": "2028-10-31"
    },
    {
      "name": "升本　小津枝",
      "name_kana": "",
      "business_type": "飲食店営業（旅館）",
      "address": "西之表市西之表７６０３－１０",
      "lat": 30.730970000000003,
      "lng": 131.020729,
      "geocoding_level": 3,
      "phone": "",
      "license_no": "第034-000124号",
      "license_date": null,
      "expire_date": "2028-10-31"
    },
    {
      "name": "古市　克己",
      "name_kana": "",
      "business_type": "飲食店営業（一般食堂・ﾚｽﾄﾗﾝ等）",
      "address": "西之表市東町４",
      "lat": 30.730641,
      "lng": 130.995858,
      "geocoding_level": 3,
      "phone": "",
      "license_no": "第034-000125号",
      "license_date": null,
      "expire_date": "2028-10-31"
    },
    {
      "name": "田中　由美",
      "name_kana": "",
      "business_type": "飲食店営業（その他）",
      "address": "西之表市東町９",
      "lat": 30.730641,
      "lng": 130.995858,
      "geocoding_level": 3,
      "phone": "",
      "license_no": "第034-000126号",
      "license_date": null,
      "expire_date": "2028-10-31"
    },
    {
      "name": "梶原　敏夫",
      "name_kana": "",
      "business_type": "菓子製造業",
      "address": "西之表市安城２９５９",
      "lat": 30.612491488,
      "lng": 131.046607102,
      "geocoding_level": 8,
      "phone": "",
      "license_no": "第034-000128号",
      "license_date": null,
      "expire_date": "2027-10-31"
    },
    {
      "name": "梶原　敏夫",
      "name_kana": "",
      "business_type": "飲食店営業（その他）",
      "address": "西之表市安城２９５９ （鹿児島市を除く県内一円）",
      "lat": 30.612491488,
      "lng": 131.046607102,
      "geocoding_level": 8,
      "phone": "",
      "license_no": "第034-000130号",
      "license_date": null,
      "expire_date": "2028-10-31"
    },
    {
      "name": "株式会社　サンフーズ",
      "name_kana": "",
      "business_type": "菓子製造業",
      "address": "西之表市天神町３－１２",
      "lat": 30.727702,
      "lng": 130.995129,
      "geocoding_level": 3,
      "phone": "",
      "license_no": "第034-000134号",
      "license_date": null,
      "expire_date": "2029-01-31"
    },
    {
      "name": "谷山　真琴",
      "name_kana": "",
      "business_type": "飲食店営業（一般食堂・ﾚｽﾄﾗﾝ等）",
      "address": "西之表市東町１５３",
      "lat": 30.730641,
      "lng": 130.995858,
      "geocoding_level": 3,
      "phone": "",
      "license_no": "第034-000135号",
      "license_date": null,
      "expire_date": "2029-01-31"
    },
    {
      "name": "空種子合同会社",
      "name_kana": "",
      "business_type": "飲食店営業（旅館）",
      "address": "西之表市国上５",
      "lat": 30.823704724,
      "lng": 131.04448622,
      "geocoding_level": 8,
      "phone": "",
      "license_no": "第034-000141号",
      "license_date": null,
      "expire_date": "2029-01-31"
    },
    {
      "name": "有限会社　西田農産",
      "name_kana": "",
      "business_type": "冷凍食品製造業",
      "address": "西之表市現和２１６６",
      "lat": 30.71479077,
      "lng": 131.044137829,
      "geocoding_level": 8,
      "phone": "",
      "license_no": "第034-000150号",
      "license_date": null,
      "expire_date": "2029-01-31"
    },
    {
      "name": "河口　晶子",
      "name_kana": "",
      "business_type": "そうざい製造業",
      "address": "西之表市西之表２１３－５",
      "lat": 30.76749421,
      "lng": 131.010234433,
      "geocoding_level": 8,
      "phone": "",
      "license_no": "第034-000154号",
      "license_date": null,
      "expire_date": "2029-01-31"
    },
    {
      "name": "酒瀬川　　瑞穂",
      "name_kana": "",
      "business_type": "飲食店営業（仕出し屋・弁当屋）",
      "address": "西之表市西之表３９４３",
      "lat": 30.730970000000003,
      "lng": 131.020729,
      "geocoding_level": 3,
      "phone": "",
      "license_no": "第034-000155号",
      "license_date": null,
      "expire_date": "2029-01-31"
    },
    {
      "name": "徳永　正秀",
      "name_kana": "",
      "business_type": "飲食店営業（一般食堂・ﾚｽﾄﾗﾝ等）",
      "address": "西之表市東町２３",
      "lat": 30.730641,
      "lng": 130.995858,
      "geocoding_level": 3,
      "phone": "",
      "license_no": "第034-000157号",
      "license_date": null,
      "expire_date": "2028-01-31"
    },
    {
      "name": "土屋　健",
      "name_kana": "",
      "business_type": "飲食店営業（その他）",
      "address": "西之表市東町４１",
      "lat": 30.730641,
      "lng": 130.995858,
      "geocoding_level": 3,
      "phone": "",
      "license_no": "第034-000158号",
      "license_date": null,
      "expire_date": "2028-01-31"
    },
    {
      "name": "原田　とみ子",
      "name_kana": "",
      "business_type": "漬物製造業",
      "address": "西之表市現和８７１８",
      "lat": 30.699186999999995,
      "lng": 131.05278,
      "geocoding_level": 3,
      "phone": "",
      "license_no": "第034-000159号",
      "license_date": null,
      "expire_date": "2028-01-31"
    },
    {
      "name": "株式会社　オリエンタルフーズ",
      "name_kana": "",
      "business_type": "飲食店営業（一般食堂・ﾚｽﾄﾗﾝ等）",
      "address": "西之表市西之表１６２７５－１",
      "lat": 30.730970000000003,
      "lng": 131.020729,
      "geocoding_level": 3,
      "phone": "",
      "license_no": "第034-000164号",
      "license_date": null,
      "expire_date": "2029-04-30"
    },
    {
      "name": "落合　ミチヨ",
      "name_kana": "",
      "business_type": "菓子製造業",
      "address": "西之表市国上２５５３",
      "lat": 30.800901813000003,
      "lng": 131.03707711,
      "geocoding_level": 8,
      "phone": "",
      "license_no": "第031-000186号",
      "license_date": null,
      "expire_date": "2026-01-31"
    },
    {
      "name": "落合　ミチヨ",
      "name_kana": "",
      "business_type": "そうざい製造業",
      "address": "西之表市国上２５５３",
      "lat": 30.800901813000003,
      "lng": 131.03707711,
      "geocoding_level": 8,
      "phone": "",
      "license_no": "第031-000187号",
      "license_date": null,
      "expire_date": "2026-01-31"
    },
    {
      "name": "有限会社八百松商店",
      "name_kana": "",
      "business_type": "食肉処理業",
      "address": "西之表市西町１６",
      "lat": 30.733325999999998,
      "lng": 130.994598,
      "geocoding_level": 3,
      "phone": "",
      "license_no": "第031-000188号",
      "license_date": null,
      "expire_date": "2026-01-31"
    },
    {
      "name": "有限会社八百松商店",
      "name_kana": "",
      "business_type": "魚介類販売業",
      "address": "西之表市西町１６",
      "lat": 30.733325999999998,
      "lng": 130.994598,
      "geocoding_level": 3,
      "phone": "",
      "license_no": "第031-000189号",
      "license_date": null,
      "expire_date": "2026-01-31"
    },
    {
      "name": "平原　　親義",
      "name_kana": "",
      "business_type": "飲食店営業（一般食堂・ﾚｽﾄﾗﾝ等）",
      "address": "西之表市天神町５－１５",
      "lat": 30.727702,
      "lng": 130.995129,
      "geocoding_level": 3,
      "phone": "",
      "license_no": "第031-000198号",
      "license_date": null,
      "expire_date": "2026-01-31"
    },
    {
      "name": "上別縄　久美子",
      "name_kana": "",
      "business_type": "飲食店営業（その他）",
      "address": "西之表市東町９０番地",
      "lat": 30.730641,
      "lng": 130.995858,
      "geocoding_level": 3,
      "phone": "",
      "license_no": "第031-000201号",
      "license_date": null,
      "expire_date": "2026-01-31"
    },
    {
      "name": "株式会社　大和",
      "name_kana": "",
      "business_type": "飲食店営業（仕出し屋・弁当屋）",
      "address": "西之表市西之表字田代１０４４０－１",
      "lat": 30.730970000000003,
      "lng": 131.020729,
      "geocoding_level": 3,
      "phone": "",
      "license_no": "第031-000207号",
      "license_date": null,
      "expire_date": "2026-01-31"
    },
    {
      "name": "株式会社　大和",
      "name_kana": "",
      "business_type": "飲食店営業（その他）",
      "address": "西之表市西之表字田代１０４４０－１",
      "lat": 30.730970000000003,
      "lng": 131.020729,
      "geocoding_level": 3,
      "phone": "",
      "license_no": "第031-000208号",
      "license_date": null,
      "expire_date": "2026-01-31"
    },
    {
      "name": "株式会社　大和",
      "name_kana": "",
      "business_type": "食肉販売業",
      "address": "西之表市西之表字田代１０４４０－１",
      "lat": 30.730970000000003,
      "lng": 131.020729,
      "geocoding_level": 3,
      "phone": "",
      "license_no": "第031-000210号",
      "license_date": null,
      "expire_date": "2026-01-31"
    },
    {
      "name": "株式会社　大和",
      "name_kana": "",
      "business_type": "魚介類販売業",
      "address": "西之表市西之表字田代１０４４０－１",
      "lat": 30.730970000000003,
      "lng": 131.020729,
      "geocoding_level": 3,
      "phone": "",
      "license_no": "第031-000211号",
      "license_date": null,
      "expire_date": "2026-01-31"
    },
    {
      "name": "村　博江",
      "name_kana": "",
      "business_type": "飲食店営業（一般食堂・ﾚｽﾄﾗﾝ等）",
      "address": "西之表市西町４８－１",
      "lat": 30.733325999999998,
      "lng": 130.994598,
      "geocoding_level": 3,
      "phone": "",
      "license_no": "第031-000214号",
      "license_date": null,
      "expire_date": "2026-01-31"
    },
    {
      "name": "中野　　忠志",
      "name_kana": "",
      "business_type": "飲食店営業（その他）",
      "address": "西之表市西町３２",
      "lat": 30.733325999999998,
      "lng": 130.994598,
      "geocoding_level": 3,
      "phone": "",
      "license_no": "第031-000216号",
      "license_date": null,
      "expire_date": "2026-01-31"
    },
    {
      "name": "相良　岩雄",
      "name_kana": "",
      "business_type": "飲食店営業（その他）",
      "address": "西之表市現和２５６６－１ （鹿児島市を除く県内一円）",
      "lat": 30.718547704,
      "lng": 131.039091273,
      "geocoding_level": 8,
      "phone": "",
      "license_no": "第031-000227号",
      "license_date": null,
      "expire_date": "2026-04-30"
    },
    {
      "name": "井田　由美子",
      "name_kana": "",
      "business_type": "菓子製造業",
      "address": "西之表市西之表７２３７－２",
      "lat": 30.730970000000003,
      "lng": 131.020729,
      "geocoding_level": 3,
      "phone": "",
      "license_no": "第031-000232号",
      "license_date": null,
      "expire_date": "2026-04-30"
    },
    {
      "name": "平川　隆吉",
      "name_kana": "",
      "business_type": "飲食店営業（その他）",
      "address": "西之表市西町３２",
      "lat": 30.733325999999998,
      "lng": 130.994598,
      "geocoding_level": 3,
      "phone": "",
      "license_no": "第032-000017号",
      "license_date": null,
      "expire_date": "2026-04-30"
    },
    {
      "name": "大底　伸一",
      "name_kana": "",
      "business_type": "飲食店営業（仕出し屋・弁当屋）",
      "address": "西之表市西之表１４４４９－１５",
      "lat": 30.730970000000003,
      "lng": 131.020729,
      "geocoding_level": 3,
      "phone": "",
      "license_no": "第032-000019号",
      "license_date": null,
      "expire_date": "2026-04-30"
    },
    {
      "name": "大底　伸一",
      "name_kana": "",
      "business_type": "そうざい製造業",
      "address": "西之表市西之表１４４４９－１５",
      "lat": 30.730970000000003,
      "lng": 131.020729,
      "geocoding_level": 3,
      "phone": "",
      "license_no": "第032-000020号",
      "license_date": null,
      "expire_date": "2026-04-30"
    },
    {
      "name": "種子島漁業協同組合",
      "name_kana": "",
      "business_type": "魚介類販売業",
      "address": "西之表市西之表６９７２－１",
      "lat": 30.730970000000003,
      "lng": 131.020729,
      "geocoding_level": 3,
      "phone": "",
      "license_no": "第032-000022号",
      "license_date": null,
      "expire_date": "2026-04-30"
    },
    {
      "name": "松山　孔夫",
      "name_kana": "",
      "business_type": "食肉販売業",
      "address": "西之表市東町３９",
      "lat": 30.730641,
      "lng": 130.995858,
      "geocoding_level": 3,
      "phone": "",
      "license_no": "第032-000026号",
      "license_date": null,
      "expire_date": "2026-04-30"
    },
    {
      "name": "株式会社　タニヤマ",
      "name_kana": "",
      "business_type": "飲食店営業（一般食堂・ﾚｽﾄﾗﾝ等）",
      "address": "西之表市東町１５３",
      "lat": 30.730641,
      "lng": 130.995858,
      "geocoding_level": 3,
      "phone": "",
      "license_no": "第032-000036号",
      "license_date": null,
      "expire_date": "2026-04-30"
    },
    {
      "name": "木田　充彦",
      "name_kana": "",
      "business_type": "喫茶店営業",
      "address": "西之表市西之表５９８５ （鹿児島市を除く県内一円）",
      "lat": 30.730970000000003,
      "lng": 131.020729,
      "geocoding_level": 3,
      "phone": "",
      "license_no": "第032-000208号",
      "license_date": null,
      "expire_date": "2026-04-30"
    },
    {
      "name": "原田　とみ子",
      "name_kana": "",
      "business_type": "そうざい製造業",
      "address": "西之表市現和８７１８",
      "lat": 30.699186999999995,
      "lng": 131.05278,
      "geocoding_level": 3,
      "phone": "",
      "license_no": "第033-000013号",
      "license_date": null,
      "expire_date": "2026-04-30"
    },
    {
      "name": "株式会社古市商店",
      "name_kana": "",
      "business_type": "魚介類販売業",
      "address": "西之表市西之表１６２７０－２",
      "lat": 30.730970000000003,
      "lng": 131.020729,
      "geocoding_level": 3,
      "phone": "",
      "license_no": "第032-000042号",
      "license_date": null,
      "expire_date": "2026-07-31"
    },
    {
      "name": "特定非営利活動法人ドリームプロジェクト",
      "name_kana": "",
      "business_type": "飲食店営業（仕出し屋・弁当屋）",
      "address": "西之表市古田４５６－３",
      "lat": 30.655605,
      "lng": 131.002872,
      "geocoding_level": 3,
      "phone": "",
      "license_no": "第032-000045号",
      "license_date": null,
      "expire_date": "2026-07-31"
    },
    {
      "name": "特定非営利活動法人ドリームプロジェクト",
      "name_kana": "",
      "business_type": "そうざい製造業",
      "address": "西之表市古田４５６－３",
      "lat": 30.655605,
      "lng": 131.002872,
      "geocoding_level": 3,
      "phone": "",
      "license_no": "第032-000046号",
      "license_date": null,
      "expire_date": "2026-07-31"
    },
    {
      "name": "木原　すずえ",
      "name_kana": "",
      "business_type": "飲食店営業（一般食堂・ﾚｽﾄﾗﾝ等）",
      "address": "西之表市西之表１４４１５－３７",
      "lat": 30.730970000000003,
      "lng": 131.020729,
      "geocoding_level": 3,
      "phone": "",
      "license_no": "第032-000057号",
      "license_date": null,
      "expire_date": "2026-07-31"
    },
    {
      "name": "特定非営利活動法人　きぼう館種子島",
      "name_kana": "",
      "business_type": "菓子製造業",
      "address": "西之表市西之表８７９－１",
      "lat": 30.751527477000003,
      "lng": 131.00830089300004,
      "geocoding_level": 8,
      "phone": "",
      "license_no": "第032-000070号",
      "license_date": null,
      "expire_date": "2026-07-31"
    },
    {
      "name": "花木　三枝子",
      "name_kana": "",
      "business_type": "飲食店営業（旅館）",
      "address": "西之表市現和庄司浦１６６－２",
      "lat": 30.699186999999995,
      "lng": 131.05278,
      "geocoding_level": 3,
      "phone": "",
      "license_no": "第032-000087号",
      "license_date": null,
      "expire_date": "2026-07-31"
    },
    {
      "name": "下水流　　桂子",
      "name_kana": "",
      "business_type": "飲食店営業（旅館）",
      "address": "西之表市住吉１７５１－３",
      "lat": 30.666313000000002,
      "lng": 130.96511400000003,
      "geocoding_level": 3,
      "phone": "",
      "license_no": "第032-000088号",
      "license_date": null,
      "expire_date": "2026-07-31"
    },
    {
      "name": "特定非営利活動法人　こすも",
      "name_kana": "",
      "business_type": "飲食店営業（一般食堂・ﾚｽﾄﾗﾝ等）",
      "address": "西之表市住吉２６０１－８",
      "lat": 30.666313000000002,
      "lng": 130.96511400000003,
      "geocoding_level": 3,
      "phone": "",
      "license_no": "第032-000089号",
      "license_date": null,
      "expire_date": "2026-07-31"
    },
    {
      "name": "特定非営利活動法人　こすも",
      "name_kana": "",
      "business_type": "菓子製造業",
      "address": "西之表市住吉２６０１－８",
      "lat": 30.666313000000002,
      "lng": 130.96511400000003,
      "geocoding_level": 3,
      "phone": "",
      "license_no": "第032-000090号",
      "license_date": null,
      "expire_date": "2026-07-31"
    },
    {
      "name": "阿世知　保子",
      "name_kana": "",
      "business_type": "飲食店営業（その他）",
      "address": "西之表市西町７０８２　大洋ビル１Ｆ",
      "lat": 30.733325999999998,
      "lng": 130.994598,
      "geocoding_level": 3,
      "phone": "",
      "license_no": "第032-000092号",
      "license_date": null,
      "expire_date": "2026-07-31"
    },
    {
      "name": "株式会社　うしじまストアー",
      "name_kana": "",
      "business_type": "飲食店営業（一般食堂・ﾚｽﾄﾗﾝ等）",
      "address": "西之表市天神町３－１２　ショッピングセンターサンシード内１階",
      "lat": 30.727702,
      "lng": 130.995129,
      "geocoding_level": 3,
      "phone": "",
      "license_no": "第032-000096号",
      "license_date": null,
      "expire_date": "2026-07-31"
    },
    {
      "name": "共同フェリー運輸　株式会社",
      "name_kana": "",
      "business_type": "飲食店営業（一般食堂・ﾚｽﾄﾗﾝ等）",
      "address": "西之表市東町１０",
      "lat": 30.730641,
      "lng": 130.995858,
      "geocoding_level": 3,
      "phone": "",
      "license_no": "第032-000097号",
      "license_date": null,
      "expire_date": "2026-07-31"
    },
    {
      "name": "共同フェリー運輸　株式会社",
      "name_kana": "",
      "business_type": "飲食店営業（旅館）",
      "address": "西之表市東町１０",
      "lat": 30.730641,
      "lng": 130.995858,
      "geocoding_level": 3,
      "phone": "",
      "license_no": "第032-000098号",
      "license_date": null,
      "expire_date": "2026-07-31"
    },
    {
      "name": "瀬戸口　一幸",
      "name_kana": "",
      "business_type": "菓子製造業",
      "address": "西之表市現和３３１１－１",
      "lat": 30.711139234,
      "lng": 131.041421163,
      "geocoding_level": 8,
      "phone": "",
      "license_no": "第033-000041号",
      "license_date": null,
      "expire_date": "2026-07-31"
    },
    {
      "name": "濱田　　雅昭",
      "name_kana": "",
      "business_type": "飲食店営業（一般食堂・ﾚｽﾄﾗﾝ等）",
      "address": "西之表市西町１１",
      "lat": 30.733325999999998,
      "lng": 130.994598,
      "geocoding_level": 3,
      "phone": "",
      "license_no": "第033-000043号",
      "license_date": null,
      "expire_date": "2026-07-31"
    },
    {
      "name": "有限会社　浜上ストアー",
      "name_kana": "",
      "business_type": "飲食店営業（その他）",
      "address": "西之表市住吉１０７２",
      "lat": 30.666313000000002,
      "lng": 130.96511400000003,
      "geocoding_level": 3,
      "phone": "",
      "license_no": "第032-000065号",
      "license_date": null,
      "expire_date": "2026-07-31"
    },
    {
      "name": "有限会社　浜上ストアー",
      "name_kana": "",
      "business_type": "魚介類販売業",
      "address": "西之表市住吉１０７２",
      "lat": 30.666313000000002,
      "lng": 130.96511400000003,
      "geocoding_level": 3,
      "phone": "",
      "license_no": "第032-000068号",
      "license_date": null,
      "expire_date": "2026-07-31"
    },
    {
      "name": "高崎酒造株式会社",
      "name_kana": "",
      "business_type": "酒類製造業",
      "address": "西之表市安納字苗代岡１８６１－２",
      "lat": 30.742812999999998,
      "lng": 131.060012,
      "geocoding_level": 3,
      "phone": "",
      "license_no": "第033-000048号",
      "license_date": null,
      "expire_date": "2026-07-31"
    },
    {
      "name": "株式会社あんのう",
      "name_kana": "",
      "business_type": "食品の冷凍又は冷蔵業",
      "address": "西之表市安納２００",
      "lat": 30.742812999999998,
      "lng": 131.060012,
      "geocoding_level": 3,
      "phone": "",
      "license_no": "第032-000112号",
      "license_date": null,
      "expire_date": "2026-10-31"
    },
    {
      "name": "羽嶋　ちよみ",
      "name_kana": "",
      "business_type": "飲食店営業（その他）",
      "address": "西之表市西町７０８２",
      "lat": 30.733325999999998,
      "lng": 130.994598,
      "geocoding_level": 3,
      "phone": "",
      "license_no": "第032-000114号",
      "license_date": null,
      "expire_date": "2026-10-31"
    },
    {
      "name": "小川　弘美",
      "name_kana": "",
      "business_type": "魚介類販売業",
      "address": "西之表市鴨女町１０３ （鹿児島市を除く県内一円）",
      "lat": 30.724897,
      "lng": 130.994892,
      "geocoding_level": 3,
      "phone": "",
      "license_no": "第032-000126号",
      "license_date": null,
      "expire_date": "2026-10-31"
    },
    {
      "name": "中村　　文雄",
      "name_kana": "",
      "business_type": "魚介類販売業",
      "address": "西之表市鴨女町１１５",
      "lat": 30.724897,
      "lng": 130.994892,
      "geocoding_level": 3,
      "phone": "",
      "license_no": "第032-000127号",
      "license_date": null,
      "expire_date": "2026-10-31"
    },
    {
      "name": "木ノ下　　憲一郎",
      "name_kana": "",
      "business_type": "飲食店営業（一般食堂・ﾚｽﾄﾗﾝ等）",
      "address": "西之表市鴨女町２１７－５",
      "lat": 30.724897,
      "lng": 130.994892,
      "geocoding_level": 3,
      "phone": "",
      "license_no": "第032-000128号",
      "license_date": null,
      "expire_date": "2026-10-31"
    },
    {
      "name": "有限会社　　味処井元",
      "name_kana": "",
      "business_type": "魚介類販売業",
      "address": "西之表市西町１８０番地",
      "lat": 30.733325999999998,
      "lng": 130.994598,
      "geocoding_level": 3,
      "phone": "",
      "license_no": "第032-000129号",
      "license_date": null,
      "expire_date": "2026-10-31"
    },
    {
      "name": "名越　　洋子",
      "name_kana": "",
      "business_type": "飲食店営業（その他）",
      "address": "西之表市西町３２",
      "lat": 30.733325999999998,
      "lng": 130.994598,
      "geocoding_level": 3,
      "phone": "",
      "license_no": "第032-000131号",
      "license_date": null,
      "expire_date": "2026-10-31"
    },
    {
      "name": "種子島石油株式会社",
      "name_kana": "",
      "business_type": "飲食店営業（仕出し屋・弁当屋）",
      "address": "西之表市西町７０６８－２",
      "lat": 30.733325999999998,
      "lng": 130.994598,
      "geocoding_level": 3,
      "phone": "",
      "license_no": "第032-000132号",
      "license_date": null,
      "expire_date": "2026-10-31"
    },
    {
      "name": "鮫島　隆保",
      "name_kana": "",
      "business_type": "飲食店営業（一般食堂・ﾚｽﾄﾗﾝ等）",
      "address": "西之表市西之表９５８２－２０",
      "lat": 30.730970000000003,
      "lng": 131.020729,
      "geocoding_level": 3,
      "phone": "",
      "license_no": "第032-000134号",
      "license_date": null,
      "expire_date": "2026-10-31"
    },
    {
      "name": "牛嶋　寛人",
      "name_kana": "",
      "business_type": "飲食店営業（一般食堂・ﾚｽﾄﾗﾝ等）",
      "address": "西之表市東町２４－６",
      "lat": 30.730641,
      "lng": 130.995858,
      "geocoding_level": 3,
      "phone": "",
      "license_no": "第032-000138号",
      "license_date": null,
      "expire_date": "2026-10-31"
    },
    {
      "name": "特定非営利活動法人　こすも",
      "name_kana": "",
      "business_type": "飲食店営業（その他）",
      "address": "西之表市住吉２６０１－８ （鹿児島市を除く県内一円）",
      "lat": 30.666313000000002,
      "lng": 130.96511400000003,
      "geocoding_level": 3,
      "phone": "",
      "license_no": "第032-000143号",
      "license_date": null,
      "expire_date": "2026-10-31"
    },
    {
      "name": "こうのみね合同会社",
      "name_kana": "",
      "business_type": "菓子製造業",
      "address": "西之表市鴨女町１７３",
      "lat": 30.724897,
      "lng": 130.994892,
      "geocoding_level": 3,
      "phone": "",
      "license_no": "第032-000147号",
      "license_date": null,
      "expire_date": "2026-10-31"
    },
    {
      "name": "日笠山　昭代",
      "name_kana": "",
      "business_type": "食用油脂製造業",
      "address": "西之表市古田１１０１",
      "lat": 30.655605,
      "lng": 131.002872,
      "geocoding_level": 3,
      "phone": "",
      "license_no": "第033-000065号",
      "license_date": null,
      "expire_date": "2026-10-31"
    },
    {
      "name": "株式会社　ｓｔｕｄｉｏ　ＫＡＮＲＯ",
      "name_kana": "",
      "business_type": "飲食店営業（一般食堂・ﾚｽﾄﾗﾝ等）",
      "address": "西之表市鴨女町１４４１５－１０",
      "lat": 30.724897,
      "lng": 130.994892,
      "geocoding_level": 3,
      "phone": "",
      "license_no": "第033-000066号",
      "license_date": null,
      "expire_date": "2026-10-31"
    },
    {
      "name": "株式会社　ｓｔｕｄｉｏ　ＫＡＮＲＯ",
      "name_kana": "",
      "business_type": "菓子製造業",
      "address": "西之表市鴨女町１４４１５－１０",
      "lat": 30.724897,
      "lng": 130.994892,
      "geocoding_level": 3,
      "phone": "",
      "license_no": "第033-000067号",
      "license_date": null,
      "expire_date": "2026-10-31"
    },
    {
      "name": "有島　智治",
      "name_kana": "",
      "business_type": "飲食店営業（一般食堂・ﾚｽﾄﾗﾝ等）",
      "address": "西之表市古田１４７２",
      "lat": 30.655605,
      "lng": 131.002872,
      "geocoding_level": 3,
      "phone": "",
      "license_no": "第033-000082号",
      "license_date": null,
      "expire_date": "2026-10-31"
    },
    {
      "name": "鮫島　秀人",
      "name_kana": "",
      "business_type": "飲食店営業（一般食堂・ﾚｽﾄﾗﾝ等）",
      "address": "西之表市西町３６",
      "lat": 30.733325999999998,
      "lng": 130.994598,
      "geocoding_level": 3,
      "phone": "",
      "license_no": "第033-000085号",
      "license_date": null,
      "expire_date": "2026-10-31"
    },
    {
      "name": "平原　正三郎",
      "name_kana": "",
      "business_type": "冷凍食品製造業",
      "address": "西之表市西之表１０６７５－６",
      "lat": 30.730970000000003,
      "lng": 131.020729,
      "geocoding_level": 3,
      "phone": "",
      "license_no": "第033-000086号",
      "license_date": null,
      "expire_date": "2026-10-31"
    },
    {
      "name": "春田　勝弘",
      "name_kana": "",
      "business_type": "魚介類販売業",
      "address": "西之表市西之表１５１３６",
      "lat": 30.730970000000003,
      "lng": 131.020729,
      "geocoding_level": 3,
      "phone": "",
      "license_no": "第033-000087号",
      "license_date": null,
      "expire_date": "2026-10-31"
    },
    {
      "name": "橋川　恭二",
      "name_kana": "",
      "business_type": "飲食店営業（その他）",
      "address": "西之表市西之表７５１０－４１ （鹿児島市を除く県内一円）",
      "lat": 30.730970000000003,
      "lng": 131.020729,
      "geocoding_level": 3,
      "phone": "",
      "license_no": "第033-000088号",
      "license_date": null,
      "expire_date": "2026-10-31"
    },
    {
      "name": "株式会社　アクティブ",
      "name_kana": "",
      "business_type": "飲食店営業（一般食堂・ﾚｽﾄﾗﾝ等）",
      "address": "西之表市安城１４０－２",
      "lat": 30.662773338999997,
      "lng": 131.052377438,
      "geocoding_level": 8,
      "phone": "",
      "license_no": "第033-000057号",
      "license_date": null,
      "expire_date": "2027-07-31"
    },
    {
      "name": "川東　正利",
      "name_kana": "",
      "business_type": "魚介類販売業",
      "address": "西之表市西之表６９７２－１",
      "lat": 30.730970000000003,
      "lng": 131.020729,
      "geocoding_level": 3,
      "phone": "",
      "license_no": "第032-000151号",
      "license_date": null,
      "expire_date": "2027-01-31"
    },
    {
      "name": "古田　透",
      "name_kana": "",
      "business_type": "飲食店営業（その他）",
      "address": "西之表市東町１－１１",
      "lat": 30.730641,
      "lng": 130.995858,
      "geocoding_level": 3,
      "phone": "",
      "license_no": "第032-000165号",
      "license_date": null,
      "expire_date": "2027-01-31"
    },
    {
      "name": "合名会社　荒木旅館",
      "name_kana": "",
      "business_type": "飲食店営業（一般食堂・ﾚｽﾄﾗﾝ等）",
      "address": "西之表市西町７８",
      "lat": 30.733325999999998,
      "lng": 130.994598,
      "geocoding_level": 3,
      "phone": "",
      "license_no": "第032-000181号",
      "license_date": null,
      "expire_date": "2027-01-31"
    },
    {
      "name": "合名会社　荒木旅館",
      "name_kana": "",
      "business_type": "飲食店営業（旅館）",
      "address": "西之表市西町７８",
      "lat": 30.733325999999998,
      "lng": 130.994598,
      "geocoding_level": 3,
      "phone": "",
      "license_no": "第032-000182号",
      "license_date": null,
      "expire_date": "2027-01-31"
    },
    {
      "name": "瀬下　　直孝",
      "name_kana": "",
      "business_type": "飲食店営業（一般食堂・ﾚｽﾄﾗﾝ等）",
      "address": "西之表市西之表１５２７２",
      "lat": 30.730970000000003,
      "lng": 131.020729,
      "geocoding_level": 3,
      "phone": "",
      "license_no": "第032-000183号",
      "license_date": null,
      "expire_date": "2027-01-31"
    },
    {
      "name": "若水　太司",
      "name_kana": "",
      "business_type": "菓子製造業",
      "address": "西之表市西之表７４８８－４",
      "lat": 30.730970000000003,
      "lng": 131.020729,
      "geocoding_level": 3,
      "phone": "",
      "license_no": "第032-000185号",
      "license_date": null,
      "expire_date": "2027-01-31"
    },
    {
      "name": "長野　　好子",
      "name_kana": "",
      "business_type": "飲食店営業（一般食堂・ﾚｽﾄﾗﾝ等）",
      "address": "西之表市西之表上石寺１６５７６－９",
      "lat": 30.730970000000003,
      "lng": 131.020729,
      "geocoding_level": 3,
      "phone": "",
      "license_no": "第032-000186号",
      "license_date": null,
      "expire_date": "2027-01-31"
    },
    {
      "name": "西野　孝嗣",
      "name_kana": "",
      "business_type": "冷凍食品製造業",
      "address": "西之表市安納２３１",
      "lat": 30.742812999999998,
      "lng": 131.060012,
      "geocoding_level": 3,
      "phone": "",
      "license_no": "第033-000103号",
      "license_date": null,
      "expire_date": "2027-01-31"
    },
    {
      "name": "平田　樹里",
      "name_kana": "",
      "business_type": "菓子製造業",
      "address": "西之表市西之表１０９３５－３",
      "lat": 30.730970000000003,
      "lng": 131.020729,
      "geocoding_level": 3,
      "phone": "",
      "license_no": "第033-000106号",
      "license_date": null,
      "expire_date": "2027-01-31"
    },
    {
      "name": "山下　凉子",
      "name_kana": "",
      "business_type": "飲食店営業（仕出し屋・弁当屋）",
      "address": "西之表市古田１１７４－１",
      "lat": 30.658606799,
      "lng": 131.003450184,
      "geocoding_level": 8,
      "phone": "",
      "license_no": "第033-000127号",
      "license_date": null,
      "expire_date": "2027-01-31"
    },
    {
      "name": "栗﨑　勝喜",
      "name_kana": "",
      "business_type": "飲食店営業（その他）",
      "address": "西之表市古田４５６－３ （鹿児島市を除く県内一円）",
      "lat": 30.655605,
      "lng": 131.002872,
      "geocoding_level": 3,
      "phone": "",
      "license_no": "第033-000128号",
      "license_date": null,
      "expire_date": "2027-01-31"
    },
    {
      "name": "山下　　修",
      "name_kana": "",
      "business_type": "水産製品製造業",
      "address": "西之表市住吉中之町４７８３",
      "lat": 30.666313000000002,
      "lng": 130.96511400000003,
      "geocoding_level": 3,
      "phone": "",
      "license_no": "第033-000129号",
      "license_date": null,
      "expire_date": "2027-01-31"
    },
    {
      "name": "川﨑　陽子",
      "name_kana": "",
      "business_type": "飲食店営業（その他）",
      "address": "西之表市西之表９５７６－１",
      "lat": 30.730970000000003,
      "lng": 131.020729,
      "geocoding_level": 3,
      "phone": "",
      "license_no": "第033-000131号",
      "license_date": null,
      "expire_date": "2027-01-31"
    },
    {
      "name": "鎌田　宗信",
      "name_kana": "",
      "business_type": "飲食店営業（一般食堂・ﾚｽﾄﾗﾝ等）",
      "address": "西之表市東町２１",
      "lat": 30.730641,
      "lng": 130.995858,
      "geocoding_level": 3,
      "phone": "",
      "license_no": "第033-000135号",
      "license_date": null,
      "expire_date": "2027-01-31"
    },
    {
      "name": "株式会社REIMEI",
      "name_kana": "",
      "business_type": "菓子製造業",
      "address": "西之表市西之表字藺牟田８９１３－１",
      "lat": 30.730970000000003,
      "lng": 131.020729,
      "geocoding_level": 3,
      "phone": "",
      "license_no": "第032-000201号",
      "license_date": null,
      "expire_date": "2027-04-30"
    },
    {
      "name": "仁ﾈ豊　知子",
      "name_kana": "",
      "business_type": "飲食店営業（旅館）",
      "address": "西之表市西町７１０５",
      "lat": 30.733325999999998,
      "lng": 130.994598,
      "geocoding_level": 3,
      "phone": "",
      "license_no": "第033-000001号",
      "license_date": null,
      "expire_date": "2027-04-30"
    },
    {
      "name": "仁ﾈ豊　知子",
      "name_kana": "",
      "business_type": "菓子製造業",
      "address": "西之表市西町７１０５",
      "lat": 30.733325999999998,
      "lng": 130.994598,
      "geocoding_level": 3,
      "phone": "",
      "license_no": "第033-000002号",
      "license_date": null,
      "expire_date": "2027-04-30"
    },
    {
      "name": "川鍋　さやか",
      "name_kana": "",
      "business_type": "飲食店営業（一般食堂・ﾚｽﾄﾗﾝ等）",
      "address": "西之表市鴨女町１３２",
      "lat": 30.724897,
      "lng": 130.994892,
      "geocoding_level": 3,
      "phone": "",
      "license_no": "第033-000004号",
      "license_date": null,
      "expire_date": "2027-04-30"
    },
    {
      "name": "株式会社　LEOC",
      "name_kana": "",
      "business_type": "飲食店営業（一般食堂・ﾚｽﾄﾗﾝ等）",
      "address": "西之表市西之表２９８１－１",
      "lat": 30.737525592,
      "lng": 131.025957581,
      "geocoding_level": 8,
      "phone": "",
      "license_no": "第033-000020号",
      "license_date": null,
      "expire_date": "2027-07-31"
    },
    {
      "name": "株式会社　LEOC",
      "name_kana": "",
      "business_type": "飲食店営業（一般食堂・ﾚｽﾄﾗﾝ等）",
      "address": "西之表市西之表１６３４７",
      "lat": 30.730970000000003,
      "lng": 131.020729,
      "geocoding_level": 3,
      "phone": "",
      "license_no": "第033-000021号",
      "license_date": null,
      "expire_date": "2027-07-31"
    },
    {
      "name": "石沢　千春",
      "name_kana": "",
      "business_type": "飲食店営業（その他）",
      "address": "西之表市住吉４７９２－７",
      "lat": 30.666313000000002,
      "lng": 130.96511400000003,
      "geocoding_level": 3,
      "phone": "",
      "license_no": "第033-000042号",
      "license_date": null,
      "expire_date": "2027-07-31"
    },
    {
      "name": "大山　哲司",
      "name_kana": "",
      "business_type": "飲食店営業（一般食堂・ﾚｽﾄﾗﾝ等）",
      "address": "西之表市西之表７３２６－３",
      "lat": 30.730970000000003,
      "lng": 131.020729,
      "geocoding_level": 3,
      "phone": "",
      "license_no": "第033-000047号",
      "license_date": null,
      "expire_date": "2027-07-31"
    },
    {
      "name": "有限会社味処井元",
      "name_kana": "",
      "business_type": "飲食店営業（一般食堂・ﾚｽﾄﾗﾝ等）",
      "address": "西之表市西町１８９－１",
      "lat": 30.733325999999998,
      "lng": 130.994598,
      "geocoding_level": 3,
      "phone": "",
      "license_no": "第033-000083号",
      "license_date": null,
      "expire_date": "2027-10-31"
    },
    {
      "name": "池島　勇",
      "name_kana": "",
      "business_type": "魚介類販売業",
      "address": "西之表市池田１",
      "lat": 30.730174000000005,
      "lng": 130.994851,
      "geocoding_level": 3,
      "phone": "",
      "license_no": "第033-000089号",
      "license_date": null,
      "expire_date": "2027-10-31"
    },
    {
      "name": "原川　抑",
      "name_kana": "",
      "business_type": "水産製品製造業",
      "address": "西之表市住吉３４８９－１",
      "lat": 30.666313000000002,
      "lng": 130.96511400000003,
      "geocoding_level": 3,
      "phone": "",
      "license_no": "第033-000091号",
      "license_date": null,
      "expire_date": "2027-10-31"
    },
    {
      "name": "新　由架里",
      "name_kana": "",
      "business_type": "飲食店営業（その他）",
      "address": "西之表市西町７０７２－１",
      "lat": 30.733325999999998,
      "lng": 130.994598,
      "geocoding_level": 3,
      "phone": "",
      "license_no": "第033-000107号",
      "license_date": null,
      "expire_date": "2028-01-31"
    },
    {
      "name": "五十川　いこ代",
      "name_kana": "",
      "business_type": "飲食店営業（一般食堂・ﾚｽﾄﾗﾝ等）",
      "address": "西之表市安城３５１７－９３",
      "lat": 30.614052676,
      "lng": 130.988409304,
      "geocoding_level": 8,
      "phone": "",
      "license_no": "第033-000124号",
      "license_date": null,
      "expire_date": "2028-01-31"
    },
    {
      "name": "特定非営利活動法人　こすも",
      "name_kana": "",
      "business_type": "菓子製造業",
      "address": "西之表市安城３６８０－３５０",
      "lat": 30.631215000000005,
      "lng": 131.034985,
      "geocoding_level": 3,
      "phone": "",
      "license_no": "第033-000125号",
      "license_date": null,
      "expire_date": "2028-01-31"
    },
    {
      "name": "特定非営利活動法人　こすも",
      "name_kana": "",
      "business_type": "そうざい製造業",
      "address": "西之表市安城３６８０－３５０",
      "lat": 30.631215000000005,
      "lng": 131.034985,
      "geocoding_level": 3,
      "phone": "",
      "license_no": "第033-000126号",
      "license_date": null,
      "expire_date": "2028-01-31"
    },
    {
      "name": "寺田　裕之",
      "name_kana": "",
      "business_type": "飲食店営業（旅館）",
      "address": "西之表市西之表１６２３０－２９",
      "lat": 30.730970000000003,
      "lng": 131.020729,
      "geocoding_level": 3,
      "phone": "",
      "license_no": "第033-000130号",
      "license_date": null,
      "expire_date": "2028-01-31"
    },
    {
      "name": "株式会社　恵那川上屋",
      "name_kana": "",
      "business_type": "冷凍食品製造業",
      "address": "西之表市西之表字中野宇都１８７８－９",
      "lat": 30.730970000000003,
      "lng": 131.020729,
      "geocoding_level": 3,
      "phone": "",
      "license_no": "第033-000132号",
      "license_date": null,
      "expire_date": "2028-01-31"
    },
    {
      "name": "林　茂雄",
      "name_kana": "",
      "business_type": "飲食店営業（一般食堂・ﾚｽﾄﾗﾝ等）",
      "address": "西之表市天神町５－４",
      "lat": 30.727702,
      "lng": 130.995129,
      "geocoding_level": 3,
      "phone": "",
      "license_no": "第033-000133号",
      "license_date": null,
      "expire_date": "2028-01-31"
    },
    {
      "name": "小倉　春美",
      "name_kana": "",
      "business_type": "そうざい製造業",
      "address": "西之表市東町４５",
      "lat": 30.730641,
      "lng": 130.995858,
      "geocoding_level": 3,
      "phone": "",
      "license_no": "第033-000137号",
      "license_date": null,
      "expire_date": "2028-01-31"
    },
    {
      "name": "ＴＣＡグループ株式会社",
      "name_kana": "",
      "business_type": "飲食店営業（一般食堂・ﾚｽﾄﾗﾝ等）",
      "address": "西之表市東町９４",
      "lat": 30.730641,
      "lng": 130.995858,
      "geocoding_level": 3,
      "phone": "",
      "license_no": "第033-000138号",
      "license_date": null,
      "expire_date": "2028-01-31"
    },
    {
      "name": "長倉　義秋",
      "name_kana": "",
      "business_type": "魚介類販売業",
      "address": "西之表市国上２０１１－６",
      "lat": 30.804713576,
      "lng": 131.040427327,
      "geocoding_level": 8,
      "phone": "",
      "license_no": "第033-000141号",
      "license_date": null,
      "expire_date": "2028-04-30"
    },
    {
      "name": "松﨑　久志",
      "name_kana": "",
      "business_type": "飲食店営業（一般食堂・ﾚｽﾄﾗﾝ等）",
      "address": "西之表市西之表９９０８　天神ハイツ１F",
      "lat": 30.730970000000003,
      "lng": 131.020729,
      "geocoding_level": 3,
      "phone": "",
      "license_no": "第033-000142号",
      "license_date": null,
      "expire_date": "2028-04-30"
    },
    {
      "name": "株式会社ゼウスプランニング",
      "name_kana": "",
      "business_type": "飲食店営業（一般食堂・ﾚｽﾄﾗﾝ等）",
      "address": "西之表市現和8724-31",
      "lat": 30.699186999999995,
      "lng": 131.05278,
      "geocoding_level": 3,
      "phone": "",
      "license_no": "第033-000143号",
      "license_date": null,
      "expire_date": "2028-04-30"
    },
    {
      "name": "株式会社ゼウスプランニング",
      "name_kana": "",
      "business_type": "飲食店営業（旅館）",
      "address": "西之表市現和8724-31",
      "lat": 30.699186999999995,
      "lng": 131.05278,
      "geocoding_level": 3,
      "phone": "",
      "license_no": "第033-000144号",
      "license_date": null,
      "expire_date": "2028-04-30"
    },
    {
      "name": "種子島酒造株式会社",
      "name_kana": "",
      "business_type": "酒類製造業",
      "address": "西之表市西之表１３５８９－３",
      "lat": 30.697681908,
      "lng": 131.014381696,
      "geocoding_level": 8,
      "phone": "",
      "license_no": "第034-000152号",
      "license_date": null,
      "expire_date": "2028-01-31"
    },
    {
      "name": "種子島漁業協同組合",
      "name_kana": "",
      "business_type": "魚肉練り製品製造業",
      "address": "西之表市西之表６９７２－１",
      "lat": 30.730970000000003,
      "lng": 131.020729,
      "geocoding_level": 3,
      "phone": "",
      "license_no": "第032-000023号",
      "license_date": null,
      "expire_date": "2026-04-30"
    },
    {
      "name": "株式会社古市商店",
      "name_kana": "",
      "business_type": "魚肉練り製品製造業",
      "address": "西之表市西之表１６２７０－２",
      "lat": 30.730970000000003,
      "lng": 131.020729,
      "geocoding_level": 3,
      "phone": "",
      "license_no": "第032-000041号",
      "license_date": null,
      "expire_date": "2026-07-31"
    },
    {
      "name": "有限会社マキオ",
      "name_kana": "",
      "business_type": "飲食店営業（一般食堂・ﾚｽﾄﾗﾝ等）",
      "address": "西之表市西之表１４７１６－１６",
      "lat": 30.713655361,
      "lng": 130.997195856,
      "geocoding_level": 8,
      "phone": "",
      "license_no": "第034-000168号",
      "license_date": null,
      "expire_date": "2029-04-30"
    },
    {
      "name": "株式会社Ｔ・Ｍ１０６",
      "name_kana": "",
      "business_type": "飲食店営業（一般食堂・ﾚｽﾄﾗﾝ等）",
      "address": "西之表市鴨女町２１７－３",
      "lat": 30.724897,
      "lng": 130.994892,
      "geocoding_level": 3,
      "phone": "",
      "license_no": "第034-000169号",
      "license_date": null,
      "expire_date": "2029-04-30"
    },
    {
      "name": "中野　一哉",
      "name_kana": "",
      "business_type": "豆腐製造業",
      "address": "西之表市国上２４６７",
      "lat": 30.804640999999997,
      "lng": 131.047552,
      "geocoding_level": 3,
      "phone": "",
      "license_no": "第035-000013号",
      "license_date": null,
      "expire_date": "2028-04-30"
    },
    {
      "name": "松本　浩次",
      "name_kana": "",
      "business_type": "飲食店営業（仕出し屋・弁当屋）",
      "address": "西之表市住吉３４８９－１",
      "lat": 30.666313000000002,
      "lng": 130.96511400000003,
      "geocoding_level": 3,
      "phone": "",
      "license_no": "第035-000014号",
      "license_date": null,
      "expire_date": "2029-04-30"
    },
    {
      "name": "有限会社　ブンカドウ",
      "name_kana": "",
      "business_type": "飲食店営業（その他）",
      "address": "西之表市西町４９－１",
      "lat": 30.733325999999998,
      "lng": 130.994598,
      "geocoding_level": 3,
      "phone": "",
      "license_no": "第035-000015号",
      "license_date": null,
      "expire_date": "2029-04-30"
    },
    {
      "name": "有限会社　りんかけ堂",
      "name_kana": "",
      "business_type": "菓子製造業",
      "address": "西之表市西之表１４０７４－１",
      "lat": 30.715859901,
      "lng": 131.003636609,
      "geocoding_level": 8,
      "phone": "",
      "license_no": "第035-000017号",
      "license_date": null,
      "expire_date": "2028-04-30"
    },
    {
      "name": "有限会社　りんかけ堂",
      "name_kana": "",
      "business_type": "そうざい製造業",
      "address": "西之表市西之表１４０７４－１",
      "lat": 30.715859901,
      "lng": 131.003636609,
      "geocoding_level": 8,
      "phone": "",
      "license_no": "第035-000018号",
      "license_date": null,
      "expire_date": "2028-04-30"
    },
    {
      "name": "長野　恵美子",
      "name_kana": "",
      "business_type": "飲食店営業（旅館）",
      "address": "西之表市西之表１６９３２－１４",
      "lat": 30.709738442,
      "lng": 130.97782236,
      "geocoding_level": 8,
      "phone": "",
      "license_no": "第035-000019号",
      "license_date": null,
      "expire_date": "2029-04-30"
    },
    {
      "name": "日髙　薫",
      "name_kana": "",
      "business_type": "飲食店営業（旅館）",
      "address": "西之表市西之表７４５６－３",
      "lat": 30.730970000000003,
      "lng": 131.020729,
      "geocoding_level": 3,
      "phone": "",
      "license_no": "第035-000020号",
      "license_date": null,
      "expire_date": "2029-04-30"
    },
    {
      "name": "名越　智子",
      "name_kana": "",
      "business_type": "菓子製造業",
      "address": "西之表市西之表９７５８－８",
      "lat": 30.730970000000003,
      "lng": 131.020729,
      "geocoding_level": 3,
      "phone": "",
      "license_no": "第035-000021号",
      "license_date": null,
      "expire_date": "2029-04-30"
    },
    {
      "name": "名越　智子",
      "name_kana": "",
      "business_type": "そうざい製造業",
      "address": "西之表市西之表９７５８－８",
      "lat": 30.730970000000003,
      "lng": 131.020729,
      "geocoding_level": 3,
      "phone": "",
      "license_no": "第035-000022号",
      "license_date": null,
      "expire_date": "2029-04-30"
    },
    {
      "name": "株式会社　うしじまストアー",
      "name_kana": "",
      "business_type": "飲食店営業（その他）",
      "address": "西之表市天神町３－１２",
      "lat": 30.727702,
      "lng": 130.995129,
      "geocoding_level": 3,
      "phone": "",
      "license_no": "第035-000023号",
      "license_date": null,
      "expire_date": "2029-04-30"
    },
    {
      "name": "久米　由美",
      "name_kana": "",
      "business_type": "菓子製造業",
      "address": "西之表市安城１４０－２",
      "lat": 30.662773338999997,
      "lng": 131.052377438,
      "geocoding_level": 8,
      "phone": "",
      "license_no": "第035-000025号",
      "license_date": null,
      "expire_date": "2029-04-30"
    },
    {
      "name": "荒木　みゆき",
      "name_kana": "",
      "business_type": "飲食店営業（その他）",
      "address": "西之表市東町１１０",
      "lat": 30.730641,
      "lng": 130.995858,
      "geocoding_level": 3,
      "phone": "",
      "license_no": "第035-000026号",
      "license_date": null,
      "expire_date": "2029-04-30"
    },
    {
      "name": "山口　学",
      "name_kana": "",
      "business_type": "そうざい製造業",
      "address": "西之表市西之表１６５８２",
      "lat": 30.730970000000003,
      "lng": 131.020729,
      "geocoding_level": 3,
      "phone": "",
      "license_no": "第035-000032号",
      "license_date": null,
      "expire_date": "2029-07-31"
    },
    {
      "name": "特定非営利活動法人　こすも",
      "name_kana": "",
      "business_type": "食肉販売業",
      "address": "西之表市住吉２６０１－８",
      "lat": 30.666313000000002,
      "lng": 130.96511400000003,
      "geocoding_level": 3,
      "phone": "",
      "license_no": "第035-000033号",
      "license_date": null,
      "expire_date": "2029-07-31"
    },
    {
      "name": "特定非営利活動法人　こすも",
      "name_kana": "",
      "business_type": "魚介類販売業",
      "address": "西之表市住吉２６０１－８",
      "lat": 30.666313000000002,
      "lng": 130.96511400000003,
      "geocoding_level": 3,
      "phone": "",
      "license_no": "第035-000034号",
      "license_date": null,
      "expire_date": "2029-07-31"
    },
    {
      "name": "日清医療食品株式会社",
      "name_kana": "",
      "business_type": "飲食店営業（一般食堂・ﾚｽﾄﾗﾝ等）",
      "address": "西之表市住吉３３６３－２",
      "lat": 30.666313000000002,
      "lng": 130.96511400000003,
      "geocoding_level": 3,
      "phone": "",
      "license_no": "第032-000199号",
      "license_date": null,
      "expire_date": "2027-04-30"
    },
    {
      "name": "エス・フードサービス有限会社",
      "name_kana": "",
      "business_type": "飲食店営業（一般食堂・ﾚｽﾄﾗﾝ等）",
      "address": "西之表市馬毛島",
      "lat": 30.745374000000005,
      "lng": 130.854491,
      "geocoding_level": 3,
      "phone": "",
      "license_no": "第035-000035号",
      "license_date": null,
      "expire_date": "2029-07-31"
    },
    {
      "name": "種子島漁業協同組合",
      "name_kana": "",
      "business_type": "氷雪製造業",
      "address": "西之表市西之表６９７２－１",
      "lat": 30.730970000000003,
      "lng": 131.020729,
      "geocoding_level": 3,
      "phone": "",
      "license_no": "第035-000037号",
      "license_date": null,
      "expire_date": "2029-07-31"
    },
    {
      "name": "安藤　千晶",
      "name_kana": "",
      "business_type": "飲食店営業（その他）",
      "address": "西之表市西之表９９１６－３",
      "lat": 30.730970000000003,
      "lng": 131.020729,
      "geocoding_level": 3,
      "phone": "",
      "license_no": "第035-000042号",
      "license_date": null,
      "expire_date": "2029-07-31"
    },
    {
      "name": "冨永　泉",
      "name_kana": "",
      "business_type": "飲食店営業（その他）",
      "address": "西之表市住吉１２７７ （鹿児島市を除く県内一円）",
      "lat": 30.688521864,
      "lng": 130.958151506,
      "geocoding_level": 8,
      "phone": "",
      "license_no": "第035-000043号",
      "license_date": null,
      "expire_date": "2029-07-31"
    },
    {
      "name": "林﨑　協子",
      "name_kana": "",
      "business_type": "菓子製造業",
      "address": "西之表市安城１４０－２",
      "lat": 30.662773338999997,
      "lng": 131.052377438,
      "geocoding_level": 8,
      "phone": "",
      "license_no": "第035-000044号",
      "license_date": null,
      "expire_date": "2029-07-31"
    },
    {
      "name": "種子島漁業協同組合",
      "name_kana": "",
      "business_type": "魚介類競り売り営業",
      "address": "西之表市西町１９２",
      "lat": 30.733325999999998,
      "lng": 130.994598,
      "geocoding_level": 3,
      "phone": "",
      "license_no": "第035-000055号",
      "license_date": null,
      "expire_date": "2029-07-31"
    },
    {
      "name": "川﨑　俊幸",
      "name_kana": "",
      "business_type": "飲食店営業（一般食堂・ﾚｽﾄﾗﾝ等）",
      "address": "西之表市西町３６　酒井ビル２Ｆ",
      "lat": 30.733325999999998,
      "lng": 130.994598,
      "geocoding_level": 3,
      "phone": "",
      "license_no": "第035-000056号",
      "license_date": null,
      "expire_date": "2029-07-31"
    },
    {
      "name": "砂坂　やす子",
      "name_kana": "",
      "business_type": "飲食店営業（その他）",
      "address": "西之表市西町７０８２",
      "lat": 30.733325999999998,
      "lng": 130.994598,
      "geocoding_level": 3,
      "phone": "",
      "license_no": "第035-000057号",
      "license_date": null,
      "expire_date": "2028-07-31"
    },
    {
      "name": "中野　安雄",
      "name_kana": "",
      "business_type": "飲食店営業（一般食堂・ﾚｽﾄﾗﾝ等）",
      "address": "西之表市西之表１２８８４－１",
      "lat": 30.684879291,
      "lng": 131.013276476,
      "geocoding_level": 8,
      "phone": "",
      "license_no": "第035-000058号",
      "license_date": null,
      "expire_date": "2029-07-31"
    },
    {
      "name": "山田　次吉",
      "name_kana": "",
      "business_type": "食肉販売業",
      "address": "西之表市西之表１４４１５－３１",
      "lat": 30.730970000000003,
      "lng": 131.020729,
      "geocoding_level": 3,
      "phone": "",
      "license_no": "第035-000059号",
      "license_date": null,
      "expire_date": "2029-07-31"
    },
    {
      "name": "公納　博幸",
      "name_kana": "",
      "business_type": "飲食店営業（一般食堂・ﾚｽﾄﾗﾝ等）",
      "address": "西之表市西之表７５８６－１",
      "lat": 30.730970000000003,
      "lng": 131.020729,
      "geocoding_level": 3,
      "phone": "",
      "license_no": "第035-000060号",
      "license_date": null,
      "expire_date": "2029-07-31"
    },
    {
      "name": "公納　博幸",
      "name_kana": "",
      "business_type": "菓子製造業",
      "address": "西之表市西之表７５８６－１",
      "lat": 30.730970000000003,
      "lng": 131.020729,
      "geocoding_level": 3,
      "phone": "",
      "license_no": "第035-000061号",
      "license_date": null,
      "expire_date": "2029-07-31"
    },
    {
      "name": "Seed Village 株式会社",
      "name_kana": "",
      "business_type": "飲食店営業（その他）",
      "address": "西之表市住吉３１０－７　能野海水浴場内",
      "lat": 30.692403617,
      "lng": 130.963075411,
      "geocoding_level": 8,
      "phone": "",
      "license_no": "第035-000072号",
      "license_date": null,
      "expire_date": "2029-10-31"
    },
    {
      "name": "北畠　結香",
      "name_kana": "",
      "business_type": "飲食店営業（旅館）",
      "address": "西之表市西之表１７５５０",
      "lat": 30.704232294999997,
      "lng": 130.975681884,
      "geocoding_level": 8,
      "phone": "",
      "license_no": "第035-000073号",
      "license_date": null,
      "expire_date": "2029-10-31"
    },
    {
      "name": "折口　和史",
      "name_kana": "",
      "business_type": "飲食店営業（その他）",
      "address": "西之表市東町９０　下平ビル１階",
      "lat": 30.730641,
      "lng": 130.995858,
      "geocoding_level": 3,
      "phone": "",
      "license_no": "第035-000083号",
      "license_date": null,
      "expire_date": "2028-10-31"
    },
    {
      "name": "社会福祉法人百合砂",
      "name_kana": "",
      "business_type": "飲食店営業（一般食堂・ﾚｽﾄﾗﾝ等）",
      "address": "西之表市鴨女町９６－１",
      "lat": 30.724897,
      "lng": 130.994892,
      "geocoding_level": 3,
      "phone": "",
      "license_no": "第034-000137号",
      "license_date": null,
      "expire_date": "2029-01-31"
    },
    {
      "name": "折口　和史",
      "name_kana": "",
      "business_type": "飲食店営業（その他）",
      "address": "西之表市西町３２",
      "lat": 30.733325999999998,
      "lng": 130.994598,
      "geocoding_level": 3,
      "phone": "",
      "license_no": "第035-000085号",
      "license_date": null,
      "expire_date": "2029-10-31"
    },
    {
      "name": "宮﨑　啓彰",
      "name_kana": "",
      "business_type": "飲食店営業（その他）",
      "address": "西之表市西之表１６３８１－４ （鹿児島市を除く県内一円）",
      "lat": 30.730970000000003,
      "lng": 131.020729,
      "geocoding_level": 3,
      "phone": "",
      "license_no": "第035-000087号",
      "license_date": null,
      "expire_date": "2029-10-31"
    },
    {
      "name": "山本　広美",
      "name_kana": "",
      "business_type": "菓子製造業",
      "address": "西之表市伊関４６３－１",
      "lat": 30.771007154000003,
      "lng": 131.069595224,
      "geocoding_level": 8,
      "phone": "",
      "license_no": "第035-000099号",
      "license_date": null,
      "expire_date": "2029-10-31"
    },
    {
      "name": "山本　広美",
      "name_kana": "",
      "business_type": "そうざい製造業",
      "address": "西之表市伊関４６３－１",
      "lat": 30.771007154000003,
      "lng": 131.069595224,
      "geocoding_level": 8,
      "phone": "",
      "license_no": "第035-000100号",
      "license_date": null,
      "expire_date": "2029-10-31"
    },
    {
      "name": "平　大輔",
      "name_kana": "",
      "business_type": "飲食店営業（一般食堂・ﾚｽﾄﾗﾝ等）",
      "address": "西之表市西町４１",
      "lat": 30.733325999999998,
      "lng": 130.994598,
      "geocoding_level": 3,
      "phone": "",
      "license_no": "第035-000101号",
      "license_date": null,
      "expire_date": "2029-10-31"
    },
    {
      "name": "有限会社　菓子処酒井屋",
      "name_kana": "",
      "business_type": "飲食店営業（その他）",
      "address": "西之表市西町４９－１",
      "lat": 30.733325999999998,
      "lng": 130.994598,
      "geocoding_level": 3,
      "phone": "",
      "license_no": "第035-000102号",
      "license_date": null,
      "expire_date": "2029-10-31"
    },
    {
      "name": "春山　ヒロ子",
      "name_kana": "",
      "business_type": "菓子製造業",
      "address": "西之表市西町６９７２",
      "lat": 30.733325999999998,
      "lng": 130.994598,
      "geocoding_level": 3,
      "phone": "",
      "license_no": "第035-000103号",
      "license_date": null,
      "expire_date": "2028-10-31"
    },
    {
      "name": "学校法人　種子島シオン学園",
      "name_kana": "",
      "business_type": "飲食店営業（一般食堂・ﾚｽﾄﾗﾝ等）",
      "address": "西之表市西之表１００５４",
      "lat": 30.730970000000003,
      "lng": 131.020729,
      "geocoding_level": 3,
      "phone": "",
      "license_no": "第035-000104号",
      "license_date": null,
      "expire_date": "2029-10-31"
    },
    {
      "name": "学校法人　種子島シオン学園",
      "name_kana": "",
      "business_type": "菓子製造業",
      "address": "西之表市西之表１００５４",
      "lat": 30.730970000000003,
      "lng": 131.020729,
      "geocoding_level": 3,
      "phone": "",
      "license_no": "第035-000105号",
      "license_date": null,
      "expire_date": "2029-10-31"
    },
    {
      "name": "河口　修",
      "name_kana": "",
      "business_type": "飲食店営業（旅館）",
      "address": "西之表市西之表２０１",
      "lat": 30.768308824,
      "lng": 131.009873238,
      "geocoding_level": 8,
      "phone": "",
      "license_no": "第035-000106号",
      "license_date": null,
      "expire_date": "2028-10-31"
    },
    {
      "name": "特定非営利活動法人　こすも",
      "name_kana": "",
      "business_type": "飲食店営業（一般食堂・ﾚｽﾄﾗﾝ等）",
      "address": "西之表市西之表９９０９－３",
      "lat": 30.730970000000003,
      "lng": 131.020729,
      "geocoding_level": 3,
      "phone": "",
      "license_no": "第035-000107号",
      "license_date": null,
      "expire_date": "2029-10-31"
    },
    {
      "name": "窪田　良二",
      "name_kana": "",
      "business_type": "菓子製造業",
      "address": "西之表市古田１２２１",
      "lat": 30.658724368000005,
      "lng": 131.004545774,
      "geocoding_level": 8,
      "phone": "",
      "license_no": "第035-000110号",
      "license_date": null,
      "expire_date": "2029-10-31"
    },
    {
      "name": "窪田　良二",
      "name_kana": "",
      "business_type": "そうざい製造業",
      "address": "西之表市古田１２２１",
      "lat": 30.658724368000005,
      "lng": 131.004545774,
      "geocoding_level": 8,
      "phone": "",
      "license_no": "第035-000111号",
      "license_date": null,
      "expire_date": "2029-10-31"
    },
    {
      "name": "株式会社オリエンタルフーズ",
      "name_kana": "",
      "business_type": "飲食店営業（一般食堂・ﾚｽﾄﾗﾝ等）",
      "address": "西之表市馬毛島",
      "lat": 30.745374000000005,
      "lng": 130.854491,
      "geocoding_level": 3,
      "phone": "",
      "license_no": "第035-000117号",
      "license_date": null,
      "expire_date": "2030-01-31"
    },
    {
      "name": "株式会社オリエンタルフーズ",
      "name_kana": "",
      "business_type": "飲食店営業（一般食堂・ﾚｽﾄﾗﾝ等）",
      "address": "西之表市馬毛島",
      "lat": 30.745374000000005,
      "lng": 130.854491,
      "geocoding_level": 3,
      "phone": "",
      "license_no": "第035-000118号",
      "license_date": null,
      "expire_date": "2030-01-31"
    },
    {
      "name": "奈尾　正友",
      "name_kana": "",
      "business_type": "飲食店営業（一般食堂・ﾚｽﾄﾗﾝ等）",
      "address": "西之表市安城３５１７－２３９",
      "lat": 30.609278332,
      "lng": 130.997573232,
      "geocoding_level": 8,
      "phone": "",
      "license_no": "第035-000121号",
      "license_date": null,
      "expire_date": "2030-01-31"
    },
    {
      "name": "奈尾　正友",
      "name_kana": "",
      "business_type": "みそ又はしょうゆ製造業",
      "address": "西之表市安城３５１７－２３９",
      "lat": 30.609278332,
      "lng": 130.997573232,
      "geocoding_level": 8,
      "phone": "",
      "license_no": "第035-000122号",
      "license_date": null,
      "expire_date": "2030-01-31"
    },
    {
      "name": "奈尾　正友",
      "name_kana": "",
      "business_type": "菓子製造業",
      "address": "西之表市安城３５１７－２３９",
      "lat": 30.609278332,
      "lng": 130.997573232,
      "geocoding_level": 8,
      "phone": "",
      "license_no": "第035-000123号",
      "license_date": null,
      "expire_date": "2030-01-31"
    },
    {
      "name": "中嶋　亘",
      "name_kana": "",
      "business_type": "そうざい製造業",
      "address": "西之表市国上２１５５－１",
      "lat": 30.806486468,
      "lng": 131.035990176,
      "geocoding_level": 8,
      "phone": "",
      "license_no": "第035-000125号",
      "license_date": null,
      "expire_date": "2029-01-31"
    },
    {
      "name": "株式会社ＳＯＭＥＳ",
      "name_kana": "",
      "business_type": "飲食店営業（仕出し屋・弁当屋）",
      "address": "西之表市西町２５",
      "lat": 30.733325999999998,
      "lng": 130.994598,
      "geocoding_level": 3,
      "phone": "",
      "license_no": "第034-000080号",
      "license_date": null,
      "expire_date": "2028-07-31"
    },
    {
      "name": "長倉　義秋",
      "name_kana": "",
      "business_type": "菓子製造業",
      "address": "西之表市国上２０１１－６",
      "lat": 30.804713576,
      "lng": 131.040427327,
      "geocoding_level": 8,
      "phone": "",
      "license_no": "第035-000136号",
      "license_date": null,
      "expire_date": "2030-01-31"
    },
    {
      "name": "長倉　義秋",
      "name_kana": "",
      "business_type": "そうざい製造業",
      "address": "西之表市国上２０１１－６",
      "lat": 30.804713576,
      "lng": 131.040427327,
      "geocoding_level": 8,
      "phone": "",
      "license_no": "第035-000137号",
      "license_date": null,
      "expire_date": "2030-01-31"
    },
    {
      "name": "長倉　義秋",
      "name_kana": "",
      "business_type": "冷凍食品製造業",
      "address": "西之表市国上２０１１－６",
      "lat": 30.804713576,
      "lng": 131.040427327,
      "geocoding_level": 8,
      "phone": "",
      "license_no": "第035-000138号",
      "license_date": null,
      "expire_date": "2030-01-31"
    },
    {
      "name": "榎元　一巳",
      "name_kana": "",
      "business_type": "菓子製造業",
      "address": "西之表市安城７６３－２",
      "lat": 30.654717848999997,
      "lng": 131.039441627,
      "geocoding_level": 8,
      "phone": "",
      "license_no": "第035-000147号",
      "license_date": null,
      "expire_date": "2030-01-31"
    },
    {
      "name": "榎元　一巳",
      "name_kana": "",
      "business_type": "飲食店営業（一般食堂・ﾚｽﾄﾗﾝ等）",
      "address": "西之表市西町４９－１",
      "lat": 30.733325999999998,
      "lng": 130.994598,
      "geocoding_level": 3,
      "phone": "",
      "license_no": "第035-000148号",
      "license_date": null,
      "expire_date": "2030-01-31"
    },
    {
      "name": "特定非営利活動法人コスモ学院",
      "name_kana": "",
      "business_type": "飲食店営業（一般食堂・ﾚｽﾄﾗﾝ等）",
      "address": "西之表市西町６９８９",
      "lat": 30.733325999999998,
      "lng": 130.994598,
      "geocoding_level": 3,
      "phone": "",
      "license_no": "第035-000149号",
      "license_date": null,
      "expire_date": "2029-01-31"
    },
    {
      "name": "三浦　亮",
      "name_kana": "",
      "business_type": "飲食店営業（その他）",
      "address": "西之表市西町７０８２　大洋ビル１Ｆ",
      "lat": 30.733325999999998,
      "lng": 130.994598,
      "geocoding_level": 3,
      "phone": "",
      "license_no": "第035-000150号",
      "license_date": null,
      "expire_date": "2030-01-31"
    },
    {
      "name": "下田　秋菜",
      "name_kana": "",
      "business_type": "飲食店営業（その他）",
      "address": "西之表市西町７０８２　２Ｆ",
      "lat": 30.733325999999998,
      "lng": 130.994598,
      "geocoding_level": 3,
      "phone": "",
      "license_no": "第035-000151号",
      "license_date": null,
      "expire_date": "2030-01-31"
    },
    {
      "name": "上妻　あさ子",
      "name_kana": "",
      "business_type": "飲食店営業（一般食堂・ﾚｽﾄﾗﾝ等）",
      "address": "西之表市西之表１２７８２－５",
      "lat": 30.695422916,
      "lng": 131.015626451,
      "geocoding_level": 8,
      "phone": "",
      "license_no": "第035-000152号",
      "license_date": null,
      "expire_date": "2030-01-31"
    },
    {
      "name": "有限会社　種子島自動車学校",
      "name_kana": "",
      "business_type": "飲食店営業（旅館）",
      "address": "西之表市西之表１６４８２",
      "lat": 30.730970000000003,
      "lng": 131.020729,
      "geocoding_level": 3,
      "phone": "",
      "license_no": "第035-000153号",
      "license_date": null,
      "expire_date": "2030-01-31"
    },
    {
      "name": "有限会社　ブンカドウ",
      "name_kana": "",
      "business_type": "菓子製造業",
      "address": "西之表市西之表１６４８４－１０",
      "lat": 30.730970000000003,
      "lng": 131.020729,
      "geocoding_level": 3,
      "phone": "",
      "license_no": "第035-000154号",
      "license_date": null,
      "expire_date": "2030-01-31"
    },
    {
      "name": "酒瀬川　　瑞穂",
      "name_kana": "",
      "business_type": "魚介類販売業",
      "address": "西之表市西之表３９４３",
      "lat": 30.730970000000003,
      "lng": 131.020729,
      "geocoding_level": 3,
      "phone": "",
      "license_no": "第035-000155号",
      "license_date": null,
      "expire_date": "2029-01-31"
    },
    {
      "name": "長瀬　大介",
      "name_kana": "",
      "business_type": "飲食店営業（一般食堂・ﾚｽﾄﾗﾝ等）",
      "address": "西之表市東町７０５９－６",
      "lat": 30.730641,
      "lng": 130.995858,
      "geocoding_level": 3,
      "phone": "",
      "license_no": "第035-000156号",
      "license_date": null,
      "expire_date": "2030-01-31"
    },
    {
      "name": "有限会社日本フーズ",
      "name_kana": "",
      "business_type": "飲食店営業（一般食堂・ﾚｽﾄﾗﾝ等）",
      "address": "西之表市西之表字茶園８１４３　ヴィラ茶園管理事務所",
      "lat": 30.730970000000003,
      "lng": 131.020729,
      "geocoding_level": 3,
      "phone": "",
      "license_no": "第035-000135号",
      "license_date": null,
      "expire_date": "2030-01-31"
    },
    {
      "name": "牛越　紀幸",
      "name_kana": "",
      "business_type": "菓子製造業",
      "address": "西之表市安城１９１８",
      "lat": 30.631215000000005,
      "lng": 131.034985,
      "geocoding_level": 3,
      "phone": "",
      "license_no": "第035-000158号",
      "license_date": null,
      "expire_date": "2030-01-31"
    },
    {
      "name": "株式会社Ｍ＆Ｍ.ファーム",
      "name_kana": "",
      "business_type": "飲食店営業（一般食堂・ﾚｽﾄﾗﾝ等）",
      "address": "西之表市東町５２－１",
      "lat": 30.730641,
      "lng": 130.995858,
      "geocoding_level": 3,
      "phone": "",
      "license_no": "第034-000162号",
      "license_date": null,
      "expire_date": "2029-04-30"
    },
    {
      "name": "原　智鶴",
      "name_kana": "",
      "business_type": "飲食店営業（その他）",
      "address": "西之表市天神町５－８",
      "lat": 30.727702,
      "lng": 130.995129,
      "geocoding_level": 3,
      "phone": "",
      "license_no": "第035-000162号",
      "license_date": null,
      "expire_date": "2030-04-30"
    },
    {
      "name": "福森　和博",
      "name_kana": "",
      "business_type": "飲食店営業（その他）",
      "address": "西之表市東町１",
      "lat": 30.730641,
      "lng": 130.995858,
      "geocoding_level": 3,
      "phone": "",
      "license_no": "第034-000156号",
      "license_date": null,
      "expire_date": "2029-01-31"
    },
    {
      "name": "蓑茂　早苗",
      "name_kana": "",
      "business_type": "飲食店営業（一般食堂・ﾚｽﾄﾗﾝ等）",
      "address": "西之表市西町３７",
      "lat": 30.733325999999998,
      "lng": 130.994598,
      "geocoding_level": 3,
      "phone": "",
      "license_no": "第034-000161号",
      "license_date": null,
      "expire_date": "2029-01-31"
    },
    {
      "name": "濱尾　聡子",
      "name_kana": "",
      "business_type": "飲食店営業（一般食堂・ﾚｽﾄﾗﾝ等）",
      "address": "西之表市西之表１５７５５－１",
      "lat": 30.712378728000004,
      "lng": 130.99089955600002,
      "geocoding_level": 8,
      "phone": "",
      "license_no": "第035-000167号",
      "license_date": null,
      "expire_date": "2030-04-30"
    },
    {
      "name": "マリンワークス株式会社",
      "name_kana": "",
      "business_type": "飲食店営業（一般食堂・ﾚｽﾄﾗﾝ等）",
      "address": "西之表市住吉７８４４－１",
      "lat": 30.666313000000002,
      "lng": 130.96511400000003,
      "geocoding_level": 3,
      "phone": "",
      "license_no": "第035-000119号",
      "license_date": null,
      "expire_date": "2030-01-31"
    },
    {
      "name": "牧瀬　洋之",
      "name_kana": "",
      "business_type": "飲食店営業（その他）",
      "address": "西之表市住吉３５１１",
      "lat": 30.666313000000002,
      "lng": 130.96511400000003,
      "geocoding_level": 3,
      "phone": "",
      "license_no": "第032-000202号",
      "license_date": null,
      "expire_date": "2026-04-30"
    },
    {
      "name": "牧瀬　洋之",
      "name_kana": "",
      "business_type": "菓子製造業",
      "address": "西之表市住吉３５１１",
      "lat": 30.666313000000002,
      "lng": 130.96511400000003,
      "geocoding_level": 3,
      "phone": "",
      "license_no": "第032-000203号",
      "license_date": null,
      "expire_date": "2026-04-30"
    },
    {
      "name": "マリンワークス株式会社",
      "name_kana": "",
      "business_type": "飲食店営業（一般食堂・ﾚｽﾄﾗﾝ等）",
      "address": "西之表市東町７０６０－６",
      "lat": 30.730641,
      "lng": 130.995858,
      "geocoding_level": 3,
      "phone": "",
      "license_no": "第035-000065号",
      "license_date": null,
      "expire_date": "2029-07-31"
    },
    {
      "name": "新畑　真理子",
      "name_kana": "",
      "business_type": "飲食店営業（一般食堂・ﾚｽﾄﾗﾝ等）",
      "address": "西之表市東町１－４",
      "lat": 30.730641,
      "lng": 130.995858,
      "geocoding_level": 3,
      "phone": "",
      "license_no": "第032-000158号",
      "license_date": null,
      "expire_date": "2027-01-31"
    },
    {
      "name": "株式会社オリエンタルフーズ",
      "name_kana": "",
      "business_type": "飲食店営業（一般食堂・ﾚｽﾄﾗﾝ等）",
      "address": "西之表市馬毛島",
      "lat": 30.745374000000005,
      "lng": 130.854491,
      "geocoding_level": 3,
      "phone": "",
      "license_no": "第035-000173号",
      "license_date": null,
      "expire_date": "2030-04-30"
    },
    {
      "name": "澤柳　ひとみ",
      "name_kana": "",
      "business_type": "菓子製造業",
      "address": "西之表市古田１１７３－１",
      "lat": 30.658701335,
      "lng": 131.003966901,
      "geocoding_level": 8,
      "phone": "",
      "license_no": "第036-000025号",
      "license_date": null,
      "expire_date": "2030-04-30"
    },
    {
      "name": "南日本酪農協同株式会社",
      "name_kana": "",
      "business_type": "集乳業",
      "address": "西之表市住吉字千草野３７２７",
      "lat": 30.666313000000002,
      "lng": 130.96511400000003,
      "geocoding_level": 3,
      "phone": "",
      "license_no": "第036-000026号",
      "license_date": null,
      "expire_date": "2030-04-30"
    },
    {
      "name": "種子島漁業協同組合",
      "name_kana": "",
      "business_type": "水産製品製造業",
      "address": "西之表市西町１９２",
      "lat": 30.733325999999998,
      "lng": 130.994598,
      "geocoding_level": 3,
      "phone": "",
      "license_no": "第036-000027号",
      "license_date": null,
      "expire_date": "2030-04-30"
    },
    {
      "name": "種子屋久農業協同組合",
      "name_kana": "",
      "business_type": "食肉販売業",
      "address": "西之表市西町６９７２",
      "lat": 30.733325999999998,
      "lng": 130.994598,
      "geocoding_level": 3,
      "phone": "",
      "license_no": "第036-000028号",
      "license_date": null,
      "expire_date": "2030-04-30"
    },
    {
      "name": "村尾　ツム子",
      "name_kana": "",
      "business_type": "飲食店営業（その他）",
      "address": "西之表市西町７０８２",
      "lat": 30.733325999999998,
      "lng": 130.994598,
      "geocoding_level": 3,
      "phone": "",
      "license_no": "第036-000029号",
      "license_date": null,
      "expire_date": "2030-04-30"
    },
    {
      "name": "有限会社　菓子処酒井屋",
      "name_kana": "",
      "business_type": "飲食店営業（一般食堂・ﾚｽﾄﾗﾝ等）",
      "address": "西之表市西町７１２１",
      "lat": 30.733325999999998,
      "lng": 130.994598,
      "geocoding_level": 3,
      "phone": "",
      "license_no": "第036-000030号",
      "license_date": null,
      "expire_date": "2030-04-30"
    },
    {
      "name": "橋口　敏江",
      "name_kana": "",
      "business_type": "飲食店営業（仕出し屋・弁当屋）",
      "address": "西之表市西之表１３２５８－２９",
      "lat": 30.730970000000003,
      "lng": 131.020729,
      "geocoding_level": 3,
      "phone": "",
      "license_no": "第036-000031号",
      "license_date": null,
      "expire_date": "2030-04-30"
    },
    {
      "name": "空種子合同会社",
      "name_kana": "",
      "business_type": "飲食店営業（その他）",
      "address": "西之表市国上５ （鹿児島市を除く県内一円）",
      "lat": 30.823704724,
      "lng": 131.04448622,
      "geocoding_level": 8,
      "phone": "",
      "license_no": "第035-000176号",
      "license_date": null,
      "expire_date": "2029-04-30"
    },
    {
      "name": "河口　修",
      "name_kana": "",
      "business_type": "飲食店営業（その他）",
      "address": "西之表市西之表２０１ （鹿児島市を除く県内一円）",
      "lat": 30.768308824,
      "lng": 131.009873238,
      "geocoding_level": 8,
      "phone": "",
      "license_no": "第036-000032号",
      "license_date": null,
      "expire_date": "2029-04-30"
    },
    {
      "name": "中村　政信",
      "name_kana": "",
      "business_type": "菓子製造業",
      "address": "西之表市西之表８６４７",
      "lat": 30.727231458,
      "lng": 131.017480334,
      "geocoding_level": 8,
      "phone": "",
      "license_no": "第036-000033号",
      "license_date": null,
      "expire_date": "2029-04-30"
    },
    {
      "name": "中村　政信",
      "name_kana": "",
      "business_type": "そうざい製造業",
      "address": "西之表市西之表８６４７",
      "lat": 30.727231458,
      "lng": 131.017480334,
      "geocoding_level": 8,
      "phone": "",
      "license_no": "第036-000034号",
      "license_date": null,
      "expire_date": "2029-04-30"
    },
    {
      "name": "種子屋久農業協同組合",
      "name_kana": "",
      "business_type": "冷凍食品製造業",
      "address": "西之表市西之表石堂３６８１",
      "lat": 30.730970000000003,
      "lng": 131.020729,
      "geocoding_level": 3,
      "phone": "",
      "license_no": "第036-000035号",
      "license_date": null,
      "expire_date": "2030-04-30"
    },
    {
      "name": "日髙　宗教",
      "name_kana": "",
      "business_type": "飲食店営業（一般食堂・ﾚｽﾄﾗﾝ等）",
      "address": "西之表市東町７０４６－１",
      "lat": 30.730641,
      "lng": 130.995858,
      "geocoding_level": 3,
      "phone": "",
      "license_no": "第036-000036号",
      "license_date": null,
      "expire_date": "2030-04-30"
    },
    {
      "name": "小谷　綾子",
      "name_kana": "",
      "business_type": "飲食店営業（一般食堂・ﾚｽﾄﾗﾝ等）",
      "address": "西之表市東町５２－１",
      "lat": 30.730641,
      "lng": 130.995858,
      "geocoding_level": 3,
      "phone": "",
      "license_no": "第036-000002号",
      "license_date": null,
      "expire_date": "2030-04-30"
    },
    {
      "name": "小倉　瑞樹",
      "name_kana": "",
      "business_type": "菓子製造業",
      "address": "西之表市住吉１１１８",
      "lat": 30.666313000000002,
      "lng": 130.96511400000003,
      "geocoding_level": 3,
      "phone": "",
      "license_no": "第035-000054号",
      "license_date": null,
      "expire_date": "2028-07-31"
    },
    {
      "name": "株式会社　藤田ロジ",
      "name_kana": "",
      "business_type": "飲食店営業（その他）",
      "address": "西之表市国上８９－２",
      "lat": 30.818841605,
      "lng": 131.039328614,
      "geocoding_level": 8,
      "phone": "",
      "license_no": "第033-000061号",
      "license_date": null,
      "expire_date": "2026-10-31"
    },
    {
      "name": "株式会社　藤田ロジ",
      "name_kana": "",
      "business_type": "飲食店営業（その他）",
      "address": "西之表市国上８９－２ （鹿児島市を除く県内一円）",
      "lat": 30.818841605,
      "lng": 131.039328614,
      "geocoding_level": 8,
      "phone": "",
      "license_no": "第034-000030号",
      "license_date": null,
      "expire_date": "2027-04-30"
    },
    {
      "name": "落合　ミチヨ",
      "name_kana": "",
      "business_type": "漬物製造業",
      "address": "西之表市国上２５５３",
      "lat": 30.800901813000003,
      "lng": 131.03707711,
      "geocoding_level": 8,
      "phone": "",
      "license_no": "第036-000050号",
      "license_date": null,
      "expire_date": "2030-07-31"
    },
    {
      "name": "株式会社オリエンタルフーズ",
      "name_kana": "",
      "business_type": "飲食店営業（一般食堂・ﾚｽﾄﾗﾝ等）",
      "address": "西之表市馬毛島",
      "lat": 30.745374000000005,
      "lng": 130.854491,
      "geocoding_level": 3,
      "phone": "",
      "license_no": "第036-000052号",
      "license_date": null,
      "expire_date": "2030-07-31"
    },
    {
      "name": "レガシートラスト株式会社",
      "name_kana": "",
      "business_type": "飲食店営業（一般食堂・ﾚｽﾄﾗﾝ等）",
      "address": "西之表市西町７０７１－１",
      "lat": 30.733325999999998,
      "lng": 130.994598,
      "geocoding_level": 3,
      "phone": "",
      "license_no": "第036-000055号",
      "license_date": null,
      "expire_date": "2030-07-31"
    },
    {
      "name": "廣庭　元気",
      "name_kana": "",
      "business_type": "飲食店営業（その他）",
      "address": "西之表市安納２３３２（鹿児島市を除く県内一円）",
      "lat": 30.74051888,
      "lng": 131.062630575,
      "geocoding_level": 8,
      "phone": "",
      "license_no": "第036-000056号",
      "license_date": null,
      "expire_date": "2029-07-31"
    },
    {
      "name": "三宅　成美",
      "name_kana": "",
      "business_type": "菓子製造業",
      "address": "西之表市西之表１３２５８番地乙",
      "lat": 30.730970000000003,
      "lng": 131.020729,
      "geocoding_level": 3,
      "phone": "",
      "license_no": "第036-000061号",
      "license_date": null,
      "expire_date": "2030-07-31"
    },
    {
      "name": "三宅　成美",
      "name_kana": "",
      "business_type": "漬物製造業",
      "address": "西之表市西之表１３２５８番地乙",
      "lat": 30.730970000000003,
      "lng": 131.020729,
      "geocoding_level": 3,
      "phone": "",
      "license_no": "第036-000062号",
      "license_date": null,
      "expire_date": "2030-07-31"
    },
    {
      "name": "株式会社　大和",
      "name_kana": "",
      "business_type": "飲食店営業（仕出し屋・弁当屋）",
      "address": "西之表市鴨女町１８４",
      "lat": 30.724897,
      "lng": 130.994892,
      "geocoding_level": 3,
      "phone": "",
      "license_no": "第036-000071号",
      "license_date": null,
      "expire_date": "2030-07-31"
    },
    {
      "name": "株式会社　大和",
      "name_kana": "",
      "business_type": "飲食店営業（仕出し屋・弁当屋）",
      "address": "西之表市鴨女町１８４",
      "lat": 30.724897,
      "lng": 130.994892,
      "geocoding_level": 3,
      "phone": "",
      "license_no": "第036-000072号",
      "license_date": null,
      "expire_date": "2030-07-31"
    },
    {
      "name": "株式会社　大和",
      "name_kana": "",
      "business_type": "食肉販売業",
      "address": "西之表市鴨女町１８４",
      "lat": 30.724897,
      "lng": 130.994892,
      "geocoding_level": 3,
      "phone": "",
      "license_no": "第036-000073号",
      "license_date": null,
      "expire_date": "2030-07-31"
    },
    {
      "name": "株式会社　大和",
      "name_kana": "",
      "business_type": "魚介類販売業",
      "address": "西之表市鴨女町１８４",
      "lat": 30.724897,
      "lng": 130.994892,
      "geocoding_level": 3,
      "phone": "",
      "license_no": "第036-000074号",
      "license_date": null,
      "expire_date": "2030-07-31"
    },
    {
      "name": "榎本　健二",
      "name_kana": "",
      "business_type": "飲食店営業（仕出し屋・弁当屋）",
      "address": "西之表市現和６０９７－１",
      "lat": 30.699479978999996,
      "lng": 131.059286999,
      "geocoding_level": 8,
      "phone": "",
      "license_no": "第036-000075号",
      "license_date": null,
      "expire_date": "2030-07-31"
    },
    {
      "name": "榎本　健二",
      "name_kana": "",
      "business_type": "魚介類販売業",
      "address": "西之表市現和６０９７－１",
      "lat": 30.699479978999996,
      "lng": 131.059286999,
      "geocoding_level": 8,
      "phone": "",
      "license_no": "第036-000076号",
      "license_date": null,
      "expire_date": "2030-07-31"
    },
    {
      "name": "中村　真由美",
      "name_kana": "",
      "business_type": "菓子製造業",
      "address": "西之表市古田１１７３－１",
      "lat": 30.658701335,
      "lng": 131.003966901,
      "geocoding_level": 8,
      "phone": "",
      "license_no": "第036-000077号",
      "license_date": null,
      "expire_date": "2030-07-31"
    },
    {
      "name": "中村　真由美",
      "name_kana": "",
      "business_type": "みそ又はしょうゆ製造業",
      "address": "西之表市古田１１７３－１",
      "lat": 30.658701335,
      "lng": 131.003966901,
      "geocoding_level": 8,
      "phone": "",
      "license_no": "第036-000078号",
      "license_date": null,
      "expire_date": "2030-07-31"
    },
    {
      "name": "岩屋　フミエ",
      "name_kana": "",
      "business_type": "飲食店営業（その他）",
      "address": "西之表市西町３２",
      "lat": 30.733325999999998,
      "lng": 130.994598,
      "geocoding_level": 3,
      "phone": "",
      "license_no": "第036-000079号",
      "license_date": null,
      "expire_date": "2030-07-31"
    },
    {
      "name": "川畑　律子",
      "name_kana": "",
      "business_type": "飲食店営業（一般食堂・ﾚｽﾄﾗﾝ等）",
      "address": "西之表市西町３４",
      "lat": 30.733325999999998,
      "lng": 130.994598,
      "geocoding_level": 3,
      "phone": "",
      "license_no": "第036-000080号",
      "license_date": null,
      "expire_date": "2029-07-31"
    },
    {
      "name": "今西　高広",
      "name_kana": "",
      "business_type": "飲食店営業（その他）",
      "address": "西之表市西町３６　酒井ビル２Ｆ",
      "lat": 30.733325999999998,
      "lng": 130.994598,
      "geocoding_level": 3,
      "phone": "",
      "license_no": "第036-000081号",
      "license_date": null,
      "expire_date": "2030-07-31"
    },
    {
      "name": "川地　實",
      "name_kana": "",
      "business_type": "菓子製造業",
      "address": "西之表市西之表１０４０９－４",
      "lat": 30.730970000000003,
      "lng": 131.020729,
      "geocoding_level": 3,
      "phone": "",
      "license_no": "第036-000082号",
      "license_date": null,
      "expire_date": "2029-07-31"
    },
    {
      "name": "荒木　美由貴",
      "name_kana": "",
      "business_type": "飲食店営業（一般食堂・ﾚｽﾄﾗﾝ等）",
      "address": "西之表市西之表６４９０－２",
      "lat": 30.741870634999998,
      "lng": 130.999231089,
      "geocoding_level": 8,
      "phone": "",
      "license_no": "第036-000083号",
      "license_date": null,
      "expire_date": "2030-07-31"
    },
    {
      "name": "中村　由紀",
      "name_kana": "",
      "business_type": "飲食店営業（その他）",
      "address": "西之表市西町３２",
      "lat": 30.733325999999998,
      "lng": 130.994598,
      "geocoding_level": 3,
      "phone": "",
      "license_no": "第035-000157号",
      "license_date": null,
      "expire_date": "2030-01-31"
    },
    {
      "name": "野呂瀬　佐知子",
      "name_kana": "",
      "business_type": "飲食店営業（その他）",
      "address": "西之表市国上３８６４－２１ （鹿児島市を除く県内一円）",
      "lat": 30.786982186000003,
      "lng": 131.0211351,
      "geocoding_level": 8,
      "phone": "",
      "license_no": "第036-000088号",
      "license_date": null,
      "expire_date": "2030-07-31"
    },
    {
      "name": "小川　信次",
      "name_kana": "",
      "business_type": "飲食店営業（一般食堂・ﾚｽﾄﾗﾝ等）",
      "address": "西之表市西町７０７２－１",
      "lat": 30.733325999999998,
      "lng": 130.994598,
      "geocoding_level": 3,
      "phone": "",
      "license_no": "第036-000089号",
      "license_date": null,
      "expire_date": "2030-07-31"
    },
    {
      "name": "副島　龍策",
      "name_kana": "",
      "business_type": "飲食店営業（その他）",
      "address": "西之表市西之表６９６３ （鹿児島市を除く県内一円）",
      "lat": 30.730970000000003,
      "lng": 131.020729,
      "geocoding_level": 3,
      "phone": "",
      "license_no": "第036-000090号",
      "license_date": null,
      "expire_date": "2029-07-31"
    },
    {
      "name": "野呂瀬　佐知子",
      "name_kana": "",
      "business_type": "飲食店営業（その他）",
      "address": "西之表市国上３８６４－２１ （鹿児島市を除く県内一円）",
      "lat": 30.786982186000003,
      "lng": 131.0211351,
      "geocoding_level": 8,
      "phone": "",
      "license_no": "第036-000098号",
      "license_date": null,
      "expire_date": "2029-10-31"
    },
    {
      "name": "株式会社オリエンタルフーズ",
      "name_kana": "",
      "business_type": "飲食店営業（一般食堂・ﾚｽﾄﾗﾝ等）",
      "address": "西之表市馬毛島",
      "lat": 30.745374000000005,
      "lng": 130.854491,
      "geocoding_level": 3,
      "phone": "",
      "license_no": "第036-000105号",
      "license_date": null,
      "expire_date": "2030-10-31"
    },
    {
      "name": "株式会社オリエンタルフーズ",
      "name_kana": "",
      "business_type": "飲食店営業（一般食堂・ﾚｽﾄﾗﾝ等）",
      "address": "西之表市馬毛島",
      "lat": 30.745374000000005,
      "lng": 130.854491,
      "geocoding_level": 3,
      "phone": "",
      "license_no": "第036-000106号",
      "license_date": null,
      "expire_date": "2030-10-31"
    },
    {
      "name": "坂口　真寿美",
      "name_kana": "",
      "business_type": "飲食店営業（その他）",
      "address": "西之表市鴨女町１４４１５－３５",
      "lat": 30.724897,
      "lng": 130.994892,
      "geocoding_level": 3,
      "phone": "",
      "license_no": "第036-000124号",
      "license_date": null,
      "expire_date": "2030-10-31"
    },
    {
      "name": "特定非営利活動法人　こすも",
      "name_kana": "",
      "business_type": "飲食店営業（一般食堂・ﾚｽﾄﾗﾝ等）",
      "address": "西之表市住吉２６０１ー８",
      "lat": 30.666313000000002,
      "lng": 130.96511400000003,
      "geocoding_level": 3,
      "phone": "",
      "license_no": "第036-000125号",
      "license_date": null,
      "expire_date": "2030-10-31"
    },
    {
      "name": "浦口　竜士",
      "name_kana": "",
      "business_type": "飲食店営業（その他）",
      "address": "西之表市西町６５－２",
      "lat": 30.733325999999998,
      "lng": 130.994598,
      "geocoding_level": 3,
      "phone": "",
      "license_no": "第036-000126号",
      "license_date": null,
      "expire_date": "2030-10-31"
    },
    {
      "name": "白澤　一二三",
      "name_kana": "",
      "business_type": "飲食店営業（旅館）",
      "address": "西之表市西之表１５７５１－２",
      "lat": 30.712663353,
      "lng": 130.99042953,
      "geocoding_level": 8,
      "phone": "",
      "license_no": "第036-000127号",
      "license_date": null,
      "expire_date": "2030-10-31"
    },
    {
      "name": "有限会社折口興業",
      "name_kana": "",
      "business_type": "飲食店営業（その他）",
      "address": "西之表市東町３５",
      "lat": 30.730641,
      "lng": 130.995858,
      "geocoding_level": 3,
      "phone": "",
      "license_no": "第033-000099号",
      "license_date": null,
      "expire_date": "2027-01-31"
    },
    {
      "name": "持田　利奈",
      "name_kana": "",
      "business_type": "菓子製造業",
      "address": "西之表市西之表１０９２１－１",
      "lat": 30.730970000000003,
      "lng": 131.020729,
      "geocoding_level": 3,
      "phone": "",
      "license_no": "第036-000108号",
      "license_date": null,
      "expire_date": "2030-10-31"
    },
    {
      "name": "株式会社松屋フーズ",
      "name_kana": "",
      "business_type": "飲食店営業（一般食堂・ﾚｽﾄﾗﾝ等）",
      "address": "西之表市馬毛島用地２",
      "lat": 30.745374000000005,
      "lng": 130.854491,
      "geocoding_level": 3,
      "phone": "",
      "license_no": "第036-000113号",
      "license_date": null,
      "expire_date": "2030-10-31"
    },
    {
      "name": "株式会社　西川海陸輸送",
      "name_kana": "",
      "business_type": "飲食店営業（一般食堂・ﾚｽﾄﾗﾝ等）",
      "address": "西之表市西之表１６０６９",
      "lat": 30.730970000000003,
      "lng": 131.020729,
      "geocoding_level": 3,
      "phone": "",
      "license_no": "第036-000128号",
      "license_date": null,
      "expire_date": "2030-10-31"
    },
    {
      "name": "下江　美幸",
      "name_kana": "",
      "business_type": "飲食店営業（その他）",
      "address": "西之表市西町２７",
      "lat": 30.733325999999998,
      "lng": 130.994598,
      "geocoding_level": 3,
      "phone": "",
      "license_no": "第036-000133号",
      "license_date": null,
      "expire_date": "2030-10-31"
    },
    {
      "name": "HIRAISHI　MILDRED　COLANTA",
      "name_kana": "",
      "business_type": "飲食店営業（その他）",
      "address": "西之表市西町７０８２ 大洋ビル１F",
      "lat": 30.733325999999998,
      "lng": 130.994598,
      "geocoding_level": 3,
      "phone": "",
      "license_no": "第036-000134号",
      "license_date": null,
      "expire_date": "2030-10-31"
    },
    {
      "name": "木下　元子",
      "name_kana": "",
      "business_type": "飲食店営業（その他）",
      "address": "西之表市西之表１４４１５－２７ （鹿児島市を除く県内一円）",
      "lat": 30.730970000000003,
      "lng": 131.020729,
      "geocoding_level": 3,
      "phone": "",
      "license_no": "第036-000135号",
      "license_date": null,
      "expire_date": "2029-10-31"
    },
    {
      "name": "株式会社アッタワット",
      "name_kana": "",
      "business_type": "飲食店営業（旅館）",
      "address": "西之表市西之表５６５９－１",
      "lat": 30.742283185,
      "lng": 131.00943575,
      "geocoding_level": 8,
      "phone": "",
      "license_no": "第036-000142号",
      "license_date": null,
      "expire_date": "2031-01-31"
    },
    {
      "name": "上野　恭子",
      "name_kana": "",
      "business_type": "飲食店営業（一般食堂・ﾚｽﾄﾗﾝ等）",
      "address": "西之表市西町３７",
      "lat": 30.733325999999998,
      "lng": 130.994598,
      "geocoding_level": 3,
      "phone": "",
      "license_no": "第036-000146号",
      "license_date": null,
      "expire_date": "2030-01-31"
    },
    {
      "name": "株式会社パナセア",
      "name_kana": "",
      "business_type": "飲食店営業（一般食堂・ﾚｽﾄﾗﾝ等）",
      "address": "西之表市西町７０８２　大洋ビル２階",
      "lat": 30.733325999999998,
      "lng": 130.994598,
      "geocoding_level": 3,
      "phone": "",
      "license_no": "第036-000150号",
      "license_date": null,
      "expire_date": "2031-01-31"
    },
    {
      "name": "エス・フードサービス有限会社",
      "name_kana": "",
      "business_type": "そうざい製造業",
      "address": "西之表市馬毛島",
      "lat": 30.745374000000005,
      "lng": 130.854491,
      "geocoding_level": 3,
      "phone": "",
      "license_no": "第036-000156号",
      "license_date": null,
      "expire_date": "2031-01-31"
    },
    {
      "name": "古川　仁子",
      "name_kana": "",
      "business_type": "菓子製造業",
      "address": "西之表市現和５８６４",
      "lat": 30.693420408,
      "lng": 131.068316589,
      "geocoding_level": 8,
      "phone": "",
      "license_no": "第036-000167号",
      "license_date": null,
      "expire_date": "2031-01-31"
    },
    {
      "name": "古川　仁子",
      "name_kana": "",
      "business_type": "みそ又はしょうゆ製造業",
      "address": "西之表市現和５８６４",
      "lat": 30.693420408,
      "lng": 131.068316589,
      "geocoding_level": 8,
      "phone": "",
      "license_no": "第036-000168号",
      "license_date": null,
      "expire_date": "2031-01-31"
    },
    {
      "name": "株式会社KTH設備",
      "name_kana": "",
      "business_type": "菓子製造業",
      "address": "西之表市西之表１０２３７",
      "lat": 30.730970000000003,
      "lng": 131.020729,
      "geocoding_level": 3,
      "phone": "",
      "license_no": "第036-000169号",
      "license_date": null,
      "expire_date": "2031-01-31"
    },