{
  "meta": {
    "updated": 1783906731,
    "sources": [
      {
        "source": "松江市食品営業許可施設一覧",
        "license": "要確認"
      },
      {
        "source": "島根県食品営業許可一覧（松江市を除く）",
        "license": "要確認"
      },
      {
        "source": "厚生労働省 食品衛生申請等システム（オープンデータ）",
        "license": "公共データ利用規約（第1.0版, PDL1.0）"
      }
    ]
  },
  "data": [
    {
      "name": "イオン　菅田店　水産寿司",
      "name_kana": "",
      "business_type": "",
      "address": "松江市学園二丁目９－３９",
      "lat": 35.482420294,
      "lng": 133.064306313,
      "geocoding_level": 8,
      "phone": "0852-32-4321",
      "license_no": "021210047",
      "license_date": null,
      "expire_date": null
    },
    {
      "name": "ＫＩＴＣＨＥＮ　ＳＯＮＯＭＡＭＡ",
      "name_kana": "",
      "business_type": "",
      "address": "松江市乃木福富町３６９　パナソニック（株） インダストリアルソリューションズ社厚生棟３Ｆ食堂",
      "lat": 35.437871,
      "lng": 133.043423,
      "geocoding_level": 3,
      "phone": "0852-27-4808",
      "license_no": "021210075",
      "license_date": null,
      "expire_date": null
    },
    {
      "name": "シニアコート北田町　レストラン百彩",
      "name_kana": "",
      "business_type": "",
      "address": "松江市北田町７１－１",
      "lat": 35.476624,
      "lng": 133.061852,
      "geocoding_level": 3,
      "phone": "0852-33-7525",
      "license_no": "021210123",
      "license_date": null,
      "expire_date": null
    },
    {
      "name": "魚国総本社・松江　２６６３２",
      "name_kana": "",
      "business_type": "",
      "address": "松江市向島町１３４－１０　松江地方合同庁舎１Ｆ",
      "lat": 35.46893584,
      "lng": 133.064675274,
      "geocoding_level": 8,
      "phone": "",
      "license_no": "021210129",
      "license_date": null,
      "expire_date": null
    },
    {
      "name": "フーズマーケットホック　津田店",
      "name_kana": "",
      "business_type": "",
      "address": "松江市東津田町１２１４",
      "lat": 35.45386,
      "lng": 133.091521,
      "geocoding_level": 3,
      "phone": "0852-26-6002",
      "license_no": "029215004",
      "license_date": null,
      "expire_date": null
    },
    {
      "name": "食事処　禅",
      "name_kana": "",
      "business_type": "",
      "address": "松江市八束町波入１２６０－２",
      "lat": 35.491212522,
      "lng": 133.176202513,
      "geocoding_level": 8,
      "phone": "0852-76-2255",
      "license_no": "029215005",
      "license_date": null,
      "expire_date": null
    },
    {
      "name": "イオン　菅田店　ホットデリカ",
      "name_kana": "",
      "business_type": "",
      "address": "松江市学園二丁目９－３９",
      "lat": 35.482420294,
      "lng": 133.064306313,
      "geocoding_level": 8,
      "phone": "0852-32-4321",
      "license_no": "029215006",
      "license_date": null,
      "expire_date": null
    },
    {
      "name": "清松庵　たちばな",
      "name_kana": "",
      "business_type": "",
      "address": "松江市袖師町１１－１",
      "lat": 35.45437626,
      "lng": 133.049642353,
      "geocoding_level": 8,
      "phone": "0852-32-2345",
      "license_no": "029215007",
      "license_date": null,
      "expire_date": null
    },
    {
      "name": "スナック　オン　エアー ＳＮＡＣＫ　ＯＮ　ＡＩＲ",
      "name_kana": "",
      "business_type": "",
      "address": "松江市伊勢宮町５３５－３ ナイトプラザ３番館２Ｆ",
      "lat": 35.465520594,
      "lng": 133.059719199,
      "geocoding_level": 8,
      "phone": "0852-27-2821",
      "license_no": "029215010",
      "license_date": null,
      "expire_date": null
    },
    {
      "name": "サン・ファミリア松江",
      "name_kana": "",
      "business_type": "",
      "address": "松江市学園二丁目１１－１８ サン・ファミリア松江１Ｆ",
      "lat": 35.483782246,
      "lng": 133.065675985,
      "geocoding_level": 8,
      "phone": "0852-25-6468",
      "license_no": "029215021",
      "license_date": null,
      "expire_date": null
    },
    {
      "name": "ハーヴェスト",
      "name_kana": "",
      "business_type": "",
      "address": "松江市伊勢宮町５３２　ブラックビル１Ｆ",
      "lat": 35.465877694,
      "lng": 133.059962383,
      "geocoding_level": 8,
      "phone": "0852-28-2220",
      "license_no": "029215028",
      "license_date": null,
      "expire_date": null
    },
    {
      "name": "パティスリー　キュイール",
      "name_kana": "",
      "business_type": "",
      "address": "松江市片原町１０７",
      "lat": 35.469765302,
      "lng": 133.052588747,
      "geocoding_level": 8,
      "phone": "0852-28-6446",
      "license_no": "029215029",
      "license_date": null,
      "expire_date": null
    },
    {
      "name": "シニアコート上乃木",
      "name_kana": "",
      "business_type": "",
      "address": "松江市上乃木三丁目１１－１０",
      "lat": 35.446957588,
      "lng": 133.064166538,
      "geocoding_level": 8,
      "phone": "0852-25-6282",
      "license_no": "029215031",
      "license_date": null,
      "expire_date": null
    },
    {
      "name": "スーパーマーケットひまり　寿司・惣菜コーナー",
      "name_kana": "",
      "business_type": "",
      "address": "松江市大庭町１８０３－８",
      "lat": 35.434260627,
      "lng": 133.0849831,
      "geocoding_level": 8,
      "phone": "0852-32-3223",
      "license_no": "029215034",
      "license_date": null,
      "expire_date": null
    },
    {
      "name": "セブン-イレブン ハートイン ＪＲ松江駅シャミネ店",
      "name_kana": "",
      "business_type": "",
      "address": "松江市朝日町４７２－２ シャミネ松江内",
      "lat": 35.463860956,
      "lng": 133.063028229,
      "geocoding_level": 8,
      "phone": "0852-32-5582",
      "license_no": "029215036",
      "license_date": null,
      "expire_date": null
    },
    {
      "name": "潮海（しおみ）",
      "name_kana": "",
      "business_type": "",
      "address": "松江市菅田町１８－３",
      "lat": 35.48766400000001,
      "lng": 133.063826,
      "geocoding_level": 3,
      "phone": "0852-25-5189",
      "license_no": "029215038",
      "license_date": null,
      "expire_date": null
    },
    {
      "name": "有限会社　とんかつ一番",
      "name_kana": "",
      "business_type": "",
      "address": "松江市西津田六丁目８－１",
      "lat": 35.457681454,
      "lng": 133.06833739,
      "geocoding_level": 8,
      "phone": "0852-22-7486",
      "license_no": "029215039",
      "license_date": null,
      "expire_date": null
    },
    {
      "name": "白夜",
      "name_kana": "",
      "business_type": "",
      "address": "松江市東本町一丁目６１－５",
      "lat": 35.469503137,
      "lng": 133.055543337,
      "geocoding_level": 8,
      "phone": "0852-24-4072",
      "license_no": "029215046",
      "license_date": null,
      "expire_date": null
    },
    {
      "name": "大橋館",
      "name_kana": "",
      "business_type": "",
      "address": "松江市末次本町４０",
      "lat": 35.468649233,
      "lng": 133.055548857,
      "geocoding_level": 8,
      "phone": "0852-21-5168",
      "license_no": "029215047",
      "license_date": null,
      "expire_date": null
    },
    {
      "name": "芹の里　京らぎ",
      "name_kana": "",
      "business_type": "",
      "address": "松江市黒田町５１２－５",
      "lat": 35.480466,
      "lng": 133.043976,
      "geocoding_level": 3,
      "phone": "0852-25-2233",
      "license_no": "029215048",
      "license_date": null,
      "expire_date": null
    },
    {
      "name": "佳翠苑　皆美",
      "name_kana": "",
      "business_type": "",
      "address": "松江市玉湯町玉造１２１８－８",
      "lat": 35.41747563,
      "lng": 133.008701499,
      "geocoding_level": 8,
      "phone": "0852-62-0331",
      "license_no": "029215049",
      "license_date": null,
      "expire_date": null
    },
    {
      "name": "ローソン　松江花街道店",
      "name_kana": "",
      "business_type": "",
      "address": "松江市西忌部町６２２－５",
      "lat": 35.4012,
      "lng": 133.026296,
      "geocoding_level": 3,
      "phone": "0852-33-2212",
      "license_no": "029215053",
      "license_date": null,
      "expire_date": null
    },
    {
      "name": "スナック　花束（ブーケ）",
      "name_kana": "",
      "business_type": "",
      "address": "松江市東本町三丁目６２－２　スタ－５ビル１Ｆ",
      "lat": 35.469139,
      "lng": 133.058352,
      "geocoding_level": 3,
      "phone": "0852-25-5777",
      "license_no": "029215061",
      "license_date": null,
      "expire_date": null
    },
    {
      "name": "Ｂａｒ　くう",
      "name_kana": "",
      "business_type": "",
      "address": "松江市末次本町３６　Ｅ・Ａ・Ｄビル２Ｆ",
      "lat": 35.46860932,
      "lng": 133.05494606,
      "geocoding_level": 8,
      "phone": "0852-25-1323",
      "license_no": "029215062",
      "license_date": null,
      "expire_date": null
    },
    {
      "name": "ローソン　松江坂本町店",
      "name_kana": "",
      "business_type": "",
      "address": "松江市坂本町２０－１",
      "lat": 35.516248,
      "lng": 133.093224,
      "geocoding_level": 3,
      "phone": "0852-34-9420",
      "license_no": "029215064",
      "license_date": null,
      "expire_date": null
    },
    {
      "name": "ローソン　松江比津店",
      "name_kana": "",
      "business_type": "",
      "address": "松江市比津町１５６",
      "lat": 35.486841,
      "lng": 133.035822,
      "geocoding_level": 3,
      "phone": "0852-21-1011",
      "license_no": "029215065",
      "license_date": null,
      "expire_date": null
    },
    {
      "name": "イタリア酒場",
      "name_kana": "",
      "business_type": "",
      "address": "松江市東本町二丁目２５－１　東本町ビル１Ｆ",
      "lat": 35.469123482,
      "lng": 133.057550597,
      "geocoding_level": 8,
      "phone": "0852-33-7990",
      "license_no": "029215074",
      "license_date": null,
      "expire_date": null
    },
    {
      "name": "みしまや　上の木店",
      "name_kana": "",
      "business_type": "",
      "address": "松江市上乃木三丁目１４－２０",
      "lat": 35.446248334,
      "lng": 133.060745267,
      "geocoding_level": 8,
      "phone": "20-6200",
      "license_no": "029215075",
      "license_date": null,
      "expire_date": null
    },
    {
      "name": "片岡食料品店",
      "name_kana": "",
      "business_type": "",
      "address": "松江市外中原町３２６－１",
      "lat": 35.471028,
      "lng": 133.04223,
      "geocoding_level": 3,
      "phone": "0852-61-2888",
      "license_no": "029215076",
      "license_date": null,
      "expire_date": null
    },
    {
      "name": "ローソン　松江中原店",
      "name_kana": "",
      "business_type": "",
      "address": "松江市外中原町３",
      "lat": 35.471028,
      "lng": 133.04223,
      "geocoding_level": 3,
      "phone": "0852-55-8635",
      "license_no": "029215077",
      "license_date": null,
      "expire_date": null
    },
    {
      "name": "松江の台所　こ根っこや",
      "name_kana": "",
      "business_type": "",
      "address": "松江市千鳥町３６　宍道湖しじみ館　２Ｆ",
      "lat": 35.465707476,
      "lng": 133.044478506,
      "geocoding_level": 8,
      "phone": "0852-28-7511",
      "license_no": "029215078",
      "license_date": null,
      "expire_date": null
    },
    {
      "name": "しゃぶしゃぶ温野菜　松江上乃木店",
      "name_kana": "",
      "business_type": "",
      "address": "松江市上乃木四丁目３２－１９",
      "lat": 35.443046769,
      "lng": 133.059607492,
      "geocoding_level": 8,
      "phone": "0852-32-0831",
      "license_no": "029215079",
      "license_date": null,
      "expire_date": null
    },
    {
      "name": "桜華",
      "name_kana": "",
      "business_type": "",
      "address": "松江市学園二丁目１６－２８ クレセントヴィラ愛信Ⅲ　１０１号店舗",
      "lat": 35.484009522,
      "lng": 133.068035326,
      "geocoding_level": 8,
      "phone": "050-5201-0698",
      "license_no": "029215080",
      "license_date": null,
      "expire_date": null
    },
    {
      "name": "茶房一望",
      "name_kana": "",
      "business_type": "",
      "address": "松江市八束町波入１２６０－２",
      "lat": 35.491212522,
      "lng": 133.176202513,
      "geocoding_level": 8,
      "phone": "0852-76-2255",
      "license_no": "029215081",
      "license_date": null,
      "expire_date": null
    },
    {
      "name": "石窯パン工房　森のくまさん",
      "name_kana": "",
      "business_type": "",
      "address": "松江市乃白町１５９－１",
      "lat": 35.431671,
      "lng": 133.047567,
      "geocoding_level": 3,
      "phone": "0852-33-7588",
      "license_no": "029215082",
      "license_date": null,
      "expire_date": null
    },
    {
      "name": "福間館",
      "name_kana": "",
      "business_type": "",
      "address": "松江市美保関町美保関５８６",
      "lat": 35.562409628,
      "lng": 133.307785109,
      "geocoding_level": 8,
      "phone": "0852-73-0011",
      "license_no": "029215083",
      "license_date": null,
      "expire_date": null
    },
    {
      "name": "みしまや　田和山店",
      "name_kana": "",
      "business_type": "",
      "address": "松江市田和山町４１",
      "lat": 35.437788898,
      "lng": 133.049541366,
      "geocoding_level": 8,
      "phone": "0852-24-6700",
      "license_no": "029215084",
      "license_date": null,
      "expire_date": null
    },
    {
      "name": "グランラセーレ八重垣",
      "name_kana": "",
      "business_type": "",
      "address": "松江市佐草町４１９",
      "lat": 35.422535,
      "lng": 133.066967,
      "geocoding_level": 3,
      "phone": "0852-21-1234",
      "license_no": "029215099",
      "license_date": null,
      "expire_date": null
    },
    {
      "name": "赤から　黒田店",
      "name_kana": "",
      "business_type": "",
      "address": "松江市黒田町４９７－３　２Ｆ",
      "lat": 35.480466,
      "lng": 133.043976,
      "geocoding_level": 3,
      "phone": "0852-67-1434",
      "license_no": "029215101",
      "license_date": null,
      "expire_date": null
    },
    {
      "name": "キャッツ・アイ",
      "name_kana": "",
      "business_type": "",
      "address": "松江市伊勢宮町５３１－３　ホワイトビル１Ｆ",
      "lat": 35.465687588,
      "lng": 133.06019356300004,
      "geocoding_level": 8,
      "phone": "0852-28-5030",
      "license_no": "029215110",
      "license_date": null,
      "expire_date": null
    },
    {
      "name": "かやぶきカフェ",
      "name_kana": "",
      "business_type": "",
      "address": "松江市八雲町平原２６１",
      "lat": 35.40026728,
      "lng": 133.065964258,
      "geocoding_level": 8,
      "phone": "0852-54-2332",
      "license_no": "029215111",
      "license_date": null,
      "expire_date": null
    },
    {
      "name": "セブン-イレブン　松江米子町店",
      "name_kana": "",
      "business_type": "",
      "address": "松江市米子町１０",
      "lat": 35.47175,
      "lng": 133.05789,
      "geocoding_level": 3,
      "phone": "0852-23-0802",
      "license_no": "029215119",
      "license_date": null,
      "expire_date": null
    },
    {
      "name": "セブン-イレブン　松江春日店",
      "name_kana": "",
      "business_type": "",
      "address": "松江市黒田町７７－１",
      "lat": 35.480466,
      "lng": 133.043976,
      "geocoding_level": 3,
      "phone": "0852-22-7110",
      "license_no": "029215122",
      "license_date": null,
      "expire_date": null
    },
    {
      "name": "服部珈琲工房　川津店",
      "name_kana": "",
      "business_type": "",
      "address": "松江市西川津町４００３",
      "lat": 35.484700333,
      "lng": 133.071567848,
      "geocoding_level": 8,
      "phone": "0852-26-4423",
      "license_no": "029215128",
      "license_date": null,
      "expire_date": null
    },
    {
      "name": "サローネ　デル　カフェ　ハットリ",
      "name_kana": "",
      "business_type": "",
      "address": "松江市学園一丁目１２－５",
      "lat": 35.478749306,
      "lng": 133.066535093,
      "geocoding_level": 8,
      "phone": "0852-27-6999",
      "license_no": "029215131",
      "license_date": null,
      "expire_date": null
    },
    {
      "name": "セブン-イレブン　松江楽山店",
      "name_kana": "",
      "business_type": "",
      "address": "松江市西川津町２０７６－３",
      "lat": 35.482232,
      "lng": 133.078382,
      "geocoding_level": 3,
      "phone": "",
      "license_no": "029215132",
      "license_date": null,
      "expire_date": null
    },
    {
      "name": "野津旅館",
      "name_kana": "",
      "business_type": "",
      "address": "松江市伊勢宮町５５５",
      "lat": 35.466882552,
      "lng": 133.060240297,
      "geocoding_level": 8,
      "phone": "0852-21-1525",
      "license_no": "029215133",
      "license_date": null,
      "expire_date": null
    },
    {
      "name": "森岡酒店",
      "name_kana": "",
      "business_type": "",
      "address": "松江市伊勢宮町５３３－４",
      "lat": 35.466035713,
      "lng": 133.059995661,
      "geocoding_level": 8,
      "phone": "0852-21-6594",
      "license_no": "029215136",
      "license_date": null,
      "expire_date": null
    },
    {
      "name": "地産地相酒場　たかの屋",
      "name_kana": "",
      "business_type": "",
      "address": "松江市伊勢宮町５０１ コ－ポ伊勢宮１Ｆ",
      "lat": 35.465327977,
      "lng": 133.059793381,
      "geocoding_level": 8,
      "phone": "0852-67-6673",
      "license_no": "029215151",
      "license_date": null,
      "expire_date": null
    },
    {
      "name": "スーパーマーケットひまり",
      "name_kana": "",
      "business_type": "",
      "address": "松江市大庭町１８０３－８",
      "lat": 35.434260627,
      "lng": 133.0849831,
      "geocoding_level": 8,
      "phone": "0852-32-3223",
      "license_no": "029225003",
      "license_date": null,
      "expire_date": null
    },
    {
      "name": "玉造温泉　ＲＹＯＫＡＮ　ＯＱＯＱ",
      "name_kana": "",
      "business_type": "",
      "address": "松江市玉湯町玉造１２４７",
      "lat": 35.42043338,
      "lng": 133.008935344,
      "geocoding_level": 8,
      "phone": "0852-62-0524",
      "license_no": "029225006",
      "license_date": null,
      "expire_date": null
    },
    {
      "name": "ウィーンの森",
      "name_kana": "",
      "business_type": "",
      "address": "松江市母衣町３０",
      "lat": 35.472913,
      "lng": 133.056258,
      "geocoding_level": 3,
      "phone": "0852-24-8088",
      "license_no": "029225007",
      "license_date": null,
      "expire_date": null
    },
    {
      "name": "珈琲　玲瓏",
      "name_kana": "",
      "business_type": "",
      "address": "松江市山代町４７３－１",
      "lat": 35.437132,
      "lng": 133.093876,
      "geocoding_level": 3,
      "phone": "0852-21-3515",
      "license_no": "029225008",
      "license_date": null,
      "expire_date": null
    },
    {
      "name": "公益財団法人　田部美術館",
      "name_kana": "",
      "business_type": "",
      "address": "松江市北堀町３１０－５",
      "lat": 35.477653,
      "lng": 133.054635,
      "geocoding_level": 3,
      "phone": "0852-26-2211",
      "license_no": "029225011",
      "license_date": null,
      "expire_date": null
    },
    {
      "name": "清松庵　たちばな",
      "name_kana": "",
      "business_type": "",
      "address": "松江市袖師町１１－１",
      "lat": 35.45437626,
      "lng": 133.049642353,
      "geocoding_level": 8,
      "phone": "0852-32-2345",
      "license_no": "029235001",
      "license_date": null,
      "expire_date": null
    },
    {
      "name": "スーパーマーケットひまり　ベーカリーコーナー",
      "name_kana": "",
      "business_type": "",
      "address": "松江市大庭町１８０３－８",
      "lat": 35.434260627,
      "lng": 133.0849831,
      "geocoding_level": 8,
      "phone": "0852-32-3223",
      "license_no": "029235006",
      "license_date": null,
      "expire_date": null
    },
    {
      "name": "石窯パン工房　森のくまさん",
      "name_kana": "",
      "business_type": "",
      "address": "松江市乃白町１５９－１",
      "lat": 35.431671,
      "lng": 133.047567,
      "geocoding_level": 3,
      "phone": "0852-33-7588",
      "license_no": "029235011",
      "license_date": null,
      "expire_date": null
    },
    {
      "name": "Ｂａｋｅｒｙ＆Ｃａｆｅ　アセット",
      "name_kana": "",
      "business_type": "",
      "address": "松江市西川津町１０６０",
      "lat": 35.485705691,
      "lng": 133.067479593,
      "geocoding_level": 8,
      "phone": "0852-32-6247",
      "license_no": "029235018",
      "license_date": null,
      "expire_date": null
    },
    {
      "name": "サローネ　デル　カフェ　ハットリ",
      "name_kana": "",
      "business_type": "",
      "address": "松江市学園一丁目１２－５",
      "lat": 35.478749306,
      "lng": 133.066535093,
      "geocoding_level": 8,
      "phone": "0852-27-6999",
      "license_no": "029235020",
      "license_date": null,
      "expire_date": null
    },
    {
      "name": "社会福祉法人　しののめ",
      "name_kana": "",
      "business_type": "",
      "address": "松江市東出雲町揖屋１１３４－１",
      "lat": 35.427930844,
      "lng": 133.153557301,
      "geocoding_level": 8,
      "phone": "0852-52-6850",
      "license_no": "029235022",
      "license_date": null,
      "expire_date": null
    },
    {
      "name": "イオン　菅田店　畜産",
      "name_kana": "",
      "business_type": "",
      "address": "松江市学園二丁目９－３９",
      "lat": 35.482420294,
      "lng": 133.064306313,
      "geocoding_level": 8,
      "phone": "0852-32-4321",
      "license_no": "029305002",
      "license_date": null,
      "expire_date": null
    },
    {
      "name": "スーパーマーケットひまり　精肉コーナー",
      "name_kana": "",
      "business_type": "",
      "address": "松江市大庭町１８０３－８",
      "lat": 35.434260627,
      "lng": 133.0849831,
      "geocoding_level": 8,
      "phone": "0852-32-3223",
      "license_no": "029305011",
      "license_date": null,
      "expire_date": null
    },
    {
      "name": "ラパン城北店",
      "name_kana": "",
      "business_type": "",
      "address": "松江市東奥谷町３７４－１",
      "lat": 35.485044,
      "lng": 133.056355,
      "geocoding_level": 3,
      "phone": "0852-27-3820",
      "license_no": "029305014",
      "license_date": null,
      "expire_date": null
    },
    {
      "name": "みしまや　学園店",
      "name_kana": "",
      "business_type": "",
      "address": "松江市学園二丁目３４－６",
      "lat": 35.481066883,
      "lng": 133.068973564,
      "geocoding_level": 8,
      "phone": "0852-24-5200",
      "license_no": "029305015",
      "license_date": null,
      "expire_date": null
    },
    {
      "name": "みしまや　田和山店",
      "name_kana": "",
      "business_type": "",
      "address": "松江市田和山町４１",
      "lat": 35.437788898,
      "lng": 133.049541366,
      "geocoding_level": 8,
      "phone": "0852-24-6700",
      "license_no": "029305019",
      "license_date": null,
      "expire_date": null
    },
    {
      "name": "みしまや　中原店",
      "name_kana": "",
      "business_type": "",
      "address": "松江市中原町１８０",
      "lat": 35.46835,
      "lng": 133.045517,
      "geocoding_level": 3,
      "phone": "0852-24-6300",
      "license_no": "029305022",
      "license_date": null,
      "expire_date": null
    },
    {
      "name": "イオン　菅田店　水産",
      "name_kana": "",
      "business_type": "",
      "address": "松江市学園二丁目９－３９",
      "lat": 35.482420294,
      "lng": 133.064306313,
      "geocoding_level": 8,
      "phone": "0852-32-4321",
      "license_no": "029315004",
      "license_date": null,
      "expire_date": null
    },
    {
      "name": "Ａコープふるえ",
      "name_kana": "",
      "business_type": "",
      "address": "松江市西浜佐陀町２４６－１",
      "lat": 35.47694,
      "lng": 133.012067,
      "geocoding_level": 3,
      "phone": "0852-36-6676",
      "license_no": "029315006",
      "license_date": null,
      "expire_date": null
    },
    {
      "name": "Ａコープたまゆ",
      "name_kana": "",
      "business_type": "",
      "address": "松江市玉湯町湯町１７８２－１",
      "lat": 35.430119888,
      "lng": 133.007541551,
      "geocoding_level": 8,
      "phone": "0852-62-1271",
      "license_no": "029315007",
      "license_date": null,
      "expire_date": null
    },
    {
      "name": "スーパーマーケットひまり　鮮魚コーナー",
      "name_kana": "",
      "business_type": "",
      "address": "松江市大庭町１８０３－８",
      "lat": 35.434260627,
      "lng": 133.0849831,
      "geocoding_level": 8,
      "phone": "0852-32-3223",
      "license_no": "029315017",
      "license_date": null,
      "expire_date": null
    },
    {
      "name": "フーズマーケットホック　津田店",
      "name_kana": "",
      "business_type": "",
      "address": "松江市東津田町１２１４",
      "lat": 35.45386,
      "lng": 133.091521,
      "geocoding_level": 3,
      "phone": "0852-26-6002",
      "license_no": "029315019",
      "license_date": null,
      "expire_date": null
    },
    {
      "name": "舛谷鮮魚店",
      "name_kana": "",
      "business_type": "",
      "address": "松江市美保関町美保関５４８",
      "lat": 35.563147352,
      "lng": 133.308510846,
      "geocoding_level": 8,
      "phone": "0852-73-0707",
      "license_no": "029315020",
      "license_date": null,
      "expire_date": null
    },
    {
      "name": "みしまや　田和山店",
      "name_kana": "",
      "business_type": "",
      "address": "松江市田和山町４１",
      "lat": 35.437788898,
      "lng": 133.049541366,
      "geocoding_level": 8,
      "phone": "0852-24-6700",
      "license_no": "029315023",
      "license_date": null,
      "expire_date": null
    },
    {
      "name": "みしまや　中原店",
      "name_kana": "",
      "business_type": "",
      "address": "松江市中原町１８０",
      "lat": 35.46835,
      "lng": 133.045517,
      "geocoding_level": 3,
      "phone": "0852-24-6300",
      "license_no": "029315025",
      "license_date": null,
      "expire_date": null
    },
    {
      "name": "ラパン城北店",
      "name_kana": "",
      "business_type": "",
      "address": "松江市東奥谷町３７４－１",
      "lat": 35.485044,
      "lng": 133.056355,
      "geocoding_level": 3,
      "phone": "0852-27-3820",
      "license_no": "029315035",
      "license_date": null,
      "expire_date": null
    },
    {
      "name": "有限会社　青山商店",
      "name_kana": "",
      "business_type": "",
      "address": "松江市中原町８８",
      "lat": 35.46835,
      "lng": 133.045517,
      "geocoding_level": 3,
      "phone": "0852-21-2675",
      "license_no": "029335001",
      "license_date": null,
      "expire_date": null
    },
    {
      "name": "株式会社　山光食品",
      "name_kana": "",
      "business_type": "",
      "address": "松江市宍道町佐々布８６８－５５",
      "lat": 35.374937122000006,
      "lng": 132.899240263,
      "geocoding_level": 8,
      "phone": "0852-66-3717",
      "license_no": "029385001",
      "license_date": null,
      "expire_date": null
    },
    {
      "name": "カフェ＆バー　ブリリオ",
      "name_kana": "",
      "business_type": "",
      "address": "松江市千鳥町３０",
      "lat": 35.4660665,
      "lng": 133.045245633,
      "geocoding_level": 8,
      "phone": "0852-22-0188",
      "license_no": "031210019",
      "license_date": null,
      "expire_date": null
    },
    {
      "name": "日清医療食品　松江赤十字病院",
      "name_kana": "",
      "business_type": "",
      "address": "松江市母衣町２００　松江赤十字病院",
      "lat": 35.472913,
      "lng": 133.056258,
      "geocoding_level": 3,
      "phone": "0852-24-2004",
      "license_no": "031210035",
      "license_date": null,
      "expire_date": null
    },
    {
      "name": "ＩＮーＦＯＲーＭ",
      "name_kana": "",
      "business_type": "",
      "address": "松江市寺町１９９－１　ノンデルビル１Ｆ－Ｂ",
      "lat": 35.463876552,
      "lng": 133.059077474,
      "geocoding_level": 8,
      "phone": "0852-20-7508",
      "license_no": "039210001",
      "license_date": null,
      "expire_date": null
    },
    {
      "name": "スカイラーク",
      "name_kana": "",
      "business_type": "",
      "address": "松江市伊勢宮町５３７－２１ オ－ガストビル１Ｆ",
      "lat": 35.466230454,
      "lng": 133.059956914,
      "geocoding_level": 8,
      "phone": "0852-21-5005",
      "license_no": "039210004",
      "license_date": null,
      "expire_date": null
    },
    {
      "name": "かねやす",
      "name_kana": "",
      "business_type": "",
      "address": "松江市御手船場町５６９－３",
      "lat": 35.465468582,
      "lng": 133.062510531,
      "geocoding_level": 8,
      "phone": "0852-21-0550",
      "license_no": "039210005",
      "license_date": null,
      "expire_date": null
    },
    {
      "name": "フーズマーケットホック　黒田店",
      "name_kana": "",
      "business_type": "",
      "address": "松江市黒田町４７３－１",
      "lat": 35.480466,
      "lng": 133.043976,
      "geocoding_level": 3,
      "phone": "0852-26-6004",
      "license_no": "039210006",
      "license_date": null,
      "expire_date": null
    },
    {
      "name": "アクセサリー　ながおか　茶房　さらさら",
      "name_kana": "",
      "business_type": "",
      "address": "松江市白潟本町１４－５",
      "lat": 35.466490756,
      "lng": 133.055150043,
      "geocoding_level": 8,
      "phone": "0852-21-4791",
      "license_no": "039210011",
      "license_date": null,
      "expire_date": null
    },
    {
      "name": "Ｆｒｏｍ　ｔｈｅ　ｎｉｇｈｔ 緋恋歌（あかれんが）",
      "name_kana": "",
      "business_type": "",
      "address": "松江市伊勢宮町５３５－２７　ファインスクエア３Ｆ",
      "lat": 35.465798973,
      "lng": 133.05936569,
      "geocoding_level": 8,
      "phone": "0852-31-3456",
      "license_no": "039210013",
      "license_date": null,
      "expire_date": null
    },
    {
      "name": "ワークスペース　さくらの家",
      "name_kana": "",
      "business_type": "",
      "address": "松江市東忌部町３１７３－１",
      "lat": 35.415105355,
      "lng": 133.040140469,
      "geocoding_level": 8,
      "phone": "0852-33-2661",
      "license_no": "039210015",
      "license_date": null,
      "expire_date": null
    },
    {
      "name": "浪花寿司",
      "name_kana": "",
      "business_type": "",
      "address": "松江市東茶町２７",
      "lat": 35.469464151,
      "lng": 133.053248633,
      "geocoding_level": 8,
      "phone": "0852-21-4540",
      "license_no": "039210023",
      "license_date": null,
      "expire_date": null
    },
    {
      "name": "スナック　六華仙",
      "name_kana": "",
      "business_type": "",
      "address": "松江市古志原一丁目１０－７",
      "lat": 35.445339725,
      "lng": 133.075502526,
      "geocoding_level": 8,
      "phone": "21-1284",
      "license_no": "039210024",
      "license_date": null,
      "expire_date": null
    },
    {
      "name": "喜久屋炊飯センター",
      "name_kana": "",
      "business_type": "",
      "address": "松江市宍道町昭和１００",
      "lat": 35.407833478,
      "lng": 132.904591293,
      "geocoding_level": 8,
      "phone": "0852-66-0707",
      "license_no": "039210025",
      "license_date": null,
      "expire_date": null
    },
    {
      "name": "パブスポット　ペペルモコ",
      "name_kana": "",
      "business_type": "",
      "address": "松江市伊勢宮町５３５－２６　ゆうぶん５３５ビル２Ｆ",
      "lat": 35.465520165,
      "lng": 133.059467618,
      "geocoding_level": 8,
      "phone": "26-6389",
      "license_no": "039210026",
      "license_date": null,
      "expire_date": null
    },
    {
      "name": "ナイトイン　上海",
      "name_kana": "",
      "business_type": "",
      "address": "松江市伊勢宮町５３７ 伊勢宮銀座ビル１Ｆ",
      "lat": 35.466193781,
      "lng": 133.059464435,
      "geocoding_level": 8,
      "phone": "0852-25-5238",
      "license_no": "039210034",
      "license_date": null,
      "expire_date": null
    },
    {
      "name": "スナック　ゆうか（優華）",
      "name_kana": "",
      "business_type": "",
      "address": "松江市東本町一丁目１８　１Ｆ",
      "lat": 35.468917739,
      "lng": 133.05644547100002,
      "geocoding_level": 8,
      "phone": "0852-25-4158",
      "license_no": "039210035",
      "license_date": null,
      "expire_date": null
    },
    {
      "name": "テツオ",
      "name_kana": "",
      "business_type": "",
      "address": "松江市寺町２０５－３　土井ビル１Ｆ",
      "lat": 35.463194061,
      "lng": 133.059680525,
      "geocoding_level": 8,
      "phone": "0852-27-7717",
      "license_no": "039210040",
      "license_date": null,
      "expire_date": null
    },
    {
      "name": "麦笛たまき　浜乃木店",
      "name_kana": "",
      "business_type": "",
      "address": "松江市浜乃木二丁目３－３５",
      "lat": 35.447697287,
      "lng": 133.055521583,
      "geocoding_level": 8,
      "phone": "0852-27-6600",
      "license_no": "039210054",
      "license_date": null,
      "expire_date": null
    },
    {
      "name": "出雲そば　たたらや",
      "name_kana": "",
      "business_type": "",
      "address": "松江市朝日町４７２－２ シャミネ松江コンコ－ス１Ｆ",
      "lat": 35.463860956,
      "lng": 133.063028229,
      "geocoding_level": 8,
      "phone": "0852-61-3750",
      "license_no": "039210056",
      "license_date": null,
      "expire_date": null
    },
    {
      "name": "森乃清夕堂",
      "name_kana": "",
      "business_type": "",
      "address": "松江市東本町一丁目３２－２",
      "lat": 35.468963,
      "lng": 133.056175,
      "geocoding_level": 3,
      "phone": "0852-67-3240",
      "license_no": "039210063",
      "license_date": null,
      "expire_date": null
    },
    {
      "name": "Ｌｅ　Ｒｅｓｔａｕｒａｎｔ　Ｈａｒａ",
      "name_kana": "",
      "business_type": "",
      "address": "松江市中原町５４　善栄ビル１Ｆ",
      "lat": 35.46835,
      "lng": 133.045517,
      "geocoding_level": 3,
      "phone": "0852-25-2010",
      "license_no": "039210074",
      "license_date": null,
      "expire_date": null
    },
    {
      "name": "株式会社　松江エクセルホテル東急",
      "name_kana": "",
      "business_type": "",
      "address": "松江市朝日町５９０　２Ｆ",
      "lat": 35.465321587,
      "lng": 133.064099107,
      "geocoding_level": 8,
      "phone": "0852-27-3158",
      "license_no": "039210081",
      "license_date": null,
      "expire_date": null
    },
    {
      "name": "ＲＥＳＴＡＵＲＡＮＴ　ＭＯＳＯＲＯ",
      "name_kana": "",
      "business_type": "",
      "address": "松江市朝日町５９０　１Ｆ",
      "lat": 35.465321587,
      "lng": 133.064099107,
      "geocoding_level": 8,
      "phone": "0852-27-3158",
      "license_no": "039210082",
      "license_date": null,
      "expire_date": null
    },
    {
      "name": "ヴィラ・ノッツェ　レガール松江",
      "name_kana": "",
      "business_type": "",
      "address": "松江市東出雲町錦浜５８３－１",
      "lat": 35.433108896,
      "lng": 133.142990985,
      "geocoding_level": 8,
      "phone": "0852-53-0561",
      "license_no": "039210083",
      "license_date": null,
      "expire_date": null
    },
    {
      "name": "お食事処　はせ川",
      "name_kana": "",
      "business_type": "",
      "address": "松江市東出雲町錦新町六丁目１－９ サンライズプラザ１０５号室",
      "lat": 35.430815,
      "lng": 133.139568,
      "geocoding_level": 3,
      "phone": "0852-52-6002",
      "license_no": "039210084",
      "license_date": null,
      "expire_date": null
    },
    {
      "name": "ケアハウス　やすらぎの里",
      "name_kana": "",
      "business_type": "",
      "address": "松江市佐草町２－２",
      "lat": 35.422535,
      "lng": 133.066967,
      "geocoding_level": 3,
      "phone": "0852-21-0897",
      "license_no": "039210087",
      "license_date": null,
      "expire_date": null
    },
    {
      "name": "春蘭",
      "name_kana": "",
      "business_type": "",
      "address": "松江市宍道町西来待７９０ 玉造温泉カントリ－クラブ　２Ｆ",
      "lat": 35.410438,
      "lng": 132.939164,
      "geocoding_level": 3,
      "phone": "0852-66-0031",
      "license_no": "039210088",
      "license_date": null,
      "expire_date": null
    },
    {
      "name": "千鳥亭",
      "name_kana": "",
      "business_type": "",
      "address": "松江市殿町５１７ アルファステイツ殿町　１Ｆ",
      "lat": 35.474303,
      "lng": 133.052059,
      "geocoding_level": 3,
      "phone": "0852-24-8763",
      "license_no": "039210092",
      "license_date": null,
      "expire_date": null
    },
    {
      "name": "松江月ヶ瀬",
      "name_kana": "",
      "business_type": "",
      "address": "松江市末次本町８７",
      "lat": 35.46958164200001,
      "lng": 133.054184544,
      "geocoding_level": 8,
      "phone": "21-2497",
      "license_no": "039210114",
      "license_date": null,
      "expire_date": null
    },
    {
      "name": "島根大学生活協同組合　第１食堂　ソーニョ",
      "name_kana": "",
      "business_type": "",
      "address": "松江市西川津町１０６０",
      "lat": 35.485705691,
      "lng": 133.067479593,
      "geocoding_level": 8,
      "phone": "0852-32-6245",
      "license_no": "039210117",
      "license_date": null,
      "expire_date": null
    },
    {
      "name": "プレジャー鹿島",
      "name_kana": "",
      "business_type": "",
      "address": "松江市鹿島町佐陀本郷２９５５",
      "lat": 35.532868351,
      "lng": 132.992853306,
      "geocoding_level": 8,
      "phone": "0852-82-3040",
      "license_no": "039210118",
      "license_date": null,
      "expire_date": null
    },
    {
      "name": "ホテル　玉泉",
      "name_kana": "",
      "business_type": "",
      "address": "松江市玉湯町玉造５３－２",
      "lat": 35.419646864,
      "lng": 133.010394281,
      "geocoding_level": 8,
      "phone": "0852-62-0022",
      "license_no": "039210125",
      "license_date": null,
      "expire_date": null
    },
    {
      "name": "東横イン松江駅前",
      "name_kana": "",
      "business_type": "",
      "address": "松江市朝日町４９８－１０",
      "lat": 35.46461378,
      "lng": 133.06044412,
      "geocoding_level": 8,
      "phone": "0852-60-1045",
      "license_no": "039210126",
      "license_date": null,
      "expire_date": null
    },
    {
      "name": "レストラン　ティラウンジ　アリエス",
      "name_kana": "",
      "business_type": "",
      "address": "松江市朝日町４６０－８ 松江駅前ユニバ－サルホテル１Ｆ",
      "lat": 35.464105,
      "lng": 133.062256,
      "geocoding_level": 3,
      "phone": "0852-28-3000",
      "license_no": "039210134",
      "license_date": null,
      "expire_date": null
    },
    {
      "name": "喜久屋",
      "name_kana": "",
      "business_type": "",
      "address": "松江市宍道町昭和１００",
      "lat": 35.407833478,
      "lng": 132.904591293,
      "geocoding_level": 8,
      "phone": "0852-66-0707",
      "license_no": "039230004",
      "license_date": null,
      "expire_date": null
    },
    {
      "name": "株式会社　松江エクセルホテル東急　ペストリー室",
      "name_kana": "",
      "business_type": "",
      "address": "松江市朝日町５９０　３Ｆ",
      "lat": 35.465321587,
      "lng": 133.064099107,
      "geocoding_level": 8,
      "phone": "0852-27-3158",
      "license_no": "039230012",
      "license_date": null,
      "expire_date": null
    },
    {
      "name": "松江月ヶ瀬",
      "name_kana": "",
      "business_type": "",
      "address": "松江市末次本町８７",
      "lat": 35.46958164200001,
      "lng": 133.054184544,
      "geocoding_level": 8,
      "phone": "21-2497",
      "license_no": "039230014",
      "license_date": null,
      "expire_date": null
    },
    {
      "name": "茶房一望",
      "name_kana": "",
      "business_type": "",
      "address": "松江市八束町波入１２６０－２",
      "lat": 35.491212522,
      "lng": 133.176202513,
      "geocoding_level": 8,
      "phone": "0852-76-2255",
      "license_no": "039250001",
      "license_date": null,
      "expire_date": null
    },
    {
      "name": "プレジャー鹿島",
      "name_kana": "",
      "business_type": "",
      "address": "松江市鹿島町佐陀本郷２９５５",
      "lat": 35.532868351,
      "lng": 132.992853306,
      "geocoding_level": 8,
      "phone": "0852-82-3040",
      "license_no": "039250003",
      "license_date": null,
      "expire_date": null
    },
    {
      "name": "有限会社　白銀屋商店アイパルテ",
      "name_kana": "",
      "business_type": "",
      "address": "松江市東出雲町錦新町八丁目１－３",
      "lat": 35.433388,
      "lng": 133.140923,
      "geocoding_level": 3,
      "phone": "0852-52-7614",
      "license_no": "039290001",
      "license_date": null,
      "expire_date": null
    },
    {
      "name": "フーズマーケットホック　茶山店",
      "name_kana": "",
      "business_type": "",
      "address": "松江市上乃木九丁目３－１２",
      "lat": 35.443291676,
      "lng": 133.064112928,
      "geocoding_level": 8,
      "phone": "0852-26-6003",
      "license_no": "039310002",
      "license_date": null,
      "expire_date": null
    },
    {
      "name": "八雲構造改善センターむらの駅やくも農産加工室",
      "name_kana": "",
      "business_type": "",
      "address": "松江市八雲町西岩坂３８５６－１",
      "lat": 35.403294866,
      "lng": 133.098777481,
      "geocoding_level": 8,
      "phone": "0852-54-0600",
      "license_no": "039380003",
      "license_date": null,
      "expire_date": null
    },
    {
      "name": "とめらんど",
      "name_kana": "",
      "business_type": "",
      "address": "松江市東本町一丁目４１　２Ｆ",
      "lat": 35.469141723,
      "lng": 133.056354785,
      "geocoding_level": 8,
      "phone": "0852-28-5464",
      "license_no": "039560003",
      "license_date": null,
      "expire_date": null
    },
    {
      "name": "ゆうてん農園マーケット",
      "name_kana": "",
      "business_type": "",
      "address": "松江市浜佐田町９２０",
      "lat": 35.477911,
      "lng": 133.027299,
      "geocoding_level": 3,
      "phone": "",
      "license_no": "039560004",
      "license_date": null,
      "expire_date": null
    },
    {
      "name": "ｋｅｎ´ｚ　ｋｉｔｃｈｅｎ",
      "name_kana": "",
      "business_type": "",
      "address": "松江市東出雲町揖屋２７５１－４６（県内一円）",
      "lat": 35.445376759,
      "lng": 133.160470534,
      "geocoding_level": 8,
      "phone": "",
      "license_no": "039560005",
      "license_date": null,
      "expire_date": null
    },
    {
      "name": "松江西津田ショートステイそよ風",
      "name_kana": "",
      "business_type": "",
      "address": "松江市西津田二丁目８－２０",
      "lat": 35.46053248,
      "lng": 133.076249075,
      "geocoding_level": 8,
      "phone": "0852-20-9560",
      "license_no": "039560007",
      "license_date": null,
      "expire_date": null
    },
    {
      "name": "ｓｎａｃｋ　Ｆｒｅｅ",
      "name_kana": "",
      "business_type": "",
      "address": "松江市宍道町昭和１２２",
      "lat": 35.408085479,
      "lng": 132.905353308,
      "geocoding_level": 8,
      "phone": "0852-66-0881",
      "license_no": "039560008",
      "license_date": null,
      "expire_date": null
    },
    {
      "name": "ホテル一畑　１Ｆパントリー",
      "name_kana": "",
      "business_type": "",
      "address": "松江市千鳥町３０",
      "lat": 35.4660665,
      "lng": 133.045245633,
      "geocoding_level": 8,
      "phone": "0852-22-0188",
      "license_no": "039560010",
      "license_date": null,
      "expire_date": null
    },
    {
      "name": "デイサービスわかくさ",
      "name_kana": "",
      "business_type": "",
      "address": "松江市朝酌町２８－１",
      "lat": 35.467962,
      "lng": 133.10705,
      "geocoding_level": 3,
      "phone": "0852-39-9077",
      "license_no": "039560011",
      "license_date": null,
      "expire_date": null
    },
    {
      "name": "シニアコート上乃木七丁目ラウンジ",
      "name_kana": "",
      "business_type": "",
      "address": "松江市上乃木七丁目２－２２",
      "lat": 35.446090878,
      "lng": 133.068887146,
      "geocoding_level": 8,
      "phone": "0852-67-7561",
      "license_no": "039560012",
      "license_date": null,
      "expire_date": null
    },
    {
      "name": "シニアコート上乃木七丁目　レストラン百彩",
      "name_kana": "",
      "business_type": "",
      "address": "松江市上乃木七丁目２－２２",
      "lat": 35.446090878,
      "lng": 133.068887146,
      "geocoding_level": 8,
      "phone": "0852-67-7561",
      "license_no": "039560013",
      "license_date": null,
      "expire_date": null
    },
    {
      "name": "入江",
      "name_kana": "",
      "business_type": "",
      "address": "松江市寺町２０３－１　バースデービル２Ｆ",
      "lat": 35.463386425,
      "lng": 133.05893705,
      "geocoding_level": 8,
      "phone": "",
      "license_no": "039560015",
      "license_date": null,
      "expire_date": null
    },
    {
      "name": "坂口や",
      "name_kana": "",
      "business_type": "",
      "address": "松江市八幡町３３０－１",
      "lat": 35.447408,
      "lng": 133.126382,
      "geocoding_level": 3,
      "phone": "0852-37-2550",
      "license_no": "039560016",
      "license_date": null,
      "expire_date": null
    },
    {
      "name": "（有）青山珈琲",
      "name_kana": "",
      "business_type": "",
      "address": "松江市上乃木三丁目１３－２０（県内一円）",
      "lat": 35.446265384,
      "lng": 133.061508737,
      "geocoding_level": 8,
      "phone": "",
      "license_no": "039560020",
      "license_date": null,
      "expire_date": null
    },
    {
      "name": "塩見縄手醫　事業所",
      "name_kana": "",
      "business_type": "",
      "address": "松江市北堀町１４",
      "lat": 35.477653,
      "lng": 133.054635,
      "geocoding_level": 3,
      "phone": "",
      "license_no": "039560021",
      "license_date": null,
      "expire_date": null
    },
    {
      "name": "株式会社　フーズマーケットホック　黒田店",
      "name_kana": "",
      "business_type": "",
      "address": "松江市黒田町４７３－１（県内一円）",
      "lat": 35.480466,
      "lng": 133.043976,
      "geocoding_level": 3,
      "phone": "0852-26-6004",
      "license_no": "039560022",
      "license_date": null,
      "expire_date": null
    },
    {
      "name": "ｔｏ　ｌｏｖｅｄ　ｏｎｅｓ",
      "name_kana": "",
      "business_type": "",
      "address": "松江市西茶町２５",
      "lat": 35.469118,
      "lng": 133.050552,
      "geocoding_level": 3,
      "phone": "0852-67-7985",
      "license_no": "039560023",
      "license_date": null,
      "expire_date": null
    },
    {
      "name": "まるこし",
      "name_kana": "",
      "business_type": "",
      "address": "松江市古志原一丁目３－２３",
      "lat": 35.445167066,
      "lng": 133.072391846,
      "geocoding_level": 8,
      "phone": "",
      "license_no": "039560024",
      "license_date": null,
      "expire_date": null
    },
    {
      "name": "創作ダイニング　類友",
      "name_kana": "",
      "business_type": "",
      "address": "松江市伊勢宮町５２３－６　リーシュビル１Ｆ",
      "lat": 35.465949633,
      "lng": 133.061051636,
      "geocoding_level": 8,
      "phone": "",
      "license_no": "039560025",
      "license_date": null,
      "expire_date": null
    },
    {
      "name": "ＡＴＦＯＯＤ",
      "name_kana": "",
      "business_type": "",
      "address": "松江市朝日町４８７－４７",
      "lat": 35.463443734,
      "lng": 133.060298612,
      "geocoding_level": 8,
      "phone": "",
      "license_no": "039560026",
      "license_date": null,
      "expire_date": null
    },
    {
      "name": "えっちゃん",
      "name_kana": "",
      "business_type": "",
      "address": "松江市東津田町１１９８－４　森脇ビル２０１号室 エトワール（県内一円）",
      "lat": 35.456122311,
      "lng": 133.082549845,
      "geocoding_level": 8,
      "phone": "",
      "license_no": "039560027",
      "license_date": null,
      "expire_date": null
    },
    {
      "name": "くいもんや　遊食庭",
      "name_kana": "",
      "business_type": "",
      "address": "松江市浜乃木二丁目２－１　セントラルハイツ１Ｆ",
      "lat": 35.447758502,
      "lng": 133.05507546,
      "geocoding_level": 8,
      "phone": "0852-59-3833",
      "license_no": "039560028",
      "license_date": null,
      "expire_date": null
    },
    {
      "name": "タイトアイズ",
      "name_kana": "",
      "business_type": "",
      "address": "松江市伊勢宮町５１７－１　ユーアイビル３Ｆ",
      "lat": 35.465515836,
      "lng": 133.060818031,
      "geocoding_level": 8,
      "phone": "",
      "license_no": "039560031",
      "license_date": null,
      "expire_date": null
    },
    {
      "name": "かきんど",
      "name_kana": "",
      "business_type": "",
      "address": "松江市秋鹿町４２０３",
      "lat": 35.496685,
      "lng": 132.95312,
      "geocoding_level": 3,
      "phone": "",
      "license_no": "039560032",
      "license_date": null,
      "expire_date": null
    },
    {
      "name": "領家",
      "name_kana": "",
      "business_type": "",
      "address": "鳥取県米子市和田町６１６－１－３０１（県内一円）",
      "lat": 35.472212,
      "lng": 133.05053,
      "geocoding_level": 1,
      "phone": "",
      "license_no": "039560033",
      "license_date": null,
      "expire_date": null
    },
    {
      "name": "めん宝　松江",
      "name_kana": "",
      "business_type": "",
      "address": "松江市東朝日町１５１　イオン松江ショッピングセンター３Ｆフードコート",
      "lat": 35.463420659,
      "lng": 133.068704826,
      "geocoding_level": 8,
      "phone": "0852-55-6611",
      "license_no": "039560034",
      "license_date": null,
      "expire_date": null
    },
    {
      "name": "Ｓｈａｎｔｉ　Ｂａｒ（シャンティ・バール）",
      "name_kana": "",
      "business_type": "",
      "address": "鳥取県境港市京町１０５、１０６（島根県内一円）",
      "lat": 35.472212,
      "lng": 133.05053,
      "geocoding_level": 1,
      "phone": "",
      "license_no": "039560035",
      "license_date": null,
      "expire_date": null
    },
    {
      "name": "シニアステージ嫁島町ラウンジ",
      "name_kana": "",
      "business_type": "",
      "address": "松江市嫁島町１４－３３",
      "lat": 35.451265288,
      "lng": 133.048752605,
      "geocoding_level": 8,
      "phone": "0852-67-7821",
      "license_no": "039560037",
      "license_date": null,
      "expire_date": null
    },
    {
      "name": "シニアステージ嫁島町　レストラン百彩",
      "name_kana": "",
      "business_type": "",
      "address": "松江市嫁島町１４－３３",
      "lat": 35.451265288,
      "lng": 133.048752605,
      "geocoding_level": 8,
      "phone": "0852-67-5484",
      "license_no": "039560038",
      "license_date": null,
      "expire_date": null
    },
    {
      "name": "ローソン　東出雲ホープフルタウン",
      "name_kana": "",
      "business_type": "",
      "address": "松江市東出雲町意宇東一丁目６－５",
      "lat": 35.436185,
      "lng": 133.136502,
      "geocoding_level": 3,
      "phone": "0852-53-0112",
      "license_no": "039560039",
      "license_date": null,
      "expire_date": null
    },
    {
      "name": "スナック　ズー",
      "name_kana": "",
      "business_type": "",
      "address": "松江市伊勢宮町５１４　アクアビル１Ｆ",
      "lat": 35.465458659,
      "lng": 133.060368174,
      "geocoding_level": 8,
      "phone": "0852-24-4054",
      "license_no": "039560040",
      "license_date": null,
      "expire_date": null
    },
    {
      "name": "ファミリーマート　松江竹矢店",
      "name_kana": "",
      "business_type": "",
      "address": "松江市竹矢町１７４６－４",
      "lat": 35.43632998100001,
      "lng": 133.122139673,
      "geocoding_level": 8,
      "phone": "0852-38-8115",
      "license_no": "039560041",
      "license_date": null,
      "expire_date": null
    },
    {
      "name": "情熱中華食堂　炎",
      "name_kana": "",
      "business_type": "",
      "address": "松江市学園二丁目２２－１７",
      "lat": 35.481335842,
      "lng": 133.068814864,
      "geocoding_level": 8,
      "phone": "0852-59-9524",
      "license_no": "039560044",
      "license_date": null,
      "expire_date": null
    },
    {
      "name": "ラウンジ白雪",
      "name_kana": "",
      "business_type": "",
      "address": "松江市東本町一丁目３７　福神ビル２Ｆ",
      "lat": 35.469127753,
      "lng": 133.056081881,
      "geocoding_level": 8,
      "phone": "",
      "license_no": "039560045",
      "license_date": null,
      "expire_date": null
    },
    {
      "name": "Ｌａｅｔｉｃｉａ",
      "name_kana": "",
      "business_type": "",
      "address": "松江市伊勢宮町５３５－２７　ファインスクエアビル１F",
      "lat": 35.465798973,
      "lng": 133.05936569,
      "geocoding_level": 8,
      "phone": "0852-27-8330",
      "license_no": "039560046",
      "license_date": null,
      "expire_date": null
    },
    {
      "name": "ｆｌａｔｐｌｕｓ",
      "name_kana": "",
      "business_type": "",
      "address": "松江市西川津町４０４０－２　１０３（県内一円）",
      "lat": 35.482783365,
      "lng": 133.071400552,
      "geocoding_level": 8,
      "phone": "",
      "license_no": "039560047",
      "license_date": null,
      "expire_date": null
    },
    {
      "name": "ｃａｆｅ　Ｒｏｏｍ",
      "name_kana": "",
      "business_type": "",
      "address": "松江市西川津町４０４０－２　１０３",
      "lat": 35.482783365,
      "lng": 133.071400552,
      "geocoding_level": 8,
      "phone": "",
      "license_no": "039560048",
      "license_date": null,
      "expire_date": null
    },
    {
      "name": "ファミリーマート　外中原町",
      "name_kana": "",
      "business_type": "",
      "address": "松江市外中原町９９",
      "lat": 35.471028,
      "lng": 133.04223,
      "geocoding_level": 3,
      "phone": "0852-60-0072",
      "license_no": "039560049",
      "license_date": null,
      "expire_date": null
    },
    {
      "name": "からあげ　やきとり　ひとみ",
      "name_kana": "",
      "business_type": "",
      "address": "松江市東津田町１１４３－２（県内一円）",
      "lat": 35.457851751,
      "lng": 133.083365643,
      "geocoding_level": 8,
      "phone": "0852-23-4141",
      "license_no": "039560050",
      "license_date": null,
      "expire_date": null
    },
    {
      "name": "ｃｉｅｌｏｘｘ",
      "name_kana": "",
      "business_type": "",
      "address": "松江市東出雲町揖屋２０３５－３－５２４（県内一円）",
      "lat": 35.429318,
      "lng": 133.153623,
      "geocoding_level": 3,
      "phone": "",
      "license_no": "039560052",
      "license_date": null,
      "expire_date": null
    },
    {
      "name": "ＣＨＯＡ　ＣＨＩＣＫＥＮ　学園店",
      "name_kana": "",
      "business_type": "",
      "address": "松江市学園二丁目２４－１",
      "lat": 35.48291151,
      "lng": 133.068328921,
      "geocoding_level": 8,
      "phone": "",
      "license_no": "039560053",
      "license_date": null,
      "expire_date": null
    },
    {
      "name": "ｆｌａｐ",
      "name_kana": "",
      "business_type": "",
      "address": "大阪府堺市北区北花田町四丁目１０４－２７（島根県内一円）",
      "lat": 35.472212,
      "lng": 133.05053,
      "geocoding_level": 1,
      "phone": "",
      "license_no": "039560054",
      "license_date": null,
      "expire_date": null
    },
    {
      "name": "Ｈａｐｐｙ",
      "name_kana": "",
      "business_type": "",
      "address": "松江市東出雲町揖屋５８９－３",
      "lat": 35.427609085,
      "lng": 133.144790973,
      "geocoding_level": 8,
      "phone": "0852-61-5906",
      "license_no": "039560055",
      "license_date": null,
      "expire_date": null
    },
    {
      "name": "Ｃａｆｅ　Ｓｈｉｍｍｅｒ",
      "name_kana": "",
      "business_type": "",
      "address": "松江市宍道町上来待１２６－５",
      "lat": 35.405842758000006,
      "lng": 132.956999417,
      "geocoding_level": 8,
      "phone": "0852-66-0013",
      "license_no": "039560056",
      "license_date": null,
      "expire_date": null
    },
    {
      "name": "丘の上珈琲",
      "name_kana": "",
      "business_type": "",
      "address": "松江市大庭町１６１４",
      "lat": 35.429585,
      "lng": 133.08335900000003,
      "geocoding_level": 3,
      "phone": "0852-28-0040",
      "license_no": "039560059",
      "license_date": null,
      "expire_date": null
    },
    {
      "name": "和楽庵　酒井",
      "name_kana": "",
      "business_type": "",
      "address": "松江市伊勢宮町５３２－１　かわせＩＳＥＭＩＹＡビル１Ｆ",
      "lat": 35.465877694,
      "lng": 133.060047858,
      "geocoding_level": 8,
      "phone": "",
      "license_no": "039560060",
      "license_date": null,
      "expire_date": null
    },
    {
      "name": "ＬＡＭＰ",
      "name_kana": "",
      "business_type": "",
      "address": "松江市寺町２０９－７",
      "lat": 35.462273609,
      "lng": 133.05853766,
      "geocoding_level": 8,
      "phone": "",
      "license_no": "039560061",
      "license_date": null,
      "expire_date": null
    },
    {
      "name": "カフェ太郎",
      "name_kana": "",
      "business_type": "",
      "address": "松江市西法吉町３６－２８",
      "lat": 35.493695923,
      "lng": 133.04456485,
      "geocoding_level": 8,
      "phone": "0852-60-6305",
      "license_no": "039560062",
      "license_date": null,
      "expire_date": null
    },
    {
      "name": "Ｋｕｒｏｏｂｉ",
      "name_kana": "",
      "business_type": "",
      "address": "松江市伊勢宮町５３５－１４　レインボービル２Ｆ",
      "lat": 35.465430695,
      "lng": 133.059655418,
      "geocoding_level": 8,
      "phone": "",
      "license_no": "039560064",
      "license_date": null,
      "expire_date": null
    },
    {
      "name": "大衆酒場　串かっちゃん",
      "name_kana": "",
      "business_type": "",
      "address": "松江市寺町２１１－４",
      "lat": 35.462729909,
      "lng": 133.059746233,
      "geocoding_level": 8,
      "phone": "0852-61-8194",
      "license_no": "039560065",
      "license_date": null,
      "expire_date": null
    },
    {
      "name": "ＲＡＫＵ²",
      "name_kana": "",
      "business_type": "",
      "address": "松江市伊勢宮町５２８　新天地Ⅱビル",
      "lat": 35.466178,
      "lng": 133.060295,
      "geocoding_level": 3,
      "phone": "",
      "license_no": "039560066",
      "license_date": null,
      "expire_date": null
    },
    {
      "name": "初音寿司",
      "name_kana": "",
      "business_type": "",
      "address": "松江市魚町７－７",
      "lat": 35.466621065,
      "lng": 133.054411801,
      "geocoding_level": 8,
      "phone": "0852-22-1779",
      "license_no": "039560067",
      "license_date": null,
      "expire_date": null
    },
    {
      "name": "大衆酒場　串かっちゃんのカラオケ館",
      "name_kana": "",
      "business_type": "",
      "address": "松江市寺町１９９－１　ノンデルビル１Ｆ",
      "lat": 35.463876552,
      "lng": 133.059077474,
      "geocoding_level": 8,
      "phone": "0852-67-2980",
      "license_no": "039560069",
      "license_date": null,
      "expire_date": null
    },
    {
      "name": "入来舎（はいらいや）",
      "name_kana": "",
      "business_type": "",
      "address": "松江市美保関町美保関５１２",
      "lat": 35.566479,
      "lng": 133.308895,
      "geocoding_level": 3,
      "phone": "0852-73-0011",
      "license_no": "039560071",
      "license_date": null,
      "expire_date": null
    },
    {
      "name": "中村",
      "name_kana": "",
      "business_type": "",
      "address": "松江市伊勢宮町５２８　ＤＡＮＤＡＮビル１Ｆ",
      "lat": 35.466178,
      "lng": 133.060295,
      "geocoding_level": 3,
      "phone": "",
      "license_no": "039560072",
      "license_date": null,
      "expire_date": null
    },
    {
      "name": "ＴＨＥ　ＲＯＳＥ",
      "name_kana": "",
      "business_type": "",
      "address": "松江市伊勢宮町５３７－７　クイーンズビル２０２",
      "lat": 35.466350225,
      "lng": 133.060168018,
      "geocoding_level": 8,
      "phone": "",
      "license_no": "039560073",
      "license_date": null,
      "expire_date": null
    },
    {
      "name": "レッツゴー",
      "name_kana": "",
      "business_type": "",
      "address": "松江市伊勢宮町５３５－２２ ジラフスールビル３Ｆ３０１号",
      "lat": 35.465740433,
      "lng": 133.05932551,
      "geocoding_level": 8,
      "phone": "",
      "license_no": "039560074",
      "license_date": null,
      "expire_date": null
    },
    {
      "name": "ほっかほっか亭　合同庁舎前店",
      "name_kana": "",
      "business_type": "",
      "address": "松江市古志原三丁目１８－１０　Ｋスクエア１Ｆ",
      "lat": 35.44704,
      "lng": 133.082129,
      "geocoding_level": 3,
      "phone": "0852-60-7555",
      "license_no": "039560075",
      "license_date": null,
      "expire_date": null
    },
    {
      "name": "白洗舎　上乃木南店",
      "name_kana": "",
      "business_type": "",
      "address": "松江市上乃木四丁目３０－２８",
      "lat": 35.442959329,
      "lng": 133.061493857,
      "geocoding_level": 8,
      "phone": "0852-67-3696",
      "license_no": "039560076",
      "license_date": null,
      "expire_date": null
    },
    {
      "name": "ほっともっと　松江上乃木店",
      "name_kana": "",
      "business_type": "",
      "address": "松江市上乃木四丁目６－１０",
      "lat": 35.446312517,
      "lng": 133.059927512,
      "geocoding_level": 8,
      "phone": "0852-26-3300",
      "license_no": "039560078",
      "license_date": null,
      "expire_date": null
    },
    {
      "name": "ｉｖｉ　ｃａｆｅ",
      "name_kana": "",
      "business_type": "",
      "address": "松江市八雲町熊野１８１－３",
      "lat": 35.394353258,
      "lng": 133.08161188,
      "geocoding_level": 8,
      "phone": "0852-61-2662",
      "license_no": "039560079",
      "license_date": null,
      "expire_date": null
    },
    {
      "name": "アスターズカラー",
      "name_kana": "",
      "business_type": "",
      "address": "松江市東出雲町須田１１６１",
      "lat": 35.413220892,
      "lng": 133.131305696,
      "geocoding_level": 8,
      "phone": "0852-52-2046",
      "license_no": "039560080",
      "license_date": null,
      "expire_date": null
    },
    {
      "name": "グラッパ",
      "name_kana": "",
      "business_type": "",
      "address": "松江市西津田六丁目１－３２",
      "lat": 35.457588516,
      "lng": 133.067821789,
      "geocoding_level": 8,
      "phone": "0852-25-9713",
      "license_no": "039560081",
      "license_date": null,
      "expire_date": null
    },
    {
      "name": "カフェふむふむ",
      "name_kana": "",
      "business_type": "",
      "address": "松江市山代町４７２－２",
      "lat": 35.437132,
      "lng": 133.093876,
      "geocoding_level": 3,
      "phone": "0852-61-1470",
      "license_no": "039560082",
      "license_date": null,
      "expire_date": null
    },
    {
      "name": "湊商店",
      "name_kana": "",
      "business_type": "",
      "address": "広島県広島市南区皆実町三丁目 キャビンガレージ２６（島根県内一円）",
      "lat": 35.472212,
      "lng": 133.05053,
      "geocoding_level": 1,
      "phone": "",
      "license_no": "039560084",
      "license_date": null,
      "expire_date": null
    },
    {
      "name": "ドトールコーヒーショップ　シャミネ松江店",
      "name_kana": "",
      "business_type": "",
      "address": "松江市朝日町４７２－２　シャミネ松江",
      "lat": 35.463860956,
      "lng": 133.063028229,
      "geocoding_level": 8,
      "phone": "0852-24-3988",
      "license_no": "039560085",
      "license_date": null,
      "expire_date": null
    },
    {
      "name": "ローソン　東出雲錦新町店",
      "name_kana": "",
      "business_type": "",
      "address": "松江市東出雲町錦新町七丁目１－１６",
      "lat": 35.430574,
      "lng": 133.14193,
      "geocoding_level": 3,
      "phone": "0852-52-6827",
      "license_no": "039560086",
      "license_date": null,
      "expire_date": null
    },
    {
      "name": "ローソン　東出雲ホープフルタウン店",
      "name_kana": "",
      "business_type": "",
      "address": "松江市東出雲町意宇東一丁目６－５",
      "lat": 35.436185,
      "lng": 133.136502,
      "geocoding_level": 3,
      "phone": "0852-53-0112",
      "license_no": "039560087",
      "license_date": null,
      "expire_date": null
    },
    {
      "name": "Ｌ－ｎｅｘｔ－",
      "name_kana": "",
      "business_type": "",
      "address": "松江市東本町一丁目７６",
      "lat": 35.469413635,
      "lng": 133.056509455,
      "geocoding_level": 8,
      "phone": "",
      "license_no": "039560088",
      "license_date": null,
      "expire_date": null
    },
    {
      "name": "Ｂｏｏｋｃａｆｅ　ＤＯＯＲ　松江",
      "name_kana": "",
      "business_type": "",
      "address": "松江市天神町１２７",
      "lat": 35.464140262,
      "lng": 133.056253454,
      "geocoding_level": 8,
      "phone": "",
      "license_no": "039560089",
      "license_date": null,
      "expire_date": null
    },
    {
      "name": "現進　はなれ",
      "name_kana": "",
      "business_type": "",
      "address": "松江市西川津町８４９－１　シティメディア松江１Ｆ",
      "lat": 35.482232,
      "lng": 133.078382,
      "geocoding_level": 3,
      "phone": "",
      "license_no": "039560090",
      "license_date": null,
      "expire_date": null
    },
    {
      "name": "名物あごだし白湯らぁめん　ひばり",
      "name_kana": "",
      "business_type": "",
      "address": "松江市西川津町６１３－２",
      "lat": 35.494110733,
      "lng": 133.076990539,
      "geocoding_level": 8,
      "phone": "",
      "license_no": "039560091",
      "license_date": null,
      "expire_date": null
    },
    {
      "name": "焼肉竹山　寺町店",
      "name_kana": "",
      "business_type": "",
      "address": "松江市寺町２０６－１５",
      "lat": 35.462989354,
      "lng": 133.05848977,
      "geocoding_level": 8,
      "phone": "0852-24-2317",
      "license_no": "039560093",
      "license_date": null,
      "expire_date": null
    },
    {
      "name": "キッチンおおはし",
      "name_kana": "",
      "business_type": "",
      "address": "松江市東本町三丁目５３－２",
      "lat": 35.469424175,
      "lng": 133.058794799,
      "geocoding_level": 8,
      "phone": "",
      "license_no": "039560094",
      "license_date": null,
      "expire_date": null
    },
    {
      "name": "ローソン　松江学園二丁目店",
      "name_kana": "",
      "business_type": "",
      "address": "松江市学園二丁目１０－９",
      "lat": 35.483735122,
      "lng": 133.065036028,
      "geocoding_level": 8,
      "phone": "0852-27-8900",
      "license_no": "039560095",
      "license_date": null,
      "expire_date": null
    },
    {
      "name": "松江ゲストハウスｃａｆｅ",
      "name_kana": "",
      "business_type": "",
      "address": "松江市寺町２０３－１",
      "lat": 35.463386425,
      "lng": 133.05893705,
      "geocoding_level": 8,
      "phone": "",
      "license_no": "039560096",
      "license_date": null,
      "expire_date": null
    },
    {
      "name": "株式会社　山京",
      "name_kana": "",
      "business_type": "",
      "address": "松江市平成町１８２－１７",
      "lat": 35.429536,
      "lng": 133.056745,
      "geocoding_level": 3,
      "phone": "0852-27-0080",
      "license_no": "039560097",
      "license_date": null,
      "expire_date": null
    },
    {
      "name": "ワインショップ＆バー　ショウジ",
      "name_kana": "",
      "business_type": "",
      "address": "松江市寺町１９８－６",
      "lat": 35.463605,
      "lng": 133.058178,
      "geocoding_level": 3,
      "phone": "0852-24-0345",
      "license_no": "039560098",
      "license_date": null,
      "expire_date": null
    },
    {
      "name": "ＢＯＡＢＯＡ",
      "name_kana": "",
      "business_type": "",
      "address": "松江市殿町３３６",
      "lat": 35.474303,
      "lng": 133.052059,
      "geocoding_level": 3,
      "phone": "",
      "license_no": "039560099",
      "license_date": null,
      "expire_date": null
    },
    {
      "name": "松江サップ＆カフェ",
      "name_kana": "",
      "business_type": "",
      "address": "松江市国屋町４９８－４",
      "lat": 35.467893,
      "lng": 133.035873,
      "geocoding_level": 3,
      "phone": "",
      "license_no": "039560100",
      "license_date": null,
      "expire_date": null
    },
    {
      "name": "ほしのかず",
      "name_kana": "",
      "business_type": "",
      "address": "松江市八束町遅江１２１６（県内一円）",
      "lat": 35.494212999,
      "lng": 133.185018238,
      "geocoding_level": 8,
      "phone": "",
      "license_no": "039560101",
      "license_date": null,
      "expire_date": null
    },
    {
      "name": "Ｒａｒｔｈｅ",
      "name_kana": "",
      "business_type": "",
      "address": "松江市島根町大芦１６２４",
      "lat": 35.546462,
      "lng": 133.054741,
      "geocoding_level": 3,
      "phone": "",
      "license_no": "039560102",
      "license_date": null,
      "expire_date": null
    },
    {
      "name": "ゼネラルスタッフ",
      "name_kana": "",
      "business_type": "",
      "address": "兵庫県姫路市夢前町寺８５９（島根県内一円）",
      "lat": 35.472212,
      "lng": 133.05053,
      "geocoding_level": 1,
      "phone": "079-335-3188",
      "license_no": "039560103",
      "license_date": null,
      "expire_date": null
    },
    {
      "name": "イオン松江店　デリカ",
      "name_kana": "",
      "business_type": "",
      "address": "松江市東朝日町１５１　イオン松江店１Ｆ",
      "lat": 35.463420659,
      "lng": 133.068704826,
      "geocoding_level": 8,
      "phone": "0852-32-2121",
      "license_no": "039560105",
      "license_date": null,
      "expire_date": null
    },
    {
      "name": "四方",
      "name_kana": "",
      "business_type": "",
      "address": "松江市殿町３２０",
      "lat": 35.474303,
      "lng": 133.052059,
      "geocoding_level": 3,
      "phone": "",
      "license_no": "039560106",
      "license_date": null,
      "expire_date": null
    },
    {
      "name": "Ｊａｎｄｓ　ｂｕｒｇｅｒｓ　ｃａｆｅ",
      "name_kana": "",
      "business_type": "",
      "address": "松江市学園二丁目１６－２３　久保田ビル１Ｆ",
      "lat": 35.484463831,
      "lng": 133.067939088,
      "geocoding_level": 8,
      "phone": "",
      "license_no": "039560107",
      "license_date": null,
      "expire_date": null
    },
    {
      "name": "ＬＯＵＮＧＥ　ＪＥＷＥＬ",
      "name_kana": "",
      "business_type": "",
      "address": "松江市伊勢宮町５３５－１０　アークビル２Ｆ",
      "lat": 35.465853391,
      "lng": 133.059753833,
      "geocoding_level": 8,
      "phone": "",
      "license_no": "039560110",
      "license_date": null,
      "expire_date": null
    },
    {
      "name": "永幸丸",
      "name_kana": "",
      "business_type": "",
      "address": "松江市島根町野井６７８－４",
      "lat": 35.578607037,
      "lng": 133.119728492,
      "geocoding_level": 8,
      "phone": "",
      "license_no": "039560111",
      "license_date": null,
      "expire_date": null
    },
    {
      "name": "ＳＯＭＡ",
      "name_kana": "",
      "business_type": "",
      "address": "松江市東本町一丁目３６　３６ビル１Ｆ",
      "lat": 35.469127154,
      "lng": 133.056035264,
      "geocoding_level": 8,
      "phone": "",
      "license_no": "039560112",
      "license_date": null,
      "expire_date": null
    },
    {
      "name": "ファミリーマート　松江袖師店",
      "name_kana": "",
      "business_type": "",
      "address": "松江市袖師町３－１５",
      "lat": 35.457452311,
      "lng": 133.0513898,
      "geocoding_level": 8,
      "phone": "0852-59-9007",
      "license_no": "039560113",
      "license_date": null,
      "expire_date": null
    },
    {
      "name": "カフェダイニング　ｔｅｒａｓｕ",
      "name_kana": "",
      "business_type": "",
      "address": "松江市八雲台二丁目１６－１７",
      "lat": 35.436690146,
      "lng": 133.072744407,
      "geocoding_level": 8,
      "phone": "0852-25-7558",
      "license_no": "039560114",
      "license_date": null,
      "expire_date": null
    },
    {
      "name": "アイアンベース号",
      "name_kana": "",
      "business_type": "",
      "address": "鳥取県米子市大篠津町３６３１（島根県内一円）",
      "lat": 35.472212,
      "lng": 133.05053,
      "geocoding_level": 1,
      "phone": "",
      "license_no": "039560116",
      "license_date": null,
      "expire_date": null
    },
    {
      "name": "葬仙　東朝日町ホール",
      "name_kana": "",
      "business_type": "",
      "address": "松江市東朝日町１５５",
      "lat": 35.462293842,
      "lng": 133.072054798,
      "geocoding_level": 8,
      "phone": "0852-21-2030",
      "license_no": "039560118",
      "license_date": null,
      "expire_date": null
    },
    {
      "name": "Ｂａｒ　Ｎｅｇｒａｓ",
      "name_kana": "",
      "business_type": "",
      "address": "松江市伊勢宮町５０３－１０　寺本テナントＢビル２Ｆ",
      "lat": 35.465181905,
      "lng": 133.059493098,
      "geocoding_level": 8,
      "phone": "",
      "license_no": "039560119",
      "license_date": null,
      "expire_date": null
    },
    {
      "name": "Ｂａｒ　ＲｕＬａｎ",
      "name_kana": "",
      "business_type": "",
      "address": "松江市伊勢宮町５３５－６　 Ｔ－ＢＬＤ伊勢宮２Ｆ－Ｃ号室",
      "lat": 35.465501453,
      "lng": 133.05955776400003,
      "geocoding_level": 8,
      "phone": "",
      "license_no": "039560120",
      "license_date": null,
      "expire_date": null
    },
    {
      "name": "Ｌａｇｏｏｎ",
      "name_kana": "",
      "business_type": "",
      "address": "松江市伊勢宮町５３５－６Ｔビル　１Ｆ",
      "lat": 35.465501453,
      "lng": 133.05955776400003,
      "geocoding_level": 8,
      "phone": "",
      "license_no": "039560121",
      "license_date": null,
      "expire_date": null
    },
    {
      "name": "Ｄｅｕｘ　ＴＥＲＲＡＣＥ",
      "name_kana": "",
      "business_type": "",
      "address": "松江市田和山町１１７",
      "lat": 35.440551505,
      "lng": 133.053784182,
      "geocoding_level": 8,
      "phone": "0852-61-2424",
      "license_no": "039560124",
      "license_date": null,
      "expire_date": null
    },
    {
      "name": "社会福祉法人　おおの福祉会 特別養護老人ホーム　大野の郷",
      "name_kana": "",
      "business_type": "",
      "address": "松江市大野町１６７",
      "lat": 35.472426473,
      "lng": 132.918608683,
      "geocoding_level": 8,
      "phone": "0852-88-3302",
      "license_no": "039560125",
      "license_date": null,
      "expire_date": null
    },
    {
      "name": "フォークェ（ＰＨＯ　ＱＵＥ）",
      "name_kana": "",
      "business_type": "",
      "address": "松江市寺町２０４－４",
      "lat": 35.463605,
      "lng": 133.058178,
      "geocoding_level": 3,
      "phone": "",
      "license_no": "039560126",
      "license_date": null,
      "expire_date": null
    },
    {
      "name": "拉麺屋　神楽",
      "name_kana": "",
      "business_type": "",
      "address": "鳥取県境港市竹内団地２７８－７（島根県内一円）",
      "lat": 35.472212,
      "lng": 133.05053,
      "geocoding_level": 1,
      "phone": "0859-36-8833",
      "license_no": "039560127",
      "license_date": null,
      "expire_date": null
    },
    {
      "name": "千年後",
      "name_kana": "",
      "business_type": "",
      "address": "松江市東本町二丁目４　松江山忠ビル１０３号",
      "lat": 35.468690904,
      "lng": 133.057078753,
      "geocoding_level": 8,
      "phone": "",
      "license_no": "039560128",
      "license_date": null,
      "expire_date": null
    },
    {
      "name": "有限会社　中村茶舗",
      "name_kana": "",
      "business_type": "",
      "address": "松江市天神町６",
      "lat": 35.464425971,
      "lng": 133.055646287,
      "geocoding_level": 8,
      "phone": "0852-24-0002",
      "license_no": "039560129",
      "license_date": null,
      "expire_date": null
    },
    {
      "name": "ｐｉｚｚｅｒｉａ　ｍｕｍ",
      "name_kana": "",
      "business_type": "",
      "address": "鳥取県米子市夜見町２３８６－１（島根県内一円）",
      "lat": 35.472212,
      "lng": 133.05053,
      "geocoding_level": 1,
      "phone": "",
      "license_no": "039560130",
      "license_date": null,
      "expire_date": null
    },
    {
      "name": "チョッピーノ　キッチン",
      "name_kana": "",
      "business_type": "",
      "address": "松江市東本町二丁目２５－１　東本町ビル１Ｆ",
      "lat": 35.469123482,
      "lng": 133.057550597,
      "geocoding_level": 8,
      "phone": "0852-61-9180",
      "license_no": "039560133",
      "license_date": null,
      "expire_date": null
    },
    {
      "name": "花扇",
      "name_kana": "",
      "business_type": "",
      "address": "松江市寺町１７９　ユ－アイビル２Ｆ",
      "lat": 35.463605,
      "lng": 133.058178,
      "geocoding_level": 3,
      "phone": "26-7734",
      "license_no": "039568001",
      "license_date": null,
      "expire_date": null
    },
    {
      "name": "東洋食品（株）　花咲",
      "name_kana": "",
      "business_type": "",
      "address": "松江市上乃木六丁目６－２６ 古志原ショッピングセンタ－内",
      "lat": 35.446596396,
      "lng": 133.071577695,
      "geocoding_level": 8,
      "phone": "28-8215",
      "license_no": "039568002",
      "license_date": null,
      "expire_date": null
    },
    {
      "name": "八束亭",
      "name_kana": "",
      "business_type": "",
      "address": "松江市東出雲町出雲郷４７０－１",
      "lat": 35.433275025,
      "lng": 133.128398715,
      "geocoding_level": 8,
      "phone": "52-3359",
      "license_no": "039568003",
      "license_date": null,
      "expire_date": null
    },
    {
      "name": "阿川",
      "name_kana": "",
      "business_type": "",
      "address": "松江市東本町一丁目４４",
      "lat": 35.469145076,
      "lng": 133.056505327,
      "geocoding_level": 8,
      "phone": "0852-25-3719",
      "license_no": "039568004",
      "license_date": null,
      "expire_date": null
    },
    {
      "name": "くいものや　祭菜",
      "name_kana": "",
      "business_type": "",
      "address": "松江市寺町１８５",
      "lat": 35.463605,
      "lng": 133.058178,
      "geocoding_level": 3,
      "phone": "0852-28-5990",
      "license_no": "039568005",
      "license_date": null,
      "expire_date": null
    },
    {
      "name": "旅館　あおやま",
      "name_kana": "",
      "business_type": "",
      "address": "松江市母衣町２５",
      "lat": 35.472913,
      "lng": 133.056258,
      "geocoding_level": 3,
      "phone": "23-1556",
      "license_no": "039568007",
      "license_date": null,
      "expire_date": null
    },
    {
      "name": "味菜",
      "name_kana": "",
      "business_type": "",
      "address": "松江市西川津町２０８１－１　みしまや楽山店内",
      "lat": 35.482232,
      "lng": 133.078382,
      "geocoding_level": 3,
      "phone": "0852-26-5430",
      "license_no": "039568008",
      "license_date": null,
      "expire_date": null
    },
    {
      "name": "ナイト　ヂェム",
      "name_kana": "",
      "business_type": "",
      "address": "松江市伊勢宮町５３６　８番街ビル２Ｆ",
      "lat": 35.466178,
      "lng": 133.060295,
      "geocoding_level": 3,
      "phone": "28-7353",
      "license_no": "039568010",
      "license_date": null,
      "expire_date": null
    },
    {
      "name": "カフェ・クーラン・デ・エール",
      "name_kana": "",
      "business_type": "",
      "address": "松江市朝日町４８４－１３ 三洋苑第二ビル１Ｆ",
      "lat": 35.464357134,
      "lng": 133.061509509,
      "geocoding_level": 8,
      "phone": "27-8577",
      "license_no": "039568011",
      "license_date": null,
      "expire_date": null
    },
    {
      "name": "スナック　美談",
      "name_kana": "",
      "business_type": "",
      "address": "松江市伊勢宮町５３４－８　ゆうぶんビル１Ｆ",
      "lat": 35.466178,
      "lng": 133.060295,
      "geocoding_level": 3,
      "phone": "31-4107",
      "license_no": "039568012",
      "license_date": null,
      "expire_date": null
    },
    {
      "name": "有限会社　神戸屋",
      "name_kana": "",
      "business_type": "",
      "address": "松江市東朝日町１１６－１",
      "lat": 35.463811,
      "lng": 133.072758,
      "geocoding_level": 3,
      "phone": "21-0645",
      "license_no": "039568013",
      "license_date": null,
      "expire_date": null
    },
    {
      "name": "出雲・玉造温泉　白石家　花梨",
      "name_kana": "",
      "business_type": "",
      "address": "松江市玉湯町玉造４４－２",
      "lat": 35.419278329,
      "lng": 133.00953109700004,
      "geocoding_level": 8,
      "phone": "62-0521",
      "license_no": "039568014",
      "license_date": null,
      "expire_date": null
    },
    {
      "name": "出雲・玉造温泉　白石家",
      "name_kana": "",
      "business_type": "",
      "address": "松江市玉湯町玉造４４－２",
      "lat": 35.419278329,
      "lng": 133.00953109700004,
      "geocoding_level": 8,
      "phone": "62-0521",
      "license_no": "039568015",
      "license_date": null,
      "expire_date": null
    },
    {
      "name": "お好み焼　大福",
      "name_kana": "",
      "business_type": "",
      "address": "松江市伊勢宮町５２４",
      "lat": 35.466090572,
      "lng": 133.060822447,
      "geocoding_level": 8,
      "phone": "0852-22-2646",
      "license_no": "039568016",
      "license_date": null,
      "expire_date": null
    },
    {
      "name": "焼肉　かや",
      "name_kana": "",
      "business_type": "",
      "address": "松江市黒田町４５５－７",
      "lat": 35.480466,
      "lng": 133.043976,
      "geocoding_level": 3,
      "phone": "0852-28-7778",
      "license_no": "039568018",
      "license_date": null,
      "expire_date": null
    },
    {
      "name": "有限会社　珈琲館　京店店",
      "name_kana": "",
      "business_type": "",
      "address": "松江市末次本町１－１",
      "lat": 35.469881122,
      "lng": 133.0537449,
      "geocoding_level": 8,
      "phone": "25-0585",
      "license_no": "039568020",
      "license_date": null,
      "expire_date": null
    },
    {
      "name": "一期一会",
      "name_kana": "",
      "business_type": "",
      "address": "松江市伊勢宮町５３４－８　ゆうぶんビル",
      "lat": 35.466178,
      "lng": 133.060295,
      "geocoding_level": 3,
      "phone": "31-7799",
      "license_no": "039568022",
      "license_date": null,
      "expire_date": null
    },
    {
      "name": "びぶる　Ⅱ",
      "name_kana": "",
      "business_type": "",
      "address": "松江市東津田町１７４１－３ 生涯学習推進センタ－内",
      "lat": 35.447367806,
      "lng": 133.085190114,
      "geocoding_level": 8,
      "phone": "32-5988",
      "license_no": "039568023",
      "license_date": null,
      "expire_date": null
    },
    {
      "name": "浜美屋",
      "name_kana": "",
      "business_type": "",
      "address": "松江市美保関町北浦１８７",
      "lat": 35.559953802,
      "lng": 133.153945783,
      "geocoding_level": 8,
      "phone": "75-0527",
      "license_no": "039568024",
      "license_date": null,
      "expire_date": null
    },
    {
      "name": "魚国総本社・松江２６６４５",
      "name_kana": "",
      "business_type": "",
      "address": "松江市魚町１０　（株）山陰合同銀行本店１３Ｆ",
      "lat": 35.466058497,
      "lng": 133.054386689,
      "geocoding_level": 8,
      "phone": "27-5016",
      "license_no": "039568025",
      "license_date": null,
      "expire_date": null
    },
    {
      "name": "丸合　古志原店",
      "name_kana": "",
      "business_type": "",
      "address": "松江市上乃木六丁目６－２６",
      "lat": 35.446596396,
      "lng": 133.071577695,
      "geocoding_level": 8,
      "phone": "0852-32-5300",
      "license_no": "039568026",
      "license_date": null,
      "expire_date": null
    },
    {
      "name": "レストラン　和み",
      "name_kana": "",
      "business_type": "",
      "address": "松江市東本町二丁目２２ ホテルル－トイン松江１Ｆ",
      "lat": 35.469131882,
      "lng": 133.057090271,
      "geocoding_level": 8,
      "phone": "0852-20-6211",
      "license_no": "039568027",
      "license_date": null,
      "expire_date": null
    },
    {
      "name": "よびこ",
      "name_kana": "",
      "business_type": "",
      "address": "松江市東本町三丁目６１",
      "lat": 35.469654269,
      "lng": 133.058322202,
      "geocoding_level": 8,
      "phone": "0852-24-4092",
      "license_no": "039568028",
      "license_date": null,
      "expire_date": null
    },
    {
      "name": "小料理．おでん　にかく",
      "name_kana": "",
      "business_type": "",
      "address": "松江市東本町一丁目４４",
      "lat": 35.469145076,
      "lng": 133.056505327,
      "geocoding_level": 8,
      "phone": "24-6579",
      "license_no": "039568029",
      "license_date": null,
      "expire_date": null
    },
    {
      "name": "朝酌わくら餅",
      "name_kana": "",
      "business_type": "",
      "address": "松江市西尾町１１４０（松江市内一円）",
      "lat": 35.469944406,
      "lng": 133.098910889,
      "geocoding_level": 8,
      "phone": "39-0136",
      "license_no": "039568030",
      "license_date": null,
      "expire_date": null
    },
    {
      "name": "しゃぶしゃぶ温野菜　松江駅前店",
      "name_kana": "",
      "business_type": "",
      "address": "松江市御手船場町５６６　ワンダ－ビル４Ｆ",
      "lat": 35.465728144,
      "lng": 133.062807763,
      "geocoding_level": 8,
      "phone": "28-2288",
      "license_no": "039568031",
      "license_date": null,
      "expire_date": null
    },
    {
      "name": "くいもの屋わん九州自慢　松江駅前店",
      "name_kana": "",
      "business_type": "",
      "address": "松江市朝日町４９３－１　 グリ－ンリッチホテル松江駅前　１Ｆ",
      "lat": 35.464014813,
      "lng": 133.060501794,
      "geocoding_level": 8,
      "phone": "0852-60-1100",
      "license_no": "039568032",
      "license_date": null,
      "expire_date": null
    },
    {
      "name": "玉造温泉　ＲＹＯＫＡＮ　ＯＱＯＱ",
      "name_kana": "",
      "business_type": "",
      "address": "松江市玉湯町玉造１２４７",
      "lat": 35.42043338,
      "lng": 133.008935344,
      "geocoding_level": 8,
      "phone": "62-0524",
      "license_no": "039568033",
      "license_date": null,
      "expire_date": null
    },
    {
      "name": "玉井館",
      "name_kana": "",
      "business_type": "",
      "address": "松江市玉湯町玉造３２８",
      "lat": 35.415403984,
      "lng": 133.010030782,
      "geocoding_level": 8,
      "phone": "0852-62-0314",
      "license_no": "039568034",
      "license_date": null,
      "expire_date": null
    },
    {
      "name": "アバンティー",
      "name_kana": "",
      "business_type": "",
      "address": "松江市東本町一丁目６８",
      "lat": 35.469593778,
      "lng": 133.056144277,
      "geocoding_level": 8,
      "phone": "0852-32-8830",
      "license_no": "039568035",
      "license_date": null,
      "expire_date": null
    },
    {
      "name": "イオン松江店　ベーカーシェフイートイン",
      "name_kana": "",
      "business_type": "",
      "address": "松江市東朝日町１５１　イオン松江店１F",
      "lat": 35.463420659,
      "lng": 133.068704826,
      "geocoding_level": 8,
      "phone": "0852-32-2121",
      "license_no": "039568036",
      "license_date": null,
      "expire_date": null
    },
    {
      "name": "エルエー珈琲店",
      "name_kana": "",
      "business_type": "",
      "address": "松江市浜乃木二丁目７－１６　野津ビル１Ｆ",
      "lat": 35.446231308,
      "lng": 133.054130639,
      "geocoding_level": 8,
      "phone": "27-6040",
      "license_no": "039568037",
      "license_date": null,
      "expire_date": null
    },
    {
      "name": "Ａコープふるえ",
      "name_kana": "",
      "business_type": "",
      "address": "松江市西浜佐陀町２４６－１",
      "lat": 35.47694,
      "lng": 133.012067,
      "geocoding_level": 3,
      "phone": "36-6676",
      "license_no": "039568038",
      "license_date": null,
      "expire_date": null
    },
    {
      "name": "みよちゃんラーメン",
      "name_kana": "",
      "business_type": "",
      "address": "松江市玉湯町林１２９５（県内一円）",
      "lat": 35.429314423,
      "lng": 132.982616849,
      "geocoding_level": 8,
      "phone": "0852-62-2122",
      "license_no": "039568039",
      "license_date": null,
      "expire_date": null
    },
    {
      "name": "Ａコープたまゆ",
      "name_kana": "",
      "business_type": "",
      "address": "松江市玉湯町湯町１７８２－１",
      "lat": 35.430119888,
      "lng": 133.007541551,
      "geocoding_level": 8,
      "phone": "0852-62-1271",
      "license_no": "039568040",
      "license_date": null,
      "expire_date": null
    },
    {
      "name": "株式会社今井書店 グループセンター店",
      "name_kana": "",
      "business_type": "",
      "address": "松江市田和山町８８（県内一円）",
      "lat": 35.440048256,
      "lng": 133.052136114,
      "geocoding_level": 8,
      "phone": "0852-20-8811",
      "license_no": "039568042",
      "license_date": null,
      "expire_date": null
    },
    {
      "name": "ローソン　島大通店",
      "name_kana": "",
      "business_type": "",
      "address": "松江市菅田町１４３－１",
      "lat": 35.48766400000001,
      "lng": 133.063826,
      "geocoding_level": 3,
      "phone": "0852-27-2431",
      "license_no": "039568043",
      "license_date": null,
      "expire_date": null
    },
    {
      "name": "長浜らーめん豚八　東朝日町店",
      "name_kana": "",
      "business_type": "",
      "address": "松江市東朝日町２０３－１２",
      "lat": 35.46363069400001,
      "lng": 133.074459625,
      "geocoding_level": 8,
      "phone": "0852-25-3609",
      "license_no": "039568044",
      "license_date": null,
      "expire_date": null
    },
    {
      "name": "フェリーチェ　山代",
      "name_kana": "",
      "business_type": "",
      "address": "松江市山代町３６７－２",
      "lat": 35.437132,
      "lng": 133.093876,
      "geocoding_level": 3,
      "phone": "0852-61-0808",
      "license_no": "039568045",
      "license_date": null,
      "expire_date": null
    },
    {
      "name": "カラオケＣＬＵＢ　ＤＡＭ　松江駅前通り店",
      "name_kana": "",
      "business_type": "",
      "address": "松江市東朝日町１４９－１、 １４９－１３、１４９－２７",
      "lat": 35.465116057,
      "lng": 133.068936202,
      "geocoding_level": 8,
      "phone": "0852-61-8181",
      "license_no": "039568046",
      "license_date": null,
      "expire_date": null
    },
    {
      "name": "ローソン・ポプラ　松江玉湯店",
      "name_kana": "",
      "business_type": "",
      "address": "松江市玉湯町湯町７８３－１",
      "lat": 35.434586089,
      "lng": 133.014668833,
      "geocoding_level": 8,
      "phone": "0852-62-8066",
      "license_no": "039568047",
      "license_date": null,
      "expire_date": null
    },
    {
      "name": "ローソン　松江東朝日店",
      "name_kana": "",
      "business_type": "",
      "address": "松江市東朝日町７３－５",
      "lat": 35.462380467,
      "lng": 133.065687384,
      "geocoding_level": 8,
      "phone": "0852-26-5881",
      "license_no": "039568048",
      "license_date": null,
      "expire_date": null
    },
    {
      "name": "ばいかも",
      "name_kana": "",
      "business_type": "",
      "address": "松江市片原町６０－２",
      "lat": 35.469983,
      "lng": 133.050215,
      "geocoding_level": 3,
      "phone": "24-1999",
      "license_no": "039568049",
      "license_date": null,
      "expire_date": null
    },
    {
      "name": "ラパン　川津店",
      "name_kana": "",
      "business_type": "",
      "address": "松江市西川津町６８１－１",
      "lat": 35.48847105,
      "lng": 133.07399549,
      "geocoding_level": 8,
      "phone": "24-8880",
      "license_no": "039568050",
      "license_date": null,
      "expire_date": null
    },
    {
      "name": "めんふぁん食堂　黒田店",
      "name_kana": "",
      "business_type": "",
      "address": "松江市黒田町５０２－６",
      "lat": 35.480466,
      "lng": 133.043976,
      "geocoding_level": 3,
      "phone": "24-5024",
      "license_no": "039568051",
      "license_date": null,
      "expire_date": null
    },
    {
      "name": "ぎょうざ屋",
      "name_kana": "",
      "business_type": "",
      "address": "松江市伊勢宮町５３５－９　夢の館１Ｆ",
      "lat": 35.465809897,
      "lng": 133.059639013,
      "geocoding_level": 8,
      "phone": "",
      "license_no": "039568052",
      "license_date": null,
      "expire_date": null
    },
    {
      "name": "ディオ　松江東店",
      "name_kana": "",
      "business_type": "",
      "address": "松江市東津田町１３００－８",
      "lat": 35.453735576,
      "lng": 133.093860453,
      "geocoding_level": 8,
      "phone": "0852-59-9110",
      "license_no": "039568053",
      "license_date": null,
      "expire_date": null
    },
    {
      "name": "隠れみの",
      "name_kana": "",
      "business_type": "",
      "address": "松江市東本町一丁目１７",
      "lat": 35.468897395,
      "lng": 133.056493,
      "geocoding_level": 8,
      "phone": "0852-25-0422",
      "license_no": "039568054",
      "license_date": null,
      "expire_date": null
    },
    {
      "name": "隠れみの別館",
      "name_kana": "",
      "business_type": "",
      "address": "松江市東本町一丁目２０",
      "lat": 35.468915638,
      "lng": 133.05633678,
      "geocoding_level": 8,
      "phone": "0852-25-0422",
      "license_no": "039568055",
      "license_date": null,
      "expire_date": null
    },
    {
      "name": "心陽衆（しんようじゅ）",
      "name_kana": "",
      "business_type": "",
      "address": "松江市西津田四丁目７－２１",
      "lat": 35.455404344,
      "lng": 133.075185109,
      "geocoding_level": 8,
      "phone": "26-8765",
      "license_no": "039568058",
      "license_date": null,
      "expire_date": null
    },
    {
      "name": "傘",
      "name_kana": "",
      "business_type": "",
      "address": "松江市片原町１１５",
      "lat": 35.469738593,
      "lng": 133.053071373,
      "geocoding_level": 8,
      "phone": "24-4041",
      "license_no": "039568059",
      "license_date": null,
      "expire_date": null
    },
    {
      "name": "倉寿し",
      "name_kana": "",
      "business_type": "",
      "address": "松江市上乃木九丁目８－２６",
      "lat": 35.4420123,
      "lng": 133.062486885,
      "geocoding_level": 8,
      "phone": "26-0694",
      "license_no": "039568060",
      "license_date": null,
      "expire_date": null
    },
    {
      "name": "サロン貴志",
      "name_kana": "",
      "business_type": "",
      "address": "松江市玉湯町玉造１２０１－２",
      "lat": 35.415980436000005,
      "lng": 133.008902562,
      "geocoding_level": 8,
      "phone": "62-2626",
      "license_no": "039568062",
      "license_date": null,
      "expire_date": null
    },
    {
      "name": "なべや別館",
      "name_kana": "",
      "business_type": "",
      "address": "松江市美保関町福浦３０３",
      "lat": 35.554741719,
      "lng": 133.262199242,
      "geocoding_level": 8,
      "phone": "72-3000",
      "license_no": "039568063",
      "license_date": null,
      "expire_date": null
    },
    {
      "name": "イタリアンカフェ　カプリ",
      "name_kana": "",
      "business_type": "",
      "address": "松江市白潟本町１４",
      "lat": 35.466681953,
      "lng": 133.05519926400004,
      "geocoding_level": 8,
      "phone": "24-6595",
      "license_no": "039568065",
      "license_date": null,
      "expire_date": null
    },
    {
      "name": "民宿　大谷",
      "name_kana": "",
      "business_type": "",
      "address": "松江市美保関町美保関２８",
      "lat": 35.569462825,
      "lng": 133.296342492,
      "geocoding_level": 8,
      "phone": "73-0928",
      "license_no": "039568066",
      "license_date": null,
      "expire_date": null
    },
    {
      "name": "橋根旅館",
      "name_kana": "",
      "business_type": "",
      "address": "松江市美保関町北浦１７８",
      "lat": 35.559721224,
      "lng": 133.154075987,
      "geocoding_level": 8,
      "phone": "75-0714",
      "license_no": "039568067",
      "license_date": null,
      "expire_date": null
    },
    {
      "name": "さわみや",
      "name_kana": "",
      "business_type": "",
      "address": "松江市八束町入江９１４",
      "lat": 35.497641976,
      "lng": 133.16502003,
      "geocoding_level": 8,
      "phone": "0852-76-2142",
      "license_no": "039568068",
      "license_date": null,
      "expire_date": null
    },
    {
      "name": "川本分家",
      "name_kana": "",
      "business_type": "",
      "address": "松江市美保関町北浦２９７",
      "lat": 35.560532392,
      "lng": 133.154195206,
      "geocoding_level": 8,
      "phone": "75-0833",
      "license_no": "039568069",
      "license_date": null,
      "expire_date": null
    },
    {
      "name": "きがる食堂",
      "name_kana": "",
      "business_type": "",
      "address": "松江市上乃木五丁目１－３１",
      "lat": 35.451456063,
      "lng": 133.061314923,
      "geocoding_level": 8,
      "phone": "24-8720",
      "license_no": "039568070",
      "license_date": null,
      "expire_date": null
    },
    {
      "name": "有限会社　ひばり 仕出し弁当センター",
      "name_kana": "",
      "business_type": "",
      "address": "松江市西川津町３５４６－３",
      "lat": 35.491057257,
      "lng": 133.067882281,
      "geocoding_level": 8,
      "phone": "24-5527",
      "license_no": "039568072",
      "license_date": null,
      "expire_date": null
    },
    {
      "name": "スカイビュー　キャンドル",
      "name_kana": "",
      "business_type": "",
      "address": "松江市西茶町４０－１　ニュ－ア－バンホテル９Ｆ",
      "lat": 35.469118,
      "lng": 133.050552,
      "geocoding_level": 3,
      "phone": "0852-27-5511",
      "license_no": "039568073",
      "license_date": null,
      "expire_date": null
    },
    {
      "name": "佳翠苑皆美　出雲のれん",
      "name_kana": "",
      "business_type": "",
      "address": "松江市玉湯町玉造１２１８－８",
      "lat": 35.41747563,
      "lng": 133.008701499,
      "geocoding_level": 8,
      "phone": "62-0331",
      "license_no": "039568075",
      "license_date": null,
      "expire_date": null
    },
    {
      "name": "てまひま料理　根っこや",
      "name_kana": "",
      "business_type": "",
      "address": "松江市伊勢宮町５４２－６",
      "lat": 35.466788828,
      "lng": 133.060375352,
      "geocoding_level": 8,
      "phone": "0852-24-2060",
      "license_no": "039568076",
      "license_date": null,
      "expire_date": null
    },
    {
      "name": "創作中華酒房　そら",
      "name_kana": "",
      "business_type": "",
      "address": "松江市寺町２０５－１５ セントラルマンション１０１",
      "lat": 35.463268037,
      "lng": 133.058954157,
      "geocoding_level": 8,
      "phone": "0852-24-9099",
      "license_no": "039568077",
      "license_date": null,
      "expire_date": null
    },
    {
      "name": "炭火焼肉屋さかい松江学園通り店",
      "name_kana": "",
      "business_type": "",
      "address": "松江市学園二丁目２９－１２",
      "lat": 35.484462046,
      "lng": 133.070751404,
      "geocoding_level": 8,
      "phone": "0852-60-2050",
      "license_no": "039568078",
      "license_date": null,
      "expire_date": null
    },
    {
      "name": "レストハウス　ＵＦＯ　嫁島",
      "name_kana": "",
      "business_type": "",
      "address": "松江市嫁島町８５－１",
      "lat": 35.450851,
      "lng": 133.048777,
      "geocoding_level": 3,
      "phone": "0852-27-0956",
      "license_no": "039568079",
      "license_date": null,
      "expire_date": null
    },
    {
      "name": "（株）彩雲堂本店",
      "name_kana": "",
      "business_type": "",
      "address": "松江市天神町１２４",
      "lat": 35.462923,
      "lng": 133.056334,
      "geocoding_level": 3,
      "phone": "0852-21-2701",
      "license_no": "039568080",
      "license_date": null,
      "expire_date": null
    },
    {
      "name": "スナック　葉々ごよみ",
      "name_kana": "",
      "business_type": "",
      "address": "松江市東本町二丁目２－１",
      "lat": 35.468625003,
      "lng": 133.056818215,
      "geocoding_level": 8,
      "phone": "28-7227",
      "license_no": "039568081",
      "license_date": null,
      "expire_date": null
    },
    {
      "name": "ファミリーマート　松江大輪町店",
      "name_kana": "",
      "business_type": "",
      "address": "松江市大輪町４１４",
      "lat": 35.479769,
      "lng": 133.060085,
      "geocoding_level": 3,
      "phone": "0852-20-7325",
      "license_no": "039568082",
      "license_date": null,
      "expire_date": null
    },
    {
      "name": "番吉",
      "name_kana": "",
      "business_type": "",
      "address": "松江市朝日町４９１－１",
      "lat": 35.464596815,
      "lng": 133.06079349200002,
      "geocoding_level": 8,
      "phone": "31-8308",
      "license_no": "039568083",
      "license_date": null,
      "expire_date": null
    },
    {
      "name": "焼いも屋",
      "name_kana": "",
      "business_type": "",
      "address": "松江市鹿島町北講武８８５－７ 多久の湯（県内一円）",
      "lat": 35.521899444,
      "lng": 133.027037107,
      "geocoding_level": 8,
      "phone": "",
      "license_no": "039568084",
      "license_date": null,
      "expire_date": null
    },
    {
      "name": "モスバーガー松江西川津店",
      "name_kana": "",
      "business_type": "",
      "address": "松江市西川津町４２３６",
      "lat": 35.480826303,
      "lng": 133.072892489,
      "geocoding_level": 8,
      "phone": "0852-28-7881",
      "license_no": "039568085",
      "license_date": null,
      "expire_date": null
    },
    {
      "name": "旨いとんかつ　かつふじ",
      "name_kana": "",
      "business_type": "",
      "address": "松江市学園南二丁目１７－５",
      "lat": 35.475529391,
      "lng": 133.068794366,
      "geocoding_level": 8,
      "phone": "0852-31-6711",
      "license_no": "039568086",
      "license_date": null,
      "expire_date": null
    },
    {
      "name": "茶話処　十三夜",
      "name_kana": "",
      "business_type": "",
      "address": "松江市南田町８－３９",
      "lat": 35.472786,
      "lng": 133.061075,
      "geocoding_level": 3,
      "phone": "0852-21-3308",
      "license_no": "039568087",
      "license_date": null,
      "expire_date": null
    },
    {
      "name": "山科",
      "name_kana": "",
      "business_type": "",
      "address": "松江市寺町１９９",
      "lat": 35.463605,
      "lng": 133.058178,
      "geocoding_level": 3,
      "phone": "0852-25-0456",
      "license_no": "039568088",
      "license_date": null,
      "expire_date": null
    },
    {
      "name": "ベストライフ　松江",
      "name_kana": "",
      "business_type": "",
      "address": "松江市春日町５４３－２",
      "lat": 35.485176,
      "lng": 133.04771200000002,
      "geocoding_level": 3,
      "phone": "0852-60-1337",
      "license_no": "039568089",
      "license_date": null,
      "expire_date": null
    },
    {
      "name": "寿し浩",
      "name_kana": "",
      "business_type": "",
      "address": "松江市伊勢宮町５４３－１４　１Ａビル１Ｆ",
      "lat": 35.466328083,
      "lng": 133.060872896,
      "geocoding_level": 8,
      "phone": "0852-27-7163",
      "license_no": "039568090",
      "license_date": null,
      "expire_date": null
    },
    {
      "name": "ぼん仕出し工場",
      "name_kana": "",
      "business_type": "",
      "address": "松江市末次町６４",
      "lat": 35.467467,
      "lng": 133.049814,
      "geocoding_level": 3,
      "phone": "0852-28-8128",
      "license_no": "039568091",
      "license_date": null,
      "expire_date": null
    },
    {
      "name": "丸亀製麺　松江上乃木店",
      "name_kana": "",
      "business_type": "",
      "address": "松江市上乃木四丁目１５－４",
      "lat": 35.447065094,
      "lng": 133.067650485,
      "geocoding_level": 8,
      "phone": "0852-28-0141",
      "license_no": "039568092",
      "license_date": null,
      "expire_date": null
    },
    {
      "name": "カラオケシャワー　楽喜",
      "name_kana": "",
      "business_type": "",
      "address": "松江市千鳥町２６－１　湖北ビル１Ｆ",
      "lat": 35.466726508,
      "lng": 133.045265802,
      "geocoding_level": 8,
      "phone": "0852-31-7573",
      "license_no": "039568093",
      "license_date": null,
      "expire_date": null
    },
    {
      "name": "ＡＲＩｃａｆｅ　Ｌｉｔｅ",
      "name_kana": "",
      "business_type": "",
      "address": "松江市学園二丁目２０－２４",
      "lat": 35.481089175,
      "lng": 133.068141497,
      "geocoding_level": 8,
      "phone": "0852-60-0773",
      "license_no": "039568094",
      "license_date": null,
      "expire_date": null
    },
    {
      "name": "和ダイニング　杏庵",
      "name_kana": "",
      "business_type": "",
      "address": "松江市伊勢宮町５１６",
      "lat": 35.465545526,
      "lng": 133.060605738,
      "geocoding_level": 8,
      "phone": "0852-67-2299",
      "license_no": "039568095",
      "license_date": null,
      "expire_date": null
    },
    {
      "name": "ココス　松江西津田店",
      "name_kana": "",
      "business_type": "",
      "address": "松江市西津田三丁目１－２",
      "lat": 35.459621636,
      "lng": 133.076783166,
      "geocoding_level": 8,
      "phone": "0852-59-5882",
      "license_no": "039568096",
      "license_date": null,
      "expire_date": null
    },
    {
      "name": "どんどん　松江店",
      "name_kana": "",
      "business_type": "",
      "address": "松江市西津田二丁目６－２６",
      "lat": 35.459610007,
      "lng": 133.074907943,
      "geocoding_level": 8,
      "phone": "0852-60-7551",
      "license_no": "039568097",
      "license_date": null,
      "expire_date": null
    },
    {
      "name": "マクドナルド　松江店",
      "name_kana": "",
      "business_type": "",
      "address": "松江市学園南二丁目２－３１",
      "lat": 35.473126197000006,
      "lng": 133.065230117,
      "geocoding_level": 8,
      "phone": "0852-22-9773",
      "license_no": "039568098",
      "license_date": null,
      "expire_date": null
    },
    {
      "name": "藻塩屋",
      "name_kana": "",
      "business_type": "",
      "address": "松江市島根町大芦２１７８－３（県内一円）",
      "lat": 35.546462,
      "lng": 133.054741,
      "geocoding_level": 3,
      "phone": "0852-85-9021",
      "license_no": "039568100",
      "license_date": null,
      "expire_date": null
    },
    {
      "name": "くま吉",
      "name_kana": "",
      "business_type": "",
      "address": "松江市末次本町１３－３",
      "lat": 35.46913053,
      "lng": 133.053636388,
      "geocoding_level": 8,
      "phone": "0852-32-7084",
      "license_no": "039568101",
      "license_date": null,
      "expire_date": null
    },