{
  "meta": {
    "updated": 1783906731,
    "sources": [
      {
        "source": "島根県食品営業許可一覧（松江市を除く）",
        "license": "要確認"
      },
      {
        "source": "厚生労働省 食品衛生申請等システム（オープンデータ）",
        "license": "公共データ利用規約（第1.0版, PDL1.0）"
      }
    ]
  },
  "data": [
    {
      "name": "キヌヤ　江津店",
      "name_kana": "",
      "business_type": "",
      "address": "江津市嘉久志町１３１０",
      "lat": 35.000487,
      "lng": 132.218944,
      "geocoding_level": 3,
      "phone": "0855-52-0558",
      "license_no": "070418148",
      "license_date": null,
      "expire_date": null
    },
    {
      "name": "石州亭",
      "name_kana": "",
      "business_type": "",
      "address": "江津市嘉久志町２２８９－１　プローバ島根江津店",
      "lat": 35.000487,
      "lng": 132.218944,
      "geocoding_level": 3,
      "phone": "0855-52-0788",
      "license_no": "070418159",
      "license_date": null,
      "expire_date": null
    },
    {
      "name": "Ｇａｒｄｅｎ",
      "name_kana": "",
      "business_type": "",
      "address": "江津市嘉久志町２３０６－２１",
      "lat": 35.000487,
      "lng": 132.218944,
      "geocoding_level": 3,
      "phone": "0855-52-7670",
      "license_no": "040410052",
      "license_date": null,
      "expire_date": null
    },
    {
      "name": "ゆめタウン江津",
      "name_kana": "",
      "business_type": "",
      "address": "江津市嘉久志町２３０６－３０",
      "lat": 35.000487,
      "lng": 132.218944,
      "geocoding_level": 3,
      "phone": "0855-54-0178",
      "license_no": "050418010",
      "license_date": null,
      "expire_date": null
    },
    {
      "name": "喫茶　茶珈瑠",
      "name_kana": "",
      "business_type": "",
      "address": "江津市嘉久志町２３０６－３０　 ゆめタウン江津１Ｆ",
      "lat": 35.000487,
      "lng": 132.218944,
      "geocoding_level": 3,
      "phone": "0855-54-0307",
      "license_no": "040418027",
      "license_date": null,
      "expire_date": null
    },
    {
      "name": "ＳＰＩＣＥ　ラソイ",
      "name_kana": "",
      "business_type": "",
      "address": "江津市嘉久志町２３０６－３０　ゆめタウン江津　１Ｆ",
      "lat": 35.000487,
      "lng": 132.218944,
      "geocoding_level": 3,
      "phone": "",
      "license_no": "050410016",
      "license_date": null,
      "expire_date": null
    },
    {
      "name": "ゆめタウン江津",
      "name_kana": "",
      "business_type": "",
      "address": "江津市嘉久志町２３０６－３０「島根県内一円」",
      "lat": 35.000487,
      "lng": 132.218944,
      "geocoding_level": 3,
      "phone": "0855-54-0178",
      "license_no": "060410013",
      "license_date": null,
      "expire_date": null
    },
    {
      "name": "ｄｏｄｏ＿ｉｃｈｉ",
      "name_kana": "",
      "business_type": "",
      "address": "江津市嘉久志町２３７０－５",
      "lat": 35.008342031000005,
      "lng": 132.207423958,
      "geocoding_level": 8,
      "phone": "",
      "license_no": "030418127",
      "license_date": null,
      "expire_date": null
    },
    {
      "name": "ｄｏｄｏ＿ｉｃｈｉ",
      "name_kana": "",
      "business_type": "",
      "address": "江津市嘉久志町２３７０－５「島根県内一円」",
      "lat": 35.008342031000005,
      "lng": 132.207423958,
      "geocoding_level": 8,
      "phone": "0855-52-3919",
      "license_no": "040418211",
      "license_date": null,
      "expire_date": null
    },
    {
      "name": "会館　吾妻",
      "name_kana": "",
      "business_type": "",
      "address": "江津市嘉久志町２４２６－１８",
      "lat": 35.000487,
      "lng": 132.218944,
      "geocoding_level": 3,
      "phone": "0855-52-2358",
      "license_no": "040418168",
      "license_date": null,
      "expire_date": null
    },
    {
      "name": "まきた旅館",
      "name_kana": "",
      "business_type": "",
      "address": "江津市嘉久志町イ１１８６－１",
      "lat": 35.000487,
      "lng": 132.218944,
      "geocoding_level": 3,
      "phone": "0855-52-2417",
      "license_no": "080418071",
      "license_date": null,
      "expire_date": null
    },
    {
      "name": "なご味",
      "name_kana": "",
      "business_type": "",
      "address": "江津市嘉久志町イ１２２２－３",
      "lat": 35.000487,
      "lng": 132.218944,
      "geocoding_level": 3,
      "phone": "",
      "license_no": "060418165",
      "license_date": null,
      "expire_date": null
    },
    {
      "name": "ｇｅｐｐｅｔｔｏ　ｃｏｆｆｅｅ　ｒｏａｓｔｅｒｓ",
      "name_kana": "",
      "business_type": "",
      "address": "江津市嘉久志町イ１２２２－４",
      "lat": 35.000487,
      "lng": 132.218944,
      "geocoding_level": 3,
      "phone": "",
      "license_no": "060410038",
      "license_date": null,
      "expire_date": null
    },
    {
      "name": "ＮＯＰＥ",
      "name_kana": "",
      "business_type": "",
      "address": "江津市嘉久志町イ１２４２－４　山装ビル　１Ｆ",
      "lat": 35.000487,
      "lng": 132.218944,
      "geocoding_level": 3,
      "phone": "",
      "license_no": "050410046",
      "license_date": null,
      "expire_date": null
    },
    {
      "name": "恵未童画館",
      "name_kana": "",
      "business_type": "",
      "address": "江津市嘉久志町イ１３４",
      "lat": 35.000487,
      "lng": 132.218944,
      "geocoding_level": 3,
      "phone": "",
      "license_no": "040410045",
      "license_date": null,
      "expire_date": null
    },
    {
      "name": "ｔｏｉ　ｔｏｉ　ｔｏｉ",
      "name_kana": "",
      "business_type": "",
      "address": "江津市嘉久志町イ１５１０－１０",
      "lat": 35.000487,
      "lng": 132.218944,
      "geocoding_level": 3,
      "phone": "0855-52-7531",
      "license_no": "070418256",
      "license_date": null,
      "expire_date": null
    },
    {
      "name": "八百山",
      "name_kana": "",
      "business_type": "",
      "address": "江津市嘉久志町イ１６１１－５",
      "lat": 35.000487,
      "lng": 132.218944,
      "geocoding_level": 3,
      "phone": "",
      "license_no": "040418018",
      "license_date": null,
      "expire_date": null
    },
    {
      "name": "桑蓬寮",
      "name_kana": "",
      "business_type": "",
      "address": "江津市嘉久志町イ１７０３",
      "lat": 35.000487,
      "lng": 132.218944,
      "geocoding_level": 3,
      "phone": "0855-52-2456",
      "license_no": "070410041",
      "license_date": null,
      "expire_date": null
    },
    {
      "name": "中華料理　華龍",
      "name_kana": "",
      "business_type": "",
      "address": "江津市嘉久志町イ１８５７－３",
      "lat": 35.000487,
      "lng": 132.218944,
      "geocoding_level": 3,
      "phone": "0855-52-7918",
      "license_no": "060418167",
      "license_date": null,
      "expire_date": null
    },
    {
      "name": "うえ乃寿し",
      "name_kana": "",
      "business_type": "",
      "address": "江津市嘉久志町イ２４２６－１３２",
      "lat": 35.000487,
      "lng": 132.218944,
      "geocoding_level": 3,
      "phone": "0855-52-0001",
      "license_no": "060418132",
      "license_date": null,
      "expire_date": null
    },
    {
      "name": "ｃａｆｅ　桜ｃｏ",
      "name_kana": "",
      "business_type": "",
      "address": "江津市嘉久志町イ４０５",
      "lat": 35.000487,
      "lng": 132.218944,
      "geocoding_level": 3,
      "phone": "0855-52-7740",
      "license_no": "070418018",
      "license_date": null,
      "expire_date": null
    },
    {
      "name": "レストラン　ディナー",
      "name_kana": "",
      "business_type": "",
      "address": "江津市嘉久志町イ６７４－１",
      "lat": 35.000487,
      "lng": 132.218944,
      "geocoding_level": 3,
      "phone": "0855-52-5746",
      "license_no": "050418015",
      "license_date": null,
      "expire_date": null
    },
    {
      "name": "ＣｈｕーＫａ　ＣｈｕーＢｏｕ　梵天",
      "name_kana": "",
      "business_type": "",
      "address": "江津市嘉久志町イ６８１－２",
      "lat": 35.000487,
      "lng": 132.218944,
      "geocoding_level": 3,
      "phone": "0855-52-3311",
      "license_no": "060418060",
      "license_date": null,
      "expire_date": null
    },
    {
      "name": "林　商店",
      "name_kana": "",
      "business_type": "",
      "address": "江津市嘉久志町イ６９０－２「島根県内一円」",
      "lat": 35.000487,
      "lng": 132.218944,
      "geocoding_level": 3,
      "phone": "",
      "license_no": "070418027",
      "license_date": null,
      "expire_date": null
    },
    {
      "name": "株式会社　マルコシ　故郷敬川　厨房",
      "name_kana": "",
      "business_type": "",
      "address": "江津市敬川町１－２",
      "lat": 34.966112,
      "lng": 132.171276,
      "geocoding_level": 3,
      "phone": "",
      "license_no": "050418270",
      "license_date": null,
      "expire_date": null
    },
    {
      "name": "中華料理　華龍",
      "name_kana": "",
      "business_type": "",
      "address": "江津市敬川町１２８２－２",
      "lat": 34.966112,
      "lng": 132.171276,
      "geocoding_level": 3,
      "phone": "0855-54-9082",
      "license_no": "070410023",
      "license_date": null,
      "expire_date": null
    },
    {
      "name": "ローソン江津敬川店",
      "name_kana": "",
      "business_type": "",
      "address": "江津市敬川町１３０６－２４",
      "lat": 34.966112,
      "lng": 132.171276,
      "geocoding_level": 3,
      "phone": "0855-53-5163",
      "license_no": "040410035",
      "license_date": null,
      "expire_date": null
    },
    {
      "name": "若管商店（エビスヤ）",
      "name_kana": "",
      "business_type": "",
      "address": "江津市敬川町１６９４　「島根県内一円」",
      "lat": 34.966112,
      "lng": 132.171276,
      "geocoding_level": 3,
      "phone": "",
      "license_no": "070418257",
      "license_date": null,
      "expire_date": null
    },
    {
      "name": "寺ｃａｆｅ　ＳＡＲＡ",
      "name_kana": "",
      "business_type": "",
      "address": "江津市敬川町１７５４－１",
      "lat": 34.966112,
      "lng": 132.171276,
      "geocoding_level": 3,
      "phone": "0855-53-2797",
      "license_no": "030418147",
      "license_date": null,
      "expire_date": null
    },
    {
      "name": "株式会社　マルコシ　むりょうじゅ　厨房",
      "name_kana": "",
      "business_type": "",
      "address": "江津市敬川町２９６－６　グランエスポワールむりょうじゅ７Ｆ",
      "lat": 34.966112,
      "lng": 132.171276,
      "geocoding_level": 3,
      "phone": "",
      "license_no": "070418098",
      "license_date": null,
      "expire_date": null
    },
    {
      "name": "ひなた食堂　ますや",
      "name_kana": "",
      "business_type": "",
      "address": "江津市敬川町９８１－３",
      "lat": 34.966112,
      "lng": 132.171276,
      "geocoding_level": 3,
      "phone": "",
      "license_no": "070418141",
      "license_date": null,
      "expire_date": null
    },
    {
      "name": "ひなた食堂　ますや",
      "name_kana": "",
      "business_type": "",
      "address": "江津市敬川町９８１－８「島根県内一円」",
      "lat": 34.966112,
      "lng": 132.171276,
      "geocoding_level": 3,
      "phone": "0855-53-3650",
      "license_no": "070418142",
      "license_date": null,
      "expire_date": null
    },
    {
      "name": "しまや",
      "name_kana": "",
      "business_type": "",
      "address": "江津市後地町１９４５",
      "lat": 35.03813,
      "lng": 132.292424,
      "geocoding_level": 3,
      "phone": "0855-57-0034",
      "license_no": "060418163",
      "license_date": null,
      "expire_date": null
    },
    {
      "name": "Ｎａｏ　Ｆａｒｍ（ナオファーム）",
      "name_kana": "",
      "business_type": "",
      "address": "江津市後地町２３７６－１「島根県内一円」",
      "lat": 35.033545607,
      "lng": 132.280642116,
      "geocoding_level": 8,
      "phone": "",
      "license_no": "060418172",
      "license_date": null,
      "expire_date": null
    },
    {
      "name": "風のえんがわ",
      "name_kana": "",
      "business_type": "",
      "address": "江津市後地町２３９８",
      "lat": 35.034287823,
      "lng": 132.281492201,
      "geocoding_level": 8,
      "phone": "0855-57-0522",
      "license_no": "040418181",
      "license_date": null,
      "expire_date": null
    },
    {
      "name": "なぎの木キッチン",
      "name_kana": "",
      "business_type": "",
      "address": "江津市後地町３３４８－１１３",
      "lat": 35.045232231,
      "lng": 132.300175406,
      "geocoding_level": 8,
      "phone": "0855-55-1155",
      "license_no": "060418178",
      "license_date": null,
      "expire_date": null
    },
    {
      "name": "舞乃市",
      "name_kana": "",
      "business_type": "",
      "address": "江津市後地町３３４８－１１３",
      "lat": 35.045232231,
      "lng": 132.300175406,
      "geocoding_level": 8,
      "phone": "0855-55-1155",
      "license_no": "060410029",
      "license_date": null,
      "expire_date": null
    },
    {
      "name": "なぎの木カフェ",
      "name_kana": "",
      "business_type": "",
      "address": "江津市後地町３３４８－１１３",
      "lat": 35.045232231,
      "lng": 132.300175406,
      "geocoding_level": 8,
      "phone": "0855-55-1155",
      "license_no": "060410035",
      "license_date": null,
      "expire_date": null
    },
    {
      "name": "浅利観光  株式会社",
      "name_kana": "",
      "business_type": "",
      "address": "江津市後地町３３４８－１１３「県内一円」",
      "lat": 35.045232231,
      "lng": 132.300175406,
      "geocoding_level": 8,
      "phone": "0855-55-1155",
      "license_no": "050410047",
      "license_date": null,
      "expire_date": null
    },
    {
      "name": "ローソン・ポプラ江津舞乃市店",
      "name_kana": "",
      "business_type": "",
      "address": "江津市後地町３３４８ー１１３",
      "lat": 35.045232231,
      "lng": 132.300175406,
      "geocoding_level": 8,
      "phone": "0855-55-3522",
      "license_no": "040410011",
      "license_date": null,
      "expire_date": null
    },
    {
      "name": "揚げもの茶屋　住京",
      "name_kana": "",
      "business_type": "",
      "address": "江津市後地町９９５－１ 道の駅サンピコごうつ",
      "lat": 35.045249587,
      "lng": 132.298956186,
      "geocoding_level": 8,
      "phone": "0855-55-0111",
      "license_no": "070418036",
      "license_date": null,
      "expire_date": null
    },
    {
      "name": "森のレストラン",
      "name_kana": "",
      "business_type": "",
      "address": "江津市江津町１１１０－２０",
      "lat": 35.012793196,
      "lng": 132.217464572,
      "geocoding_level": 8,
      "phone": "0855-52-2822",
      "license_no": "080418086",
      "license_date": null,
      "expire_date": null
    },
    {
      "name": "Ａコープ　ごうつ",
      "name_kana": "",
      "business_type": "",
      "address": "江津市江津町１１４０－５",
      "lat": 35.013048,
      "lng": 132.221504,
      "geocoding_level": 3,
      "phone": "0855-52-0222",
      "license_no": "050418223",
      "license_date": null,
      "expire_date": null
    },
    {
      "name": "九州惣菜(株)　祇園",
      "name_kana": "",
      "business_type": "",
      "address": "江津市江津町１１４０－５　Ａコープごうつ内",
      "lat": 35.013048,
      "lng": 132.221504,
      "geocoding_level": 3,
      "phone": "0855-52-3823",
      "license_no": "070418002",
      "license_date": null,
      "expire_date": null
    },
    {
      "name": "ｃｌｕｂ　Ｍ",
      "name_kana": "",
      "business_type": "",
      "address": "江津市江津町１１５２－１０",
      "lat": 35.012969769,
      "lng": 132.220729416,
      "geocoding_level": 8,
      "phone": "",
      "license_no": "040410050",
      "license_date": null,
      "expire_date": null
    },
    {
      "name": "やき鳥　ふく助",
      "name_kana": "",
      "business_type": "",
      "address": "江津市江津町１１８８－１８",
      "lat": 35.014040368,
      "lng": 132.222109383,
      "geocoding_level": 8,
      "phone": "0855-52-2934",
      "license_no": "050418019",
      "license_date": null,
      "expire_date": null
    },
    {
      "name": "クラブ　久子",
      "name_kana": "",
      "business_type": "",
      "address": "江津市江津町１１８８－７",
      "lat": 35.013744859,
      "lng": 132.222236942,
      "geocoding_level": 8,
      "phone": "0855-52-2854",
      "license_no": "030418097",
      "license_date": null,
      "expire_date": null
    },
    {
      "name": "和飲ダイニング　ｋｏｇａｎｅｍｕｓｈｉ",
      "name_kana": "",
      "business_type": "",
      "address": "江津市江津町１２１２－２",
      "lat": 35.01440591,
      "lng": 132.222874557,
      "geocoding_level": 8,
      "phone": "0855-52-6444",
      "license_no": "070418137",
      "license_date": null,
      "expire_date": null
    },
    {
      "name": "ＴＯＲＡＮＡ　Ｂｅｅｒ＆Ｓｐａｒｋｌｉｎｇ",
      "name_kana": "",
      "business_type": "",
      "address": "江津市江津町１２１３",
      "lat": 35.014318248,
      "lng": 132.222918826,
      "geocoding_level": 8,
      "phone": "",
      "license_no": "060418047",
      "license_date": null,
      "expire_date": null
    },
    {
      "name": "食道園",
      "name_kana": "",
      "business_type": "",
      "address": "江津市江津町１２１４",
      "lat": 35.013048,
      "lng": 132.221504,
      "geocoding_level": 3,
      "phone": "0855-52-2674",
      "license_no": "040418011",
      "license_date": null,
      "expire_date": null
    },
    {
      "name": "きらく",
      "name_kana": "",
      "business_type": "",
      "address": "江津市江津町１２１４",
      "lat": 35.013048,
      "lng": 132.221504,
      "geocoding_level": 3,
      "phone": "",
      "license_no": "060418058",
      "license_date": null,
      "expire_date": null
    },
    {
      "name": "珈琲Ｐｕｂ　マック",
      "name_kana": "",
      "business_type": "",
      "address": "江津市江津町１２１４－１",
      "lat": 35.014208952,
      "lng": 132.223032334,
      "geocoding_level": 8,
      "phone": "0855-52-3518",
      "license_no": "070418156",
      "license_date": null,
      "expire_date": null
    },
    {
      "name": "ＬＩＲＹ’Ｓ",
      "name_kana": "",
      "business_type": "",
      "address": "江津市江津町１２１４－２　１Ｆ",
      "lat": 35.014173875,
      "lng": 132.222963786,
      "geocoding_level": 8,
      "phone": "",
      "license_no": "050410018",
      "license_date": null,
      "expire_date": null
    },
    {
      "name": "スナック　ルージュ",
      "name_kana": "",
      "business_type": "",
      "address": "江津市江津町１２１４－８",
      "lat": 35.014092856,
      "lng": 132.222835528,
      "geocoding_level": 8,
      "phone": "0855-52-2349",
      "license_no": "060418038",
      "license_date": null,
      "expire_date": null
    },
    {
      "name": "スナック　トゥモロー",
      "name_kana": "",
      "business_type": "",
      "address": "江津市江津町１２１７－４",
      "lat": 35.014767811,
      "lng": 132.223105942,
      "geocoding_level": 8,
      "phone": "",
      "license_no": "050418026",
      "license_date": null,
      "expire_date": null
    },
    {
      "name": "阿じ与志",
      "name_kana": "",
      "business_type": "",
      "address": "江津市江津町１２１７－５",
      "lat": 35.013048,
      "lng": 132.221504,
      "geocoding_level": 3,
      "phone": "0855-52-7357",
      "license_no": "040418025",
      "license_date": null,
      "expire_date": null
    },
    {
      "name": "ＢＬＵＥ－Ｇ　ＤＯＮＵＴ＆ＣＡＦＥ",
      "name_kana": "",
      "business_type": "",
      "address": "江津市江津町１２５８－３",
      "lat": 35.015016851,
      "lng": 132.223254966,
      "geocoding_level": 8,
      "phone": "0855-52-7007",
      "license_no": "060410024",
      "license_date": null,
      "expire_date": null
    },
    {
      "name": "スナック　パピヨン",
      "name_kana": "",
      "business_type": "",
      "address": "江津市江津町１２５９－２",
      "lat": 35.014626897,
      "lng": 132.223639149,
      "geocoding_level": 8,
      "phone": "0855-52-2725",
      "license_no": "070418021",
      "license_date": null,
      "expire_date": null
    },
    {
      "name": "ミュージックハウス　さうすぽー",
      "name_kana": "",
      "business_type": "",
      "address": "江津市江津町１２５９－２",
      "lat": 35.014626897,
      "lng": 132.223639149,
      "geocoding_level": 8,
      "phone": "0855-52-5190",
      "license_no": "070418133",
      "license_date": null,
      "expire_date": null
    },
    {
      "name": "民芸肉料理　共栄",
      "name_kana": "",
      "business_type": "",
      "address": "江津市江津町１２６０－４",
      "lat": 35.014751722,
      "lng": 132.22380225800003,
      "geocoding_level": 8,
      "phone": "0855-52-2433",
      "license_no": "040418007",
      "license_date": null,
      "expire_date": null
    },
    {
      "name": "祭や",
      "name_kana": "",
      "business_type": "",
      "address": "江津市江津町１５１７－２４",
      "lat": 35.014243665,
      "lng": 132.223385162,
      "geocoding_level": 8,
      "phone": "0855-52-6629",
      "license_no": "070418019",
      "license_date": null,
      "expire_date": null
    },
    {
      "name": "花鳥風月",
      "name_kana": "",
      "business_type": "",
      "address": "江津市江津町１５１７－２７　市川ビル１F",
      "lat": 35.014039411,
      "lng": 132.223594626,
      "geocoding_level": 8,
      "phone": "",
      "license_no": "060410021",
      "license_date": null,
      "expire_date": null
    },
    {
      "name": "Ａーｓｔｙｌｅ",
      "name_kana": "",
      "business_type": "",
      "address": "江津市江津町１５１７－２７　市川ビル１Ｆ",
      "lat": 35.014039411,
      "lng": 132.223594626,
      "geocoding_level": 8,
      "phone": "",
      "license_no": "060418146",
      "license_date": null,
      "expire_date": null
    },
    {
      "name": "５２ビルヂング",
      "name_kana": "",
      "business_type": "",
      "address": "江津市江津町１５１７－３５",
      "lat": 35.014194905,
      "lng": 132.223432767,
      "geocoding_level": 8,
      "phone": "0855-52-7130",
      "license_no": "060410033",
      "license_date": null,
      "expire_date": null
    },
    {
      "name": "養老乃瀧　江津店",
      "name_kana": "",
      "business_type": "",
      "address": "江津市江津町１５２０",
      "lat": 35.013048,
      "lng": 132.221504,
      "geocoding_level": 3,
      "phone": "0855-52-0086",
      "license_no": "030418114",
      "license_date": null,
      "expire_date": null
    },
    {
      "name": "ちか",
      "name_kana": "",
      "business_type": "",
      "address": "江津市江津町１５２０",
      "lat": 35.013048,
      "lng": 132.221504,
      "geocoding_level": 3,
      "phone": "0855-52-0284",
      "license_no": "040418169",
      "license_date": null,
      "expire_date": null
    },
    {
      "name": "壱番館",
      "name_kana": "",
      "business_type": "",
      "address": "江津市江津町１５２０－１２３",
      "lat": 35.013150573,
      "lng": 132.22225322,
      "geocoding_level": 8,
      "phone": "0855-52-7811",
      "license_no": "050418217",
      "license_date": null,
      "expire_date": null
    },
    {
      "name": "かわさきや",
      "name_kana": "",
      "business_type": "",
      "address": "江津市江津町１５２０－１５８",
      "lat": 35.012369823,
      "lng": 132.221026567,
      "geocoding_level": 8,
      "phone": "",
      "license_no": "040410001",
      "license_date": null,
      "expire_date": null
    },
    {
      "name": "喫茶　アミー",
      "name_kana": "",
      "business_type": "",
      "address": "江津市江津町１５９５－３",
      "lat": 35.01339540000001,
      "lng": 132.219866453,
      "geocoding_level": 8,
      "phone": "0855-52-0152",
      "license_no": "070418014",
      "license_date": null,
      "expire_date": null
    },
    {
      "name": "いこいキッチン",
      "name_kana": "",
      "business_type": "",
      "address": "江津市江津町４６",
      "lat": 35.013048,
      "lng": 132.221504,
      "geocoding_level": 3,
      "phone": "",
      "license_no": "080410001",
      "license_date": null,
      "expire_date": null
    },
    {
      "name": "新世界",
      "name_kana": "",
      "business_type": "",
      "address": "江津市江津町６９１－４",
      "lat": 35.01212669,
      "lng": 132.223822032,
      "geocoding_level": 8,
      "phone": "0855-52-0793",
      "license_no": "080418137",
      "license_date": null,
      "expire_date": null
    },
    {
      "name": "月窓庵",
      "name_kana": "",
      "business_type": "",
      "address": "江津市江津町７２３",
      "lat": 35.013048,
      "lng": 132.221504,
      "geocoding_level": 3,
      "phone": "",
      "license_no": "070410014",
      "license_date": null,
      "expire_date": null
    },
    {
      "name": "酒の山尾",
      "name_kana": "",
      "business_type": "",
      "address": "江津市江津町８４７－１　「島根県内一円」",
      "lat": 35.014345325,
      "lng": 132.22587999,
      "geocoding_level": 8,
      "phone": "0855-52-2003",
      "license_no": "040418194",
      "license_date": null,
      "expire_date": null
    },
    {
      "name": "やじん　商店",
      "name_kana": "",
      "business_type": "",
      "address": "江津市江津町８５２－７",
      "lat": 35.01427112300001,
      "lng": 132.226575224,
      "geocoding_level": 8,
      "phone": "0855-52-2634",
      "license_no": "030418142",
      "license_date": null,
      "expire_date": null
    },
    {
      "name": "ぶどう酒とお料理ＢＡＲ　ボクのワイン　キミのワイン",
      "name_kana": "",
      "business_type": "",
      "address": "江津市江津町８７９－５",
      "lat": 35.014129401,
      "lng": 132.225077613,
      "geocoding_level": 8,
      "phone": "0855-52-2177",
      "license_no": "060418154",
      "license_date": null,
      "expire_date": null
    },
    {
      "name": "エスポアたびら",
      "name_kana": "",
      "business_type": "",
      "address": "江津市江津町８９６－５",
      "lat": 35.013655186,
      "lng": 132.224385747,
      "geocoding_level": 8,
      "phone": "0855-52-2018",
      "license_no": "030418126",
      "license_date": null,
      "expire_date": null
    },
    {
      "name": "田吾作",
      "name_kana": "",
      "business_type": "",
      "address": "江津市江津町９０８－１７",
      "lat": 35.013519484,
      "lng": 132.224038485,
      "geocoding_level": 8,
      "phone": "",
      "license_no": "070418139",
      "license_date": null,
      "expire_date": null
    },
    {
      "name": "スナック　８８（ツーエイト）",
      "name_kana": "",
      "business_type": "",
      "address": "江津市江津町９１３",
      "lat": 35.013048,
      "lng": 132.221504,
      "geocoding_level": 3,
      "phone": "0855-52-2100",
      "license_no": "030418116",
      "license_date": null,
      "expire_date": null
    },
    {
      "name": "食彩空間　海人",
      "name_kana": "",
      "business_type": "",
      "address": "江津市江津町９１３　潮田ビル１Ｆ",
      "lat": 35.013048,
      "lng": 132.221504,
      "geocoding_level": 3,
      "phone": "0855-52-7333",
      "license_no": "060418137",
      "license_date": null,
      "expire_date": null
    },
    {
      "name": "Ｂｏｎ　Ｂｏｎ　Ｋｉｔｃｈｅｎ",
      "name_kana": "",
      "business_type": "",
      "address": "江津市江津町９１３－１　塩田ビル（Ⅱ）１Ｆ",
      "lat": 35.01368095,
      "lng": 132.223853589,
      "geocoding_level": 8,
      "phone": "",
      "license_no": "070418152",
      "license_date": null,
      "expire_date": null
    },
    {
      "name": "Ｓｎａｃｋ　Ｒｅ：ｂｉｒｔｈ",
      "name_kana": "",
      "business_type": "",
      "address": "江津市江津町９２１－１",
      "lat": 35.012358624,
      "lng": 132.223301198,
      "geocoding_level": 8,
      "phone": "",
      "license_no": "070410007",
      "license_date": null,
      "expire_date": null
    },
    {
      "name": "Ｙ．Ａｌｂｅｒｏ（アルベロ）",
      "name_kana": "",
      "business_type": "",
      "address": "江津市江津町９３６－１ Ｓｕｋｉｍｏｎｏビル１Ｆ",
      "lat": 35.013048,
      "lng": 132.221504,
      "geocoding_level": 3,
      "phone": "",
      "license_no": "070418005",
      "license_date": null,
      "expire_date": null
    },
    {
      "name": "わかひろや",
      "name_kana": "",
      "business_type": "",
      "address": "江津市江津町９３９－１",
      "lat": 35.012532369,
      "lng": 132.221404749,
      "geocoding_level": 8,
      "phone": "0855-52-0723",
      "license_no": "060418042",
      "license_date": null,
      "expire_date": null
    },
    {
      "name": "スナックＲｕｉ",
      "name_kana": "",
      "business_type": "",
      "address": "江津市江津町９３９－１０",
      "lat": 35.012677708,
      "lng": 132.221325414,
      "geocoding_level": 8,
      "phone": "",
      "license_no": "070410017",
      "license_date": null,
      "expire_date": null
    },
    {
      "name": "住京",
      "name_kana": "",
      "business_type": "",
      "address": "江津市黒松町１０６８－３８「島根県内一円」",
      "lat": 35.055373143,
      "lng": 132.309211864,
      "geocoding_level": 8,
      "phone": "",
      "license_no": "040418085",
      "license_date": null,
      "expire_date": null
    },
    {
      "name": "福應禅寺",
      "name_kana": "",
      "business_type": "",
      "address": "江津市桜江町江尾４０３",
      "lat": 34.936614592,
      "lng": 132.323101472,
      "geocoding_level": 8,
      "phone": "0855-92-0063",
      "license_no": "040418170",
      "license_date": null,
      "expire_date": null
    },
    {
      "name": "たこ焼　大明神",
      "name_kana": "",
      "business_type": "",
      "address": "江津市桜江町今田３０７－３「島根県内一円」",
      "lat": 34.939591591,
      "lng": 132.325876125,
      "geocoding_level": 8,
      "phone": "",
      "license_no": "040418179",
      "license_date": null,
      "expire_date": null
    },
    {
      "name": "宝生庵",
      "name_kana": "",
      "business_type": "",
      "address": "江津市桜江町坂本３８４２－１",
      "lat": 34.955857235,
      "lng": 132.414136209,
      "geocoding_level": 8,
      "phone": "",
      "license_no": "070410025",
      "license_date": null,
      "expire_date": null
    },
    {
      "name": "桜江そば　一心",
      "name_kana": "",
      "business_type": "",
      "address": "江津市桜江町市山３１４－７",
      "lat": 34.941294223,
      "lng": 132.318685036,
      "geocoding_level": 8,
      "phone": "0855-92-0123",
      "license_no": "060418062",
      "license_date": null,
      "expire_date": null
    },
    {
      "name": "たぬきの国",
      "name_kana": "",
      "business_type": "",
      "address": "江津市桜江町市山５０３－１",
      "lat": 34.938795913,
      "lng": 132.319966912,
      "geocoding_level": 8,
      "phone": "0855-92-1055",
      "license_no": "030410034",
      "license_date": null,
      "expire_date": null
    },
    {
      "name": "キッチン　さくら",
      "name_kana": "",
      "business_type": "",
      "address": "江津市桜江町小田８５６－１０",
      "lat": 34.945741142,
      "lng": 132.326358145,
      "geocoding_level": 8,
      "phone": "0855-92-0021",
      "license_no": "040410018",
      "license_date": null,
      "expire_date": null
    },
    {
      "name": "美川旅館",
      "name_kana": "",
      "business_type": "",
      "address": "江津市桜江町川戸１２７－１",
      "lat": 34.959936995,
      "lng": 132.333855033,
      "geocoding_level": 8,
      "phone": "0855-92-1311",
      "license_no": "060418035",
      "license_date": null,
      "expire_date": null
    },
    {
      "name": "麻胡",
      "name_kana": "",
      "business_type": "",
      "address": "江津市桜江町川戸１６－５",
      "lat": 34.957317344,
      "lng": 132.334941009,
      "geocoding_level": 8,
      "phone": "0855-92-0403",
      "license_no": "030418119",
      "license_date": null,
      "expire_date": null
    },
    {
      "name": "今井カフェ",
      "name_kana": "",
      "business_type": "",
      "address": "江津市桜江町川戸４７２－１",
      "lat": 34.954615497,
      "lng": 132.334807279,
      "geocoding_level": 8,
      "phone": "0855-92-1321",
      "license_no": "060418072",
      "license_date": null,
      "expire_date": null
    },
    {
      "name": "大番",
      "name_kana": "",
      "business_type": "",
      "address": "江津市桜江町川戸９－１３",
      "lat": 34.957713094,
      "lng": 132.33468397,
      "geocoding_level": 8,
      "phone": "",
      "license_no": "030418118",
      "license_date": null,
      "expire_date": null
    },
    {
      "name": "梅乃家",
      "name_kana": "",
      "business_type": "",
      "address": "江津市桜江町川戸９－１８",
      "lat": 34.957823906,
      "lng": 132.334460578,
      "geocoding_level": 8,
      "phone": "0855-92-0024",
      "license_no": "030418120",
      "license_date": null,
      "expire_date": null
    },
    {
      "name": "いわみ　はふはフーズ",
      "name_kana": "",
      "business_type": "",
      "address": "江津市桜江町大貫２４１－２和田団地１２１「県内一円」",
      "lat": 34.956461319,
      "lng": 132.390273243,
      "geocoding_level": 8,
      "phone": "",
      "license_no": "050410053",
      "license_date": null,
      "expire_date": null
    },
    {
      "name": "榎木の郷",
      "name_kana": "",
      "business_type": "",
      "address": "江津市桜江町大貫５７－１　「島根県内一円」",
      "lat": 34.959943861,
      "lng": 132.377622633,
      "geocoding_level": 8,
      "phone": "0855-93-0881",
      "license_no": "040410006",
      "license_date": null,
      "expire_date": null
    },
    {
      "name": "小島ヤ",
      "name_kana": "",
      "business_type": "",
      "address": "江津市桜江町谷住郷１４８２　「島根県内一円」",
      "lat": 34.969515272,
      "lng": 132.344736296,
      "geocoding_level": 8,
      "phone": "",
      "license_no": "040418187",
      "license_date": null,
      "expire_date": null
    },
    {
      "name": "さくらんぼのお家",
      "name_kana": "",
      "business_type": "",
      "address": "江津市桜江町谷住郷１７１３－１",
      "lat": 34.962640565,
      "lng": 132.336213874,
      "geocoding_level": 8,
      "phone": "0855-92-1171",
      "license_no": "030418132",
      "license_date": null,
      "expire_date": null
    },
    {
      "name": "鳥助倶楽部",
      "name_kana": "",
      "business_type": "",
      "address": "江津市桜江町谷住郷２５６６「県内一円」",
      "lat": 34.971616368,
      "lng": 132.331673498,
      "geocoding_level": 8,
      "phone": "",
      "license_no": "050410043",
      "license_date": null,
      "expire_date": null
    },
    {
      "name": "ローソン　江津桜江町店",
      "name_kana": "",
      "business_type": "",
      "address": "江津市桜江町谷住郷２６１１－１８",
      "lat": 34.969507844,
      "lng": 132.328863189,
      "geocoding_level": 8,
      "phone": "0855-92-1455",
      "license_no": "060418070",
      "license_date": null,
      "expire_date": null
    },
    {
      "name": "風のガーデン",
      "name_kana": "",
      "business_type": "",
      "address": "江津市桜江町長谷２６９６",
      "lat": 34.923136472,
      "lng": 132.266007054,
      "geocoding_level": 8,
      "phone": "0855-92-0001",
      "license_no": "070418252",
      "license_date": null,
      "expire_date": null
    },
    {
      "name": "ＭＯＲＩ　ＫＡＺＥ　ＫＩＴＣＨＥＮ",
      "name_kana": "",
      "business_type": "",
      "address": "江津市桜江町長谷２６９６",
      "lat": 34.923136472,
      "lng": 132.266007054,
      "geocoding_level": 8,
      "phone": "0855-92-0001",
      "license_no": "070418253",
      "license_date": null,
      "expire_date": null
    },
    {
      "name": "ｋｕｒａｎｉｗａ",
      "name_kana": "",
      "business_type": "",
      "address": "江津市松川町下河戸１－１",
      "lat": 35.017775,
      "lng": 132.282007,
      "geocoding_level": 3,
      "phone": "0855-57-0100",
      "license_no": "070418155",
      "license_date": null,
      "expire_date": null
    },
    {
      "name": "ｋｕｒａｎｉｗａ",
      "name_kana": "",
      "business_type": "",
      "address": "江津市松川町下河戸１－１　「島根県内一円」",
      "lat": 35.017775,
      "lng": 132.282007,
      "geocoding_level": 3,
      "phone": "",
      "license_no": "030410004",
      "license_date": null,
      "expire_date": null
    },
    {
      "name": "やま茶家",
      "name_kana": "",
      "business_type": "",
      "address": "江津市松川町市村２００－２",
      "lat": 35.004171,
      "lng": 132.284067,
      "geocoding_level": 3,
      "phone": "0855-57-0028",
      "license_no": "060418170",
      "license_date": null,
      "expire_date": null
    },
    {
      "name": "キツツキ",
      "name_kana": "",
      "business_type": "",
      "address": "江津市松川町市村３４２－６",
      "lat": 35.004171,
      "lng": 132.284067,
      "geocoding_level": 3,
      "phone": "0855-52-7224",
      "license_no": "070418015",
      "license_date": null,
      "expire_date": null
    },
    {
      "name": "はなまる咲かせ隊",
      "name_kana": "",
      "business_type": "",
      "address": "江津市松川町上津井９３「県内一円」",
      "lat": 34.998044,
      "lng": 132.325263,
      "geocoding_level": 3,
      "phone": "0855-52-0885",
      "license_no": "040410027",
      "license_date": null,
      "expire_date": null
    },
    {
      "name": "島根県立少年自然の家",
      "name_kana": "",
      "business_type": "",
      "address": "江津市松川町太田６１０",
      "lat": 35.015327,
      "lng": 132.250759,
      "geocoding_level": 3,
      "phone": "0855-52-3394",
      "license_no": "030418157",
      "license_date": null,
      "expire_date": null
    },
    {
      "name": "市後屋珈琲焙煎所",
      "name_kana": "",
      "business_type": "",
      "address": "江津市千田町５０４－８",
      "lat": 34.965186,
      "lng": 132.21974100000003,
      "geocoding_level": 3,
      "phone": "",
      "license_no": "040410010",
      "license_date": null,
      "expire_date": null
    },
    {
      "name": "カレー家　たく",
      "name_kana": "",
      "business_type": "",
      "address": "江津市千田町５２１",
      "lat": 34.965186,
      "lng": 132.21974100000003,
      "geocoding_level": 3,
      "phone": "0855-56-2920",
      "license_no": "070418135",
      "license_date": null,
      "expire_date": null
    },
    {
      "name": "やまあいピクルス",
      "name_kana": "",
      "business_type": "",
      "address": "江津市浅利町２０９－３",
      "lat": 35.032003,
      "lng": 132.260821,
      "geocoding_level": 3,
      "phone": "0855-55-1830",
      "license_no": "030410003",
      "license_date": null,
      "expire_date": null
    },
    {
      "name": "珈琲舎　道",
      "name_kana": "",
      "business_type": "",
      "address": "江津市浅利町２４５－７",
      "lat": 35.032003,
      "lng": 132.260821,
      "geocoding_level": 3,
      "phone": "0855-57-0555",
      "license_no": "050418020",
      "license_date": null,
      "expire_date": null
    },
    {
      "name": "あさりの杜「杜の休憩所　ＬＡＵＧＨ　ＲＯＵＧＨ」",
      "name_kana": "",
      "business_type": "",
      "address": "江津市浅利町２４８－５",
      "lat": 35.034271998,
      "lng": 132.2795135,
      "geocoding_level": 8,
      "phone": "",
      "license_no": "060410016",
      "license_date": null,
      "expire_date": null
    },
    {
      "name": "セブンイレブン江津浅利店",
      "name_kana": "",
      "business_type": "",
      "address": "江津市浅利町８４－３",
      "lat": 35.032003,
      "lng": 132.260821,
      "geocoding_level": 3,
      "phone": "0855-57-0722",
      "license_no": "050410034",
      "license_date": null,
      "expire_date": null
    },
    {
      "name": "ｈａｒｕ",
      "name_kana": "",
      "business_type": "",
      "address": "江津市渡津町１９９４－４",
      "lat": 35.018608,
      "lng": 132.236466,
      "geocoding_level": 3,
      "phone": "",
      "license_no": "060410009",
      "license_date": null,
      "expire_date": null
    },
    {
      "name": "中華料理　華龍",
      "name_kana": "",
      "business_type": "",
      "address": "江津市渡津町９４１－１",
      "lat": 35.018608,
      "lng": 132.236466,
      "geocoding_level": 3,
      "phone": "0855-52-7708",
      "license_no": "070418150",
      "license_date": null,
      "expire_date": null
    },
    {
      "name": "たまごｋｉｄｓ",
      "name_kana": "",
      "business_type": "",
      "address": "江津市渡津町９４６－１",
      "lat": 35.018608,
      "lng": 132.236466,
      "geocoding_level": 3,
      "phone": "0855-52-1023",
      "license_no": "050418119",
      "license_date": null,
      "expire_date": null
    },
    {
      "name": "マスゥミハート",
      "name_kana": "",
      "business_type": "",
      "address": "江津市都治町４１０－１",
      "lat": 35.033333014,
      "lng": 132.299118121,
      "geocoding_level": 8,
      "phone": "0855-55-0063",
      "license_no": "050418021",
      "license_date": null,
      "expire_date": null
    },
    {
      "name": "つのづｂａｓｅ",
      "name_kana": "",
      "business_type": "",
      "address": "江津市都野津町１８２６",
      "lat": 34.988782,
      "lng": 132.194364,
      "geocoding_level": 3,
      "phone": "",
      "license_no": "060410034",
      "license_date": null,
      "expire_date": null
    },
    {
      "name": "軽食喫茶　ノア",
      "name_kana": "",
      "business_type": "",
      "address": "江津市都野津町１８８０",
      "lat": 34.988782,
      "lng": 132.194364,
      "geocoding_level": 3,
      "phone": "0855-53-3319",
      "license_no": "030418115",
      "license_date": null,
      "expire_date": null
    },
    {
      "name": "菓子処　みなと",
      "name_kana": "",
      "business_type": "",
      "address": "江津市都野津町２０１４－１　「島根県内一円」",
      "lat": 34.988782,
      "lng": 132.194364,
      "geocoding_level": 3,
      "phone": "0855-53-0131",
      "license_no": "040410015",
      "license_date": null,
      "expire_date": null
    },
    {
      "name": "よしゑやし",
      "name_kana": "",
      "business_type": "",
      "address": "江津市都野津町２０１９－１",
      "lat": 34.988782,
      "lng": 132.194364,
      "geocoding_level": 3,
      "phone": "",
      "license_no": "050410002",
      "license_date": null,
      "expire_date": null
    },
    {
      "name": "旅館　やすなが",
      "name_kana": "",
      "business_type": "",
      "address": "江津市都野津町２０６",
      "lat": 34.988782,
      "lng": 132.194364,
      "geocoding_level": 3,
      "phone": "",
      "license_no": "070418136",
      "license_date": null,
      "expire_date": null
    },
    {
      "name": "おたふく",
      "name_kana": "",
      "business_type": "",
      "address": "江津市都野津町２２５９－９",
      "lat": 34.988782,
      "lng": 132.194364,
      "geocoding_level": 3,
      "phone": "",
      "license_no": "070418149",
      "license_date": null,
      "expire_date": null
    },
    {
      "name": "ローソン都野津駅前店",
      "name_kana": "",
      "business_type": "",
      "address": "江津市都野津町２２７７－４",
      "lat": 34.988782,
      "lng": 132.194364,
      "geocoding_level": 3,
      "phone": "0855-53-5040",
      "license_no": "070418030",
      "license_date": null,
      "expire_date": null
    },
    {
      "name": "焼肉酒場　こなみ",
      "name_kana": "",
      "business_type": "",
      "address": "江津市都野津町２３０８－１３",
      "lat": 34.988782,
      "lng": 132.194364,
      "geocoding_level": 3,
      "phone": "0855-53-3157",
      "license_no": "050418236",
      "license_date": null,
      "expire_date": null
    },
    {
      "name": "アップルハウス",
      "name_kana": "",
      "business_type": "",
      "address": "江津市都野津町２３０８－２４",
      "lat": 34.988782,
      "lng": 132.194364,
      "geocoding_level": 3,
      "phone": "0855-53-3806",
      "license_no": "040418202",
      "license_date": null,
      "expire_date": null
    },
    {
      "name": "カジュアルダイニング　３８（みや）",
      "name_kana": "",
      "business_type": "",
      "address": "江津市都野津町２３２３－２",
      "lat": 34.984657277,
      "lng": 132.190815904,
      "geocoding_level": 8,
      "phone": "",
      "license_no": "040410044",
      "license_date": null,
      "expire_date": null
    },
    {
      "name": "舞子（ブス）",
      "name_kana": "",
      "business_type": "",
      "address": "江津市都野津町２３３１－６",
      "lat": 34.982731189,
      "lng": 132.188249532,
      "geocoding_level": 8,
      "phone": "",
      "license_no": "070418025",
      "license_date": null,
      "expire_date": null
    },
    {
      "name": "ティールーム　優花",
      "name_kana": "",
      "business_type": "",
      "address": "江津市都野津町２３４２－１",
      "lat": 34.984368282,
      "lng": 132.187532175,
      "geocoding_level": 8,
      "phone": "0855-53-4811",
      "license_no": "040418200",
      "license_date": null,
      "expire_date": null
    },
    {
      "name": "よりみち",
      "name_kana": "",
      "business_type": "",
      "address": "江津市都野津町２３４３－１",
      "lat": 34.983622151,
      "lng": 132.188593976,
      "geocoding_level": 8,
      "phone": "0855-53-1978",
      "license_no": "060418168",
      "license_date": null,
      "expire_date": null
    },
    {
      "name": "スナック　あかしや",
      "name_kana": "",
      "business_type": "",
      "address": "江津市都野津町２３４３－３",
      "lat": 34.983536763,
      "lng": 132.188724833,
      "geocoding_level": 8,
      "phone": "0855-54-3515",
      "license_no": "070418099",
      "license_date": null,
      "expire_date": null
    },
    {
      "name": "韓国風お食事処　飛鳥",
      "name_kana": "",
      "business_type": "",
      "address": "江津市都野津町２３４３－３",
      "lat": 34.983536763,
      "lng": 132.188724833,
      "geocoding_level": 8,
      "phone": "",
      "license_no": "070410022",
      "license_date": null,
      "expire_date": null
    },
    {
      "name": "すし蔵のはなれ　江津店",
      "name_kana": "",
      "business_type": "",
      "address": "江津市都野津町２３６６－２７",
      "lat": 34.985581618,
      "lng": 132.186525544,
      "geocoding_level": 8,
      "phone": "0855-52-7318",
      "license_no": "040410014",
      "license_date": null,
      "expire_date": null
    },
    {
      "name": "ビジネスホテル　サンモール",
      "name_kana": "",
      "business_type": "",
      "address": "江津市都野津町２３９９－１",
      "lat": 34.989735219,
      "lng": 132.185213897,
      "geocoding_level": 8,
      "phone": "0855-54-3070",
      "license_no": "070418126",
      "license_date": null,
      "expire_date": null
    },
    {
      "name": "もちまる",
      "name_kana": "",
      "business_type": "",
      "address": "江津市都野津町２４０５－１",
      "lat": 34.989999816,
      "lng": 132.185515597,
      "geocoding_level": 8,
      "phone": "0855-53-2325",
      "license_no": "040410003",
      "license_date": null,
      "expire_date": null
    },
    {
      "name": "リエット",
      "name_kana": "",
      "business_type": "",
      "address": "江津市都野津町２４０５－１",
      "lat": 34.989999816,
      "lng": 132.185515597,
      "geocoding_level": 8,
      "phone": "",
      "license_no": "050418029",
      "license_date": null,
      "expire_date": null
    },
    {
      "name": "中国職業能力開発大学校附属 島根職業能力開発短期大学校（学生ホール）",
      "name_kana": "",
      "business_type": "",
      "address": "江津市二宮町神主１９６４－７",
      "lat": 34.974914,
      "lng": 132.19173900000004,
      "geocoding_level": 3,
      "phone": "",
      "license_no": "080418138",
      "license_date": null,
      "expire_date": null
    },
    {
      "name": "中国職業能力開発大学校附属 島根職業能力開発短期大学校（学生寮）",
      "name_kana": "",
      "business_type": "",
      "address": "江津市二宮町神主１９６４－７",
      "lat": 34.974914,
      "lng": 132.19173900000004,
      "geocoding_level": 3,
      "phone": "",
      "license_no": "080418140",
      "license_date": null,
      "expire_date": null
    },
    {
      "name": "お好み焼　のんのん",
      "name_kana": "",
      "business_type": "",
      "address": "江津市二宮町神主２２４０",
      "lat": 34.974914,
      "lng": 132.19173900000004,
      "geocoding_level": 3,
      "phone": "0855-53-1457",
      "license_no": "050418017",
      "license_date": null,
      "expire_date": null
    },
    {
      "name": "旨いとんかつ　糸吉",
      "name_kana": "",
      "business_type": "",
      "address": "江津市二宮町神主５１０－３",
      "lat": 34.974914,
      "lng": 132.19173900000004,
      "geocoding_level": 3,
      "phone": "0855-53-1968",
      "license_no": "040418009",
      "license_date": null,
      "expire_date": null
    },
    {
      "name": "Ｒｏｓｅ　Ｂｅｒｒｙ",
      "name_kana": "",
      "business_type": "",
      "address": "江津市二宮町神主イ６９",
      "lat": 34.974914,
      "lng": 132.19173900000004,
      "geocoding_level": 3,
      "phone": "",
      "license_no": "050418232",
      "license_date": null,
      "expire_date": null
    },
    {
      "name": "ＧＯＧＯファーム",
      "name_kana": "",
      "business_type": "",
      "address": "江津市二宮町神主イ８１「県内一円」",
      "lat": 34.974914,
      "lng": 132.19173900000004,
      "geocoding_level": 3,
      "phone": "",
      "license_no": "060410025",
      "license_date": null,
      "expire_date": null
    },
    {
      "name": "イーティーズ江津店",
      "name_kana": "",
      "business_type": "",
      "address": "江津市二宮町神主ハ１８７－２ ダイレックス江津店内",
      "lat": 34.974914,
      "lng": 132.19173900000004,
      "geocoding_level": 3,
      "phone": "",
      "license_no": "050410023",
      "license_date": null,
      "expire_date": null
    },
    {
      "name": "すき家　９号江津店",
      "name_kana": "",
      "business_type": "",
      "address": "江津市二宮町神主ハ２００－２",
      "lat": 34.974914,
      "lng": 132.19173900000004,
      "geocoding_level": 3,
      "phone": "",
      "license_no": "050410024",
      "license_date": null,
      "expire_date": null
    },
    {
      "name": "セブン-イレブン　江津二宮店",
      "name_kana": "",
      "business_type": "",
      "address": "江津市二宮町神主ハ３１５－１",
      "lat": 34.974914,
      "lng": 132.19173900000004,
      "geocoding_level": 3,
      "phone": "0855-53-4039",
      "license_no": "060418180",
      "license_date": null,
      "expire_date": null
    },
    {
      "name": "もくもく",
      "name_kana": "",
      "business_type": "",
      "address": "江津市二宮町神主ハ５０４－１",
      "lat": 34.974914,
      "lng": 132.19173900000004,
      "geocoding_level": 3,
      "phone": "",
      "license_no": "030410021",
      "license_date": null,
      "expire_date": null
    },
    {
      "name": "豚骨中華そば大",
      "name_kana": "",
      "business_type": "",
      "address": "江津市二宮町神主ハ５０４－１",
      "lat": 34.974914,
      "lng": 132.19173900000004,
      "geocoding_level": 3,
      "phone": "",
      "license_no": "050410012",
      "license_date": null,
      "expire_date": null
    },
    {
      "name": "カラオケ喫茶　すずらん",
      "name_kana": "",
      "business_type": "",
      "address": "江津市二宮町神主ハ５１０－６",
      "lat": 34.974914,
      "lng": 132.19173900000004,
      "geocoding_level": 3,
      "phone": "0855-53-4871",
      "license_no": "040418019",
      "license_date": null,
      "expire_date": null
    },
    {
      "name": "キヌヤ　二宮店",
      "name_kana": "",
      "business_type": "",
      "address": "江津市二宮町神主ハ８９－１",
      "lat": 34.974914,
      "lng": 132.19173900000004,
      "geocoding_level": 3,
      "phone": "0855-54-3516",
      "license_no": "080418072",
      "license_date": null,
      "expire_date": null
    },
    {
      "name": "ウォッチミュージアム　VOGA",
      "name_kana": "",
      "business_type": "",
      "address": "江津市波子町イ１２５５－２３０",
      "lat": 34.962204,
      "lng": 132.153395,
      "geocoding_level": 3,
      "phone": "0855-52-7565",
      "license_no": "040410005",
      "license_date": null,
      "expire_date": null
    },
    {
      "name": "ごはん家　おおえ",
      "name_kana": "",
      "business_type": "",
      "address": "江津市波子町イ１２５５－２３５",
      "lat": 34.962204,
      "lng": 132.153395,
      "geocoding_level": 3,
      "phone": "0855-53-2441",
      "license_no": "070418158",
      "license_date": null,
      "expire_date": null
    },
    {
      "name": "そわか",
      "name_kana": "",
      "business_type": "",
      "address": "江津市波子町イ１２５５－２７９",
      "lat": 34.962204,
      "lng": 132.153395,
      "geocoding_level": 3,
      "phone": "0855-52-0722",
      "license_no": "070410026",
      "license_date": null,
      "expire_date": null
    },
    {
      "name": "八〇屋さん",
      "name_kana": "",
      "business_type": "",
      "address": "江津市波子町イ１２５５－３１２",
      "lat": 34.962204,
      "lng": 132.153395,
      "geocoding_level": 3,
      "phone": "",
      "license_no": "030410013",
      "license_date": null,
      "expire_date": null
    },
    {
      "name": "ＳＡＷＡ",
      "name_kana": "",
      "business_type": "",
      "address": "江津市波子町イ１２５５－８１",
      "lat": 34.962204,
      "lng": 132.153395,
      "geocoding_level": 3,
      "phone": "",
      "license_no": "060418049",
      "license_date": null,
      "expire_date": null
    },
    {
      "name": "ＣＵＲＲＹ＆ＢＥＥＲ　山椒魚",
      "name_kana": "",
      "business_type": "",
      "address": "江津市波子町イ５９３－３",
      "lat": 34.962204,
      "lng": 132.153395,
      "geocoding_level": 3,
      "phone": "",
      "license_no": "060410032",
      "license_date": null,
      "expire_date": null
    },
    {
      "name": "ナミノコ雑貨店",
      "name_kana": "",
      "business_type": "",
      "address": "江津市波子町イ９８７",
      "lat": 34.962204,
      "lng": 132.153395,
      "geocoding_level": 3,
      "phone": "",
      "license_no": "040410057",
      "license_date": null,
      "expire_date": null
    },
    {
      "name": "うちのわ",
      "name_kana": "",
      "business_type": "",
      "address": "江津市波子町ロ４５１－６",
      "lat": 34.962204,
      "lng": 132.153395,
      "geocoding_level": 3,
      "phone": "0855-28-1122",
      "license_no": "085010001",
      "license_date": null,
      "expire_date": null
    },
    {
      "name": "どん丼",
      "name_kana": "",
      "business_type": "",
      "address": "江津市波子町ロ４５１－６",
      "lat": 34.962204,
      "lng": 132.153395,
      "geocoding_level": 3,
      "phone": "0855-28-3100",
      "license_no": "040418161",
      "license_date": null,
      "expire_date": null
    },
    {
      "name": "レストラン　いるか　（異瑠香）",
      "name_kana": "",
      "business_type": "",
      "address": "江津市波子町ロ４５１－６",
      "lat": 34.962204,
      "lng": 132.153395,
      "geocoding_level": 3,
      "phone": "0855-28-1122",
      "license_no": "050418037",
      "license_date": null,
      "expire_date": null
    },
    {
      "name": "浜田ラーメン",
      "name_kana": "",
      "business_type": "",
      "address": "江津市波子町ロ４５１－６",
      "lat": 34.962204,
      "lng": 132.153395,
      "geocoding_level": 3,
      "phone": "0855-28-3100",
      "license_no": "060418069",
      "license_date": null,
      "expire_date": null
    },
    {
      "name": "さちのわ",
      "name_kana": "",
      "business_type": "",
      "address": "江津市波子町ロ４５１－６",
      "lat": 34.962204,
      "lng": 132.153395,
      "geocoding_level": 3,
      "phone": "0855-28-3100",
      "license_no": "070410028",
      "license_date": null,
      "expire_date": null
    },
    {
      "name": "ロイのキッチン",
      "name_kana": "",
      "business_type": "",
      "address": "江津市有福温泉町１１２３－１１",
      "lat": 34.943349,
      "lng": 132.199345,
      "geocoding_level": 3,
      "phone": "",
      "license_no": "050410033",
      "license_date": null,
      "expire_date": null
    },
    {
      "name": "川口屋",
      "name_kana": "",
      "business_type": "",
      "address": "江津市有福温泉町５２０「県内一円」",
      "lat": 34.943349,
      "lng": 132.199345,
      "geocoding_level": 3,
      "phone": "",
      "license_no": "070410032",
      "license_date": null,
      "expire_date": null
    },
    {
      "name": "老人ホーム有福厨房",
      "name_kana": "",
      "business_type": "",
      "address": "江津市有福温泉町５４６",
      "lat": 34.943349,
      "lng": 132.199345,
      "geocoding_level": 3,
      "phone": "0855-56-0234",
      "license_no": "040418183",
      "license_date": null,
      "expire_date": null
    },
    {
      "name": "有福酒場　こととき",
      "name_kana": "",
      "business_type": "",
      "address": "江津市有福温泉町６３８－２",
      "lat": 34.943349,
      "lng": 132.199345,
      "geocoding_level": 3,
      "phone": "",
      "license_no": "070410038",
      "license_date": null,
      "expire_date": null
    },
    {
      "name": "石見商店",
      "name_kana": "",
      "business_type": "",
      "address": "江津市有福温泉町６３８－２「県内一円」",
      "lat": 34.943349,
      "lng": 132.199345,
      "geocoding_level": 3,
      "phone": "",
      "license_no": "060410015",
      "license_date": null,
      "expire_date": null
    },
    {
      "name": "椿庵",
      "name_kana": "",
      "business_type": "",
      "address": "江津市有福温泉町６７９－１",
      "lat": 34.943349,
      "lng": 132.199345,
      "geocoding_level": 3,
      "phone": "",
      "license_no": "060410036",
      "license_date": null,
      "expire_date": null
    },
    {
      "name": "有福　ＢＩＡＮＣＯ",
      "name_kana": "",
      "business_type": "",
      "address": "江津市有福温泉町６９０",
      "lat": 34.943349,
      "lng": 132.199345,
      "geocoding_level": 3,
      "phone": "0855-56-2620",
      "license_no": "030410016",
      "license_date": null,
      "expire_date": null
    },
    {
      "name": "三階旅館",
      "name_kana": "",
      "business_type": "",
      "address": "江津市有福温泉町６９２",
      "lat": 34.943349,
      "lng": 132.199345,
      "geocoding_level": 3,
      "phone": "0855-56-2211",
      "license_no": "030418149",
      "license_date": null,
      "expire_date": null
    },
    {
      "name": "有福どりっぷ",
      "name_kana": "",
      "business_type": "",
      "address": "江津市有福温泉町６９４",
      "lat": 34.943349,
      "lng": 132.199345,
      "geocoding_level": 3,
      "phone": "",
      "license_no": "050410030",
      "license_date": null,
      "expire_date": null
    },
    {
      "name": "アウルリゾート有福温泉",
      "name_kana": "",
      "business_type": "",
      "address": "江津市有福温泉町６９５",
      "lat": 34.943349,
      "lng": 132.199345,
      "geocoding_level": 3,
      "phone": "",
      "license_no": "040410039",
      "license_date": null,
      "expire_date": null
    },
    {
      "name": "Ｓｈｏｗｃａｓｅ　Ｈｏｔｅｌ　ＫＡＳＡＮＥ",
      "name_kana": "",
      "business_type": "",
      "address": "江津市有福温泉町６９７",
      "lat": 34.943349,
      "lng": 132.199345,
      "geocoding_level": 3,
      "phone": "0855-52-7556",
      "license_no": "040410016",
      "license_date": null,
      "expire_date": null
    },
    {
      "name": "よしだや",
      "name_kana": "",
      "business_type": "",
      "address": "江津市有福温泉町７０８",
      "lat": 34.943349,
      "lng": 132.199345,
      "geocoding_level": 3,
      "phone": "0855-56-2222",
      "license_no": "050418033",
      "license_date": null,
      "expire_date": null
    },
    {
      "name": "有福焼き鳥",
      "name_kana": "",
      "business_type": "",
      "address": "江津市有福温泉町７１１－１「県内一円」",
      "lat": 34.943349,
      "lng": 132.199345,
      "geocoding_level": 3,
      "phone": "",
      "license_no": "050410017",
      "license_date": null,
      "expire_date": null
    },
    {
      "name": "善太郎餅",
      "name_kana": "",
      "business_type": "",
      "address": "江津市有福温泉町７３７－１",
      "lat": 34.943349,
      "lng": 132.199345,
      "geocoding_level": 3,
      "phone": "0855-56-2130",
      "license_no": "070418134",
      "license_date": null,
      "expire_date": null
    },
    {
      "name": "旅館ぬしや",
      "name_kana": "",
      "business_type": "",
      "address": "江津市有福温泉町９５５",
      "lat": 34.943349,
      "lng": 132.199345,
      "geocoding_level": 3,
      "phone": "0855-56-2121",
      "license_no": "030410020",
      "license_date": null,
      "expire_date": null
    },
    {
      "name": "有福温泉　朝市の会",
      "name_kana": "",
      "business_type": "",
      "address": "江津市有福温泉町本明１４７２",
      "lat": 34.931264,
      "lng": 132.211674,
      "geocoding_level": 3,
      "phone": "",
      "license_no": "030418137",
      "license_date": null,
      "expire_date": null
    },
    {
      "name": "いちご山ゴルフセンター",
      "name_kana": "",
      "business_type": "",
      "address": "江津市和木町４５８－１",
      "lat": 34.999831,
      "lng": 132.201085,
      "geocoding_level": 3,
      "phone": "0855-52-3568",
      "license_no": "040418214",
      "license_date": null,
      "expire_date": null
    },
    {
      "name": "有限会社　もりでん",
      "name_kana": "",
      "business_type": "",
      "address": "江津市和木町４９７－３",
      "lat": 34.999831,
      "lng": 132.201085,
      "geocoding_level": 3,
      "phone": "0855-52-1562",
      "license_no": "070410030",
      "license_date": null,
      "expire_date": null
    },
    {
      "name": "まきた　別館",
      "name_kana": "",
      "business_type": "",
      "address": "江津市和木町５５５－３",
      "lat": 34.999831,
      "lng": 132.201085,
      "geocoding_level": 3,
      "phone": "0855-53-3535",
      "license_no": "080418135",
      "license_date": null,
      "expire_date": null
    },
    {
      "name": "ｈａｐｐｙ－ｌｏｔ．",
      "name_kana": "",
      "business_type": "",
      "address": "江津市和木町６０１－９ サンハイツ　１０２号",
      "lat": 35.002218574,
      "lng": 132.200432715,
      "geocoding_level": 8,
      "phone": "",
      "license_no": "050410035",
      "license_date": null,
      "expire_date": null
    },
    {
      "name": "本山　ベーカリー",
      "name_kana": "",
      "business_type": "",
      "address": "江津市和木町６０３－２０",
      "lat": 35.000879444,
      "lng": 132.200305142,
      "geocoding_level": 8,
      "phone": "0855-52-3205",
      "license_no": "060418040",
      "license_date": null,
      "expire_date": null
    },
    {
      "name": "九州ラーメンセンター　久留米",
      "name_kana": "",
      "business_type": "",
      "address": "江津市和木町６０３－２２",
      "lat": 35.000806862,
      "lng": 132.200071724,
      "geocoding_level": 8,
      "phone": "0855-52-5330",
      "license_no": "060418131",
      "license_date": null,
      "expire_date": null
    },
    {
      "name": "有限会社　パレス和光",
      "name_kana": "",
      "business_type": "",
      "address": "江津市和木町６０６－１４",
      "lat": 35.002402383,
      "lng": 132.203638451,
      "geocoding_level": 8,
      "phone": "0855-52-0147",
      "license_no": "060418043",
      "license_date": null,
      "expire_date": null
    },
    {
      "name": "炭火焼肉　ふじた",
      "name_kana": "",
      "business_type": "",
      "address": "江津市和木町６０６－１８",
      "lat": 35.002047059,
      "lng": 132.202875328,
      "geocoding_level": 8,
      "phone": "0855-52-5912",
      "license_no": "060418139",
      "license_date": null,
      "expire_date": null
    },
    {
      "name": "セブン・イレブン江津和木店",
      "name_kana": "",
      "business_type": "",
      "address": "江津市和木町６０６－２６",
      "lat": 35.001563601,
      "lng": 132.20183871100002,
      "geocoding_level": 8,
      "phone": "0855-52-6787",
      "license_no": "080418073",
      "license_date": null,
      "expire_date": null
    },
    {
      "name": "道の駅サンピコごうつ　店頭",
      "name_kana": "",
      "business_type": "",
      "address": "江津市後地町９９５－１",
      "lat": 35.045249587,
      "lng": 132.298956186,
      "geocoding_level": 8,
      "phone": "0855-55-3151",
      "license_no": "040428004",
      "license_date": null,
      "expire_date": null
    },
    {
      "name": "双葉工業(株)　駐車場",
      "name_kana": "",
      "business_type": "",
      "address": "江津市桜江町小田１",
      "lat": 34.94918744,
      "lng": 132.322391133,
      "geocoding_level": 8,
      "phone": "0855-92-1225",
      "license_no": "060428003",
      "license_date": null,
      "expire_date": null
    },
    {
      "name": "リボンソライロ　軒下",
      "name_kana": "",
      "business_type": "",
      "address": "江津市二宮町神主２１９０－４",
      "lat": 34.974914,
      "lng": 132.19173900000004,
      "geocoding_level": 3,
      "phone": "",
      "license_no": "070420001",
      "license_date": null,
      "expire_date": null
    },
    {
      "name": "ゆめタウン江津",
      "name_kana": "",
      "business_type": "",
      "address": "江津市嘉久志町２３０６－３０",
      "lat": 35.000487,
      "lng": 132.218944,
      "geocoding_level": 3,
      "phone": "0855-54-0178",
      "license_no": "050438001",
      "license_date": null,
      "expire_date": null
    },
    {
      "name": "民芸肉料理　共栄",
      "name_kana": "",
      "business_type": "",
      "address": "江津市江津町１２６０－４",
      "lat": 35.014751722,
      "lng": 132.22380225800003,
      "geocoding_level": 8,
      "phone": "0855-52-2433",
      "license_no": "040430001",
      "license_date": null,
      "expire_date": null
    },
    {
      "name": "ダイレックス江津店",
      "name_kana": "",
      "business_type": "",
      "address": "江津市二宮町神主ハ１８７－２",
      "lat": 34.974914,
      "lng": 132.19173900000004,
      "geocoding_level": 3,
      "phone": "",
      "license_no": "050430001",
      "license_date": null,
      "expire_date": null
    },
    {
      "name": "炭火焼肉　ふじた",
      "name_kana": "",
      "business_type": "",
      "address": "江津市和木町６０６－１８",
      "lat": 35.002047059,
      "lng": 132.202875328,
      "geocoding_level": 8,
      "phone": "0855-52-5912",
      "license_no": "070438001",
      "license_date": null,
      "expire_date": null
    },
    {
      "name": "ゆめタウン江津",
      "name_kana": "",
      "business_type": "",
      "address": "江津市嘉久志町２３０６－３０",
      "lat": 35.000487,
      "lng": 132.218944,
      "geocoding_level": 3,
      "phone": "0855-54-0178",
      "license_no": "050448001",
      "license_date": null,
      "expire_date": null
    },
    {
      "name": "山田鮮魚店",
      "name_kana": "",
      "business_type": "",
      "address": "江津市嘉久志町イ１４８６－２~４",
      "lat": 35.000487,
      "lng": 132.218944,
      "geocoding_level": 3,
      "phone": "0855-52-0822",
      "license_no": "040448001",
      "license_date": null,
      "expire_date": null
    },
    {
      "name": "サンピコごうつ",
      "name_kana": "",
      "business_type": "",
      "address": "江津市後地町９９５－１",
      "lat": 35.045249587,
      "lng": 132.298956186,
      "geocoding_level": 8,
      "phone": "0855-55-3151",
      "license_no": "040448002",
      "license_date": null,
      "expire_date": null
    },
    {
      "name": "わかひろや",
      "name_kana": "",
      "business_type": "",
      "address": "江津市江津町９３９－１",
      "lat": 35.012532369,
      "lng": 132.221404749,
      "geocoding_level": 8,
      "phone": "0855-52-0723",
      "license_no": "030440005",
      "license_date": null,
      "expire_date": null
    },
    {
      "name": "丸田屋",
      "name_kana": "",
      "business_type": "",
      "address": "江津市都野津町２００３",
      "lat": 34.988782,
      "lng": 132.194364,
      "geocoding_level": 3,
      "phone": "0855-53-0722",
      "license_no": "030448025",
      "license_date": null,
      "expire_date": null
    },
    {
      "name": "丸田屋",
      "name_kana": "",
      "business_type": "",
      "address": "江津市都野津町２００３",
      "lat": 34.988782,
      "lng": 132.194364,
      "geocoding_level": 3,
      "phone": "0855-53-0722",
      "license_no": "040448016",
      "license_date": null,
      "expire_date": null
    },
    {
      "name": "新家商店",
      "name_kana": "",
      "business_type": "",
      "address": "江津市都野津町２３０７－１９",
      "lat": 34.988782,
      "lng": 132.194364,
      "geocoding_level": 3,
      "phone": "0855-53-3777",
      "license_no": "070448008",
      "license_date": null,
      "expire_date": null
    },
    {
      "name": "キヌヤ　二宮店",
      "name_kana": "",
      "business_type": "",
      "address": "江津市二宮町神主ハ８９－１",
      "lat": 34.974914,
      "lng": 132.19173900000004,
      "geocoding_level": 3,
      "phone": "0855-54-3516",
      "license_no": "040440006",
      "license_date": null,
      "expire_date": null
    },
    {
      "name": "中央弁当",
      "name_kana": "",
      "business_type": "",
      "address": "江津市嘉久志町イ１１７４－２",
      "lat": 35.000487,
      "lng": 132.218944,
      "geocoding_level": 3,
      "phone": "0855-52-3393",
      "license_no": "060490001",
      "license_date": null,
      "expire_date": null
    },
    {
      "name": "ミートショップ舞乃市",
      "name_kana": "",
      "business_type": "",
      "address": "江津市後地町３３４８－１１３",
      "lat": 35.045232231,
      "lng": 132.300175406,
      "geocoding_level": 8,
      "phone": "0855-55-1155",
      "license_no": "070498004",
      "license_date": null,
      "expire_date": null
    },
    {
      "name": "有限会社　肉のこごし",
      "name_kana": "",
      "business_type": "",
      "address": "江津市江津町９０８－１９",
      "lat": 35.01356029,
      "lng": 132.224157217,
      "geocoding_level": 8,
      "phone": "0855-54-0323",
      "license_no": "040498001",
      "license_date": null,
      "expire_date": null
    },
    {
      "name": "猪加工販売センター",
      "name_kana": "",
      "business_type": "",
      "address": "江津市桜江町大貫５７－１",
      "lat": 34.959943861,
      "lng": 132.377622633,
      "geocoding_level": 8,
      "phone": "0855-93-0881",
      "license_no": "080498002",
      "license_date": null,
      "expire_date": null
    },
    {
      "name": "もぐもぐキッチン",
      "name_kana": "",
      "business_type": "",
      "address": "江津市嘉久志町２１８６－６",
      "lat": 35.000487,
      "lng": 132.218944,
      "geocoding_level": 3,
      "phone": "",
      "license_no": "040510011",
      "license_date": null,
      "expire_date": null
    },
    {
      "name": "菓匠　菓寿庵",
      "name_kana": "",
      "business_type": "",
      "address": "江津市嘉久志町２３０６－３０　 ゆめタウン江津１Ｆ",
      "lat": 35.000487,
      "lng": 132.218944,
      "geocoding_level": 3,
      "phone": "0855-54-0367",
      "license_no": "040518003",
      "license_date": null,
      "expire_date": null
    },
    {
      "name": "パリクロアッサン　江津店",
      "name_kana": "",
      "business_type": "",
      "address": "江津市嘉久志町２３０６－３０　 ゆめタウン江津１Ｆ",
      "lat": 35.000487,
      "lng": 132.218944,
      "geocoding_level": 3,
      "phone": "0855-52-5520",
      "license_no": "040518022",
      "license_date": null,
      "expire_date": null
    },
    {
      "name": "ａ’ｓ　ｐｅｔｉｔ　ｂｏｎｈｅｕｒ",
      "name_kana": "",
      "business_type": "",
      "address": "江津市嘉久志町２３０８－４",
      "lat": 35.000487,
      "lng": 132.218944,
      "geocoding_level": 3,
      "phone": "0855-52-2332",
      "license_no": "040518017",
      "license_date": null,
      "expire_date": null
    },
    {
      "name": "レッツビギン",
      "name_kana": "",
      "business_type": "",
      "address": "江津市嘉久志町２４２６－１１０",
      "lat": 35.00559901,
      "lng": 132.204601858,
      "geocoding_level": 8,
      "phone": "0855-52-7567",
      "license_no": "060518059",
      "license_date": null,
      "expire_date": null
    },
    {
      "name": "中央弁当",
      "name_kana": "",
      "business_type": "",
      "address": "江津市嘉久志町イ１１７４－２",
      "lat": 35.000487,
      "lng": 132.218944,
      "geocoding_level": 3,
      "phone": "0855-52-3393",
      "license_no": "040510012",
      "license_date": null,
      "expire_date": null
    },
    {
      "name": "ｔｏｉ　ｔｏｉ　ｔｏｉ",
      "name_kana": "",
      "business_type": "",
      "address": "江津市嘉久志町イ１５１０－１０",
      "lat": 35.000487,
      "lng": 132.218944,
      "geocoding_level": 3,
      "phone": "0855-52-7531",
      "license_no": "070518099",
      "license_date": null,
      "expire_date": null
    },
    {
      "name": "パン工房　ストロベリー",
      "name_kana": "",
      "business_type": "",
      "address": "江津市嘉久志町イ１５４５",
      "lat": 35.000487,
      "lng": 132.218944,
      "geocoding_level": 3,
      "phone": "0855-52-3062",
      "license_no": "050518067",
      "license_date": null,
      "expire_date": null
    },
    {
      "name": "ｃａｆｅ　桜ｃｏ",
      "name_kana": "",
      "business_type": "",
      "address": "江津市嘉久志町イ４０５",
      "lat": 35.000487,
      "lng": 132.218944,
      "geocoding_level": 3,
      "phone": "0855-52-7740",
      "license_no": "050510011",
      "license_date": null,
      "expire_date": null
    },
    {
      "name": "ｔｏｔｏｎ　ｂａｇｅｌ",
      "name_kana": "",
      "business_type": "",
      "address": "江津市嘉久志町イ６７５－２",
      "lat": 35.000487,
      "lng": 132.218944,
      "geocoding_level": 3,
      "phone": "",
      "license_no": "060510010",
      "license_date": null,
      "expire_date": null
    },
    {
      "name": "有限会社　中田屋",
      "name_kana": "",
      "business_type": "",
      "address": "江津市敬川町１２４７",
      "lat": 34.966112,
      "lng": 132.171276,
      "geocoding_level": 3,
      "phone": "0855-53-0032",
      "license_no": "050518005",
      "license_date": null,
      "expire_date": null
    },
    {
      "name": "トネリコ",
      "name_kana": "",
      "business_type": "",
      "address": "江津市敬川町２８９６－１",
      "lat": 34.966112,
      "lng": 132.171276,
      "geocoding_level": 3,
      "phone": "",
      "license_no": "070510006",
      "license_date": null,
      "expire_date": null
    },
    {
      "name": "いきいき都クラブ",
      "name_kana": "",
      "business_type": "",
      "address": "江津市後地町１９７０－１",
      "lat": 35.041907014,
      "lng": 132.289934571,
      "geocoding_level": 8,
      "phone": "",
      "license_no": "040518016",
      "license_date": null,
      "expire_date": null
    },
    {
      "name": "風のえんがわ",
      "name_kana": "",
      "business_type": "",
      "address": "江津市後地町２３９８",
      "lat": 35.034287823,
      "lng": 132.281492201,
      "geocoding_level": 8,
      "phone": "0855-57-0522",
      "license_no": "040518069",
      "license_date": null,
      "expire_date": null
    },
    {
      "name": "ひとっ風",
      "name_kana": "",
      "business_type": "",
      "address": "江津市後地町２４０１",
      "lat": 35.034820243,
      "lng": 132.281472579,
      "geocoding_level": 8,
      "phone": "0855-57-0522",
      "license_no": "070510003",
      "license_date": null,
      "expire_date": null
    },
    {
      "name": "ＢＡＫＥＲＹ　舞乃市",
      "name_kana": "",
      "business_type": "",
      "address": "江津市後地町３３４８－１１３",
      "lat": 35.045232231,
      "lng": 132.300175406,
      "geocoding_level": 8,
      "phone": "0855-55-1155",
      "license_no": "080518018",
      "license_date": null,
      "expire_date": null
    },
    {
      "name": "桑の木本舗",
      "name_kana": "",
      "business_type": "",
      "address": "江津市江津町１１１０－２０",
      "lat": 35.012793196,
      "lng": 132.217464572,
      "geocoding_level": 8,
      "phone": "0855-52-2806",
      "license_no": "060510001",
      "license_date": null,
      "expire_date": null
    },
    {
      "name": "ＢＬＵＥ－Ｇ　ＤＯＮＵＴ＆ＣＡＦＥ",
      "name_kana": "",
      "business_type": "",
      "address": "江津市江津町１２５８－３",
      "lat": 35.015016851,
      "lng": 132.223254966,
      "geocoding_level": 8,
      "phone": "0855-52-7007",
      "license_no": "060510008",
      "license_date": null,
      "expire_date": null
    },
    {
      "name": "近本大正堂",
      "name_kana": "",
      "business_type": "",
      "address": "江津市江津町３０１－２",
      "lat": 35.013048,
      "lng": 132.221504,
      "geocoding_level": 3,
      "phone": "0855-52-2058",
      "license_no": "050518004",
      "license_date": null,
      "expire_date": null
    },
    {
      "name": "いこいキッチン",
      "name_kana": "",
      "business_type": "",
      "address": "江津市江津町４６",
      "lat": 35.013048,
      "lng": 132.221504,
      "geocoding_level": 3,
      "phone": "",
      "license_no": "080510001",
      "license_date": null,
      "expire_date": null
    },
    {
      "name": "月窓庵",
      "name_kana": "",
      "business_type": "",
      "address": "江津市江津町７２３",
      "lat": 35.013048,
      "lng": 132.221504,
      "geocoding_level": 3,
      "phone": "",
      "license_no": "070510001",
      "license_date": null,
      "expire_date": null
    },
    {
      "name": "山根甘泉堂",
      "name_kana": "",
      "business_type": "",
      "address": "江津市江津町８９０－３",
      "lat": 35.013994823,
      "lng": 132.224643284,
      "geocoding_level": 8,
      "phone": "0855-52-2053",
      "license_no": "080518020",
      "license_date": null,
      "expire_date": null
    },
    {
      "name": "わかひろや",
      "name_kana": "",
      "business_type": "",
      "address": "江津市江津町９３９－１",
      "lat": 35.012532369,
      "lng": 132.221404749,
      "geocoding_level": 8,
      "phone": "0855-52-0723",
      "license_no": "030510011",
      "license_date": null,
      "expire_date": null
    },
    {
      "name": "お薬師フーズ",
      "name_kana": "",
      "business_type": "",
      "address": "江津市黒松町６３４甲－２",
      "lat": 35.055138,
      "lng": 132.313035,
      "geocoding_level": 3,
      "phone": "0855-55-1735",
      "license_no": "050510004",
      "license_date": null,
      "expire_date": null
    },
    {
      "name": "宝生庵",
      "name_kana": "",
      "business_type": "",
      "address": "江津市桜江町坂本３８４２－１",
      "lat": 34.955857235,
      "lng": 132.414136209,
      "geocoding_level": 8,
      "phone": "",
      "license_no": "070510011",
      "license_date": null,
      "expire_date": null
    },
    {
      "name": "桜花堂",
      "name_kana": "",
      "business_type": "",
      "address": "江津市桜江町川戸３９４－１",
      "lat": 34.956195052,
      "lng": 132.335790653,
      "geocoding_level": 8,
      "phone": "0855-92-0040",
      "license_no": "070518073",
      "license_date": null,
      "expire_date": null
    },
    {
      "name": "榎木の郷",
      "name_kana": "",
      "business_type": "",
      "address": "江津市桜江町大貫５７－１",
      "lat": 34.959943861,
      "lng": 132.377622633,
      "geocoding_level": 8,
      "phone": "0855-93-0881",
      "license_no": "030518017",
      "license_date": null,
      "expire_date": null
    },
    {
      "name": "さくらんぼのお家",
      "name_kana": "",
      "business_type": "",
      "address": "江津市桜江町谷住郷１７１３－１",
      "lat": 34.962640565,
      "lng": 132.336213874,
      "geocoding_level": 8,
      "phone": "0855-92-1171",
      "license_no": "030518018",
      "license_date": null,
      "expire_date": null
    },
    {
      "name": "谷住郷地域コミュニティ交流センター",
      "name_kana": "",
      "business_type": "",
      "address": "江津市桜江町谷住郷１８２４－１",
      "lat": 34.965689422,
      "lng": 132.338190661,
      "geocoding_level": 8,
      "phone": "0855-92-1457",
      "license_no": "040510005",
      "license_date": null,
      "expire_date": null
    },
    {
      "name": "パン工房　くるる",
      "name_kana": "",
      "business_type": "",
      "address": "江津市桜江町長谷３２１９－１１",
      "lat": 34.924996255,
      "lng": 132.274030416,
      "geocoding_level": 8,
      "phone": "",
      "license_no": "070510008",
      "license_date": null,
      "expire_date": null
    },
    {
      "name": "ｐａｃｋ　ｓａｃｋ",
      "name_kana": "",
      "business_type": "",
      "address": "江津市松川町下河戸１－１",
      "lat": 35.017775,
      "lng": 132.282007,
      "geocoding_level": 3,
      "phone": "0855-57-0100",
      "license_no": "070518007",
      "license_date": null,
      "expire_date": null
    },
    {
      "name": "千季",
      "name_kana": "",
      "business_type": "",
      "address": "江津市跡市町３８８－１",
      "lat": 34.94941,
      "lng": 132.231461,
      "geocoding_level": 3,
      "phone": "",
      "license_no": "040510009",
      "license_date": null,
      "expire_date": null
    },
    {
      "name": "やまあいピクルス",
      "name_kana": "",
      "business_type": "",
      "address": "江津市浅利町２０９－３",
      "lat": 35.032003,
      "lng": 132.260821,
      "geocoding_level": 3,
      "phone": "0855-55-1830",
      "license_no": "060510004",
      "license_date": null,
      "expire_date": null
    },
    {
      "name": "あさりの杜「杜の休憩所　ＬＡＵＧＨ　ＲＯＵＧＨ」",
      "name_kana": "",
      "business_type": "",
      "address": "江津市浅利町２４８－５",
      "lat": 35.034271998,
      "lng": 132.2795135,
      "geocoding_level": 8,
      "phone": "",
      "license_no": "060510006",
      "license_date": null,
      "expire_date": null
    },
    {
      "name": "お食事処　あさり亭",
      "name_kana": "",
      "business_type": "",
      "address": "江津市浅利町７２",
      "lat": 35.032003,
      "lng": 132.260821,
      "geocoding_level": 3,
      "phone": "0855-55-1063",
      "license_no": "050510010",
      "license_date": null,
      "expire_date": null
    },
    {
      "name": "Ｃｈｉｆｆｏｎ　たまごＫｉｄ’ｓ",
      "name_kana": "",
      "business_type": "",
      "address": "江津市渡津町１０６５",
      "lat": 35.018608,
      "lng": 132.236466,
      "geocoding_level": 3,
      "phone": "0855-52-1023",
      "license_no": "040518001",
      "license_date": null,
      "expire_date": null
    },
    {
      "name": "にぎたづ本舗",
      "name_kana": "",
      "business_type": "",
      "address": "江津市渡津町１５４４",
      "lat": 35.018608,
      "lng": 132.236466,
      "geocoding_level": 3,
      "phone": "0855-52-4166",
      "license_no": "060518013",
      "license_date": null,
      "expire_date": null
    },
    {
      "name": "ｈａｒｕ",
      "name_kana": "",
      "business_type": "",
      "address": "江津市渡津町１９９４－４",
      "lat": 35.018608,
      "lng": 132.236466,
      "geocoding_level": 3,
      "phone": "",
      "license_no": "040510015",
      "license_date": null,
      "expire_date": null
    },
    {
      "name": "パン工房　こむぎ",
      "name_kana": "",
      "business_type": "",
      "address": "江津市渡津町３２１５－１３",
      "lat": 35.015978241,
      "lng": 132.235560952,
      "geocoding_level": 8,
      "phone": "0855-52-4302",
      "license_no": "050518070",
      "license_date": null,
      "expire_date": null
    },
    {
      "name": "ＡＲＩＦＵＫＵＹＡ",
      "name_kana": "",
      "business_type": "",
      "address": "江津市都野津町１６５９－１",
      "lat": 34.988782,
      "lng": 132.194364,
      "geocoding_level": 3,
      "phone": "0855-53-0438",
      "license_no": "050518003",
      "license_date": null,
      "expire_date": null
    },
    {
      "name": "菓子処　みなと",
      "name_kana": "",
      "business_type": "",
      "address": "江津市都野津町２０１４－１",
      "lat": 34.988782,
      "lng": 132.194364,
      "geocoding_level": 3,
      "phone": "0855-53-0131",
      "license_no": "030510006",
      "license_date": null,
      "expire_date": null
    },
    {
      "name": "アグリプラント甲斐の木",
      "name_kana": "",
      "business_type": "",
      "address": "江津市都野津町２３０７－４７",
      "lat": 34.988782,
      "lng": 132.194364,
      "geocoding_level": 3,
      "phone": "0855-52-7141",
      "license_no": "070518074",
      "license_date": null,
      "expire_date": null
    },
    {
      "name": "フーズくわの木",
      "name_kana": "",
      "business_type": "",
      "address": "江津市二宮町神主２２１８－１",
      "lat": 34.974914,
      "lng": 132.19173900000004,
      "geocoding_level": 3,
      "phone": "0855-52-7185",
      "license_no": "080518017",
      "license_date": null,
      "expire_date": null
    },
    {
      "name": "Ｏｕｃｈｉのごはん",
      "name_kana": "",
      "business_type": "",
      "address": "江津市二宮町神主ハ１３４－１６",
      "lat": 34.974914,
      "lng": 132.19173900000004,
      "geocoding_level": 3,
      "phone": "",
      "license_no": "070510005",
      "license_date": null,
      "expire_date": null
    },
    {
      "name": "ラ・グラン・モンテ",
      "name_kana": "",
      "business_type": "",
      "address": "江津市二宮町神主ハ２１６－１０",
      "lat": 34.974914,
      "lng": 132.19173900000004,
      "geocoding_level": 3,
      "phone": "0855-53-2886",
      "license_no": "040518071",
      "license_date": null,
      "expire_date": null
    },
    {
      "name": "キヌヤ　二宮店",
      "name_kana": "",
      "business_type": "",
      "address": "江津市二宮町神主ハ８９－１",
      "lat": 34.974914,
      "lng": 132.19173900000004,
      "geocoding_level": 3,
      "phone": "0855-54-3516",
      "license_no": "030510003",
      "license_date": null,
      "expire_date": null
    },
    {
      "name": "ナミノコ雑貨店",
      "name_kana": "",
      "business_type": "",
      "address": "江津市波子町イ９８７",
      "lat": 34.962204,
      "lng": 132.153395,
      "geocoding_level": 3,
      "phone": "",
      "license_no": "040510014",
      "license_date": null,
      "expire_date": null
    },
    {
      "name": "川口屋",
      "name_kana": "",
      "business_type": "",
      "address": "江津市有福温泉町５２０",
      "lat": 34.943349,
      "lng": 132.199345,
      "geocoding_level": 3,
      "phone": "",
      "license_no": "070510013",
      "license_date": null,
      "expire_date": null
    },
    {
      "name": "有福どりっぷ",
      "name_kana": "",
      "business_type": "",
      "address": "江津市有福温泉町６９４",
      "lat": 34.943349,
      "lng": 132.199345,
      "geocoding_level": 3,
      "phone": "",
      "license_no": "050510007",
      "license_date": null,
      "expire_date": null
    },
    {
      "name": "善太郎餅",
      "name_kana": "",
      "business_type": "",
      "address": "江津市有福温泉町７３７－１",
      "lat": 34.943349,
      "lng": 132.199345,
      "geocoding_level": 3,
      "phone": "0855-56-2130",
      "license_no": "030518013",
      "license_date": null,
      "expire_date": null
    },
    {
      "name": "ｈａｐｐｙ－ｌｏｔ．",
      "name_kana": "",
      "business_type": "",
      "address": "江津市和木町６０１－９ サンハイツ　１０２号",
      "lat": 35.002218574,
      "lng": 132.200432715,
      "geocoding_level": 8,
      "phone": "",
      "license_no": "070510007",
      "license_date": null,
      "expire_date": null
    },
    {
      "name": "本山ベーカリー",
      "name_kana": "",
      "business_type": "",
      "address": "江津市和木町６０３－２０",
      "lat": 35.000879444,
      "lng": 132.200305142,
      "geocoding_level": 8,
      "phone": "0855-52-3205",
      "license_no": "060510002",
      "license_date": null,
      "expire_date": null
    },
    {
      "name": "石見麦酒　波子駅醸造所",
      "name_kana": "",
      "business_type": "",
      "address": "江津市波子町イ８４４－６",
      "lat": 34.962204,
      "lng": 132.153395,
      "geocoding_level": 3,
      "phone": "",
      "license_no": "060540003",
      "license_date": null,
      "expire_date": null
    },
    {
      "name": "若女食品　株式会社",
      "name_kana": "",
      "business_type": "",
      "address": "江津市渡津町９６１－４",
      "lat": 35.018608,
      "lng": 132.236466,
      "geocoding_level": 3,
      "phone": "0855-52-2468",
      "license_no": "030550001",
      "license_date": null,
      "expire_date": null
    },
    {
      "name": "（株）丸新　江津支社",
      "name_kana": "",
      "business_type": "",
      "address": "江津市敬川町２３１４－１",
      "lat": 34.966112,
      "lng": 132.171276,
      "geocoding_level": 3,
      "phone": "0855-53-1111",
      "license_no": "030560009",
      "license_date": null,
      "expire_date": null
    },
    {
      "name": "有限会社　住京蒲鉾店",
      "name_kana": "",
      "business_type": "",
      "address": "江津市黒松町１０６８－３８",
      "lat": 35.055373143,
      "lng": 132.309211864,
      "geocoding_level": 8,
      "phone": "0855-55-1659",
      "license_no": "040568003",
      "license_date": null,
      "expire_date": null
    },
    {
      "name": "若女食品　株式会社",
      "name_kana": "",
      "business_type": "",
      "address": "江津市渡津町９６１－４",
      "lat": 35.018608,
      "lng": 132.236466,
      "geocoding_level": 3,
      "phone": "0855-52-2468",
      "license_no": "030568002",
      "license_date": null,
      "expire_date": null
    },
    {
      "name": "𠮷岡醤油　有限会社",
      "name_kana": "",
      "business_type": "",
      "address": "江津市桜江町川戸１３－７",
      "lat": 34.959330123,
      "lng": 132.335725798,
      "geocoding_level": 8,
      "phone": "0855-92-0045",
      "license_no": "080608127",
      "license_date": null,
      "expire_date": null
    },
    {
      "name": "食房　まつひら日和",
      "name_kana": "",
      "business_type": "",
      "address": "江津市松川町市村２７２",
      "lat": 35.004171,
      "lng": 132.284067,
      "geocoding_level": 3,
      "phone": "0855-57-0002",
      "license_no": "050600002",
      "license_date": null,
      "expire_date": null
    },
    {
      "name": "千代緑醤油　醸造場",
      "name_kana": "",
      "business_type": "",
      "address": "江津市波子町イ１２５５－５",
      "lat": 34.962204,
      "lng": 132.153395,
      "geocoding_level": 3,
      "phone": "0855-53-2004",
      "license_no": "030608007",
      "license_date": null,
      "expire_date": null
    },
    {
      "name": "本明農産加工場",
      "name_kana": "",
      "business_type": "",
      "address": "江津市有福温泉町本明１０９３",
      "lat": 34.931264,
      "lng": 132.211674,
      "geocoding_level": 3,
      "phone": "0855-56-2354",
      "license_no": "070608097",
      "license_date": null,
      "expire_date": null
    },
    {
      "name": "都錦酒造　株式会社",
      "name_kana": "",
      "business_type": "",
      "address": "江津市嘉久志町イ１４１５",
      "lat": 35.000487,
      "lng": 132.218944,
      "geocoding_level": 3,
      "phone": "0855-52-2129",
      "license_no": "080618004",
      "license_date": null,
      "expire_date": null
    },
    {
      "name": "石見麦酒　波子駅醸造所",
      "name_kana": "",
      "business_type": "",
      "address": "江津市波子町イ８４４－６",
      "lat": 34.962204,
      "lng": 132.153395,
      "geocoding_level": 3,
      "phone": "0855-25-5740",
      "license_no": "060610001",
      "license_date": null,
      "expire_date": null
    },
    {
      "name": "お薬師フーズ",
      "name_kana": "",
      "business_type": "",
      "address": "江津市黒松町６３４甲２",
      "lat": 35.055138,
      "lng": 132.313035,
      "geocoding_level": 3,
      "phone": "0855-55-1735",
      "license_no": "040628006",
      "license_date": null,
      "expire_date": null
    },
    {
      "name": "さくらや",
      "name_kana": "",
      "business_type": "",
      "address": "江津市桜江町谷住郷１６４７－１",
      "lat": 34.957721157,
      "lng": 132.341175488,
      "geocoding_level": 8,
      "phone": "0855-92-1710",
      "license_no": "060628002",
      "license_date": null,
      "expire_date": null
    },
    {
      "name": "光岡豆腐",
      "name_kana": "",
      "business_type": "",
      "address": "江津市松川町市村３３－５",
      "lat": 35.004171,
      "lng": 132.284067,
      "geocoding_level": 3,
      "phone": "",
      "license_no": "050628001",
      "license_date": null,
      "expire_date": null
    },
    {
      "name": "もぐもぐキッチン",
      "name_kana": "",
      "business_type": "",
      "address": "江津市嘉久志町２１８６－６",
      "lat": 35.000487,
      "lng": 132.218944,
      "geocoding_level": 3,
      "phone": "",
      "license_no": "040650006",
      "license_date": null,
      "expire_date": null
    },
    {
      "name": "中央弁当",
      "name_kana": "",
      "business_type": "",
      "address": "江津市嘉久志町イ１１７４－２",
      "lat": 35.000487,
      "lng": 132.218944,
      "geocoding_level": 3,
      "phone": "0855-52-3393",
      "license_no": "060658005",
      "license_date": null,
      "expire_date": null
    },
    {
      "name": "トネリコ",
      "name_kana": "",
      "business_type": "",
      "address": "江津市敬川町２８９６－１",
      "lat": 34.966112,
      "lng": 132.171276,
      "geocoding_level": 3,
      "phone": "",
      "license_no": "070650005",
      "license_date": null,
      "expire_date": null
    },
    {
      "name": "デリカ舞乃市",
      "name_kana": "",
      "business_type": "",
      "address": "江津市後地町３３４８－１１３",
      "lat": 35.045232231,
      "lng": 132.300175406,
      "geocoding_level": 8,
      "phone": "0855-55-1155",
      "license_no": "070658010",
      "license_date": null,
      "expire_date": null
    },
    {
      "name": "菜花",
      "name_kana": "",
      "business_type": "",
      "address": "江津市後地町３３４９－２４",
      "lat": 35.03813,
      "lng": 132.292424,
      "geocoding_level": 3,
      "phone": "",
      "license_no": "070658009",
      "license_date": null,
      "expire_date": null
    },
    {
      "name": "(有)ミラノ亭",
      "name_kana": "",
      "business_type": "",
      "address": "江津市後地町９９５－１",
      "lat": 35.045249587,
      "lng": 132.298956186,
      "geocoding_level": 8,
      "phone": "0855-55-0140",
      "license_no": "040650005",
      "license_date": null,
      "expire_date": null
    },
    {
      "name": "わかひろや",
      "name_kana": "",
      "business_type": "",
      "address": "江津市江津町９３９－１",
      "lat": 35.012532369,
      "lng": 132.221404749,
      "geocoding_level": 8,
      "phone": "0855-52-0723",
      "license_no": "030650006",
      "license_date": null,
      "expire_date": null
    },
    {
      "name": "宝生庵",
      "name_kana": "",
      "business_type": "",
      "address": "江津市桜江町坂本３８４２－１",
      "lat": 34.955857235,
      "lng": 132.414136209,
      "geocoding_level": 8,
      "phone": "",
      "license_no": "070650006",
      "license_date": null,
      "expire_date": null
    },
    {
      "name": "吉岡醤油　有限会社",
      "name_kana": "",
      "business_type": "",
      "address": "江津市桜江町川戸６－９",
      "lat": 34.959679526,
      "lng": 132.334813902,
      "geocoding_level": 8,
      "phone": "0855-92-0045",
      "license_no": "040650003",
      "license_date": null,
      "expire_date": null
    },
    {
      "name": "榎木の郷",
      "name_kana": "",
      "business_type": "",
      "address": "江津市桜江町大貫５７－１",
      "lat": 34.959943861,
      "lng": 132.377622633,
      "geocoding_level": 8,
      "phone": "0855-93-0881",
      "license_no": "040658007",
      "license_date": null,
      "expire_date": null
    },
    {
      "name": "食房　まつひら日和",
      "name_kana": "",
      "business_type": "",
      "address": "江津市松川町市村２７２",
      "lat": 35.004171,
      "lng": 132.284067,
      "geocoding_level": 3,
      "phone": "0855-57-0002",
      "license_no": "050658012",
      "license_date": null,
      "expire_date": null
    },
    {
      "name": "里森",
      "name_kana": "",
      "business_type": "",
      "address": "江津市松川町市村２７２",
      "lat": 35.004171,
      "lng": 132.284067,
      "geocoding_level": 3,
      "phone": "",
      "license_no": "070650004",
      "license_date": null,
      "expire_date": null
    },
    {
      "name": "千季",
      "name_kana": "",
      "business_type": "",
      "address": "江津市跡市町３８８－１",
      "lat": 34.94941,
      "lng": 132.231461,
      "geocoding_level": 3,
      "phone": "",
      "license_no": "040650004",
      "license_date": null,
      "expire_date": null
    },
    {
      "name": "お食事処　あさり亭",
      "name_kana": "",
      "business_type": "",
      "address": "江津市浅利町７２",
      "lat": 35.032003,
      "lng": 132.260821,
      "geocoding_level": 3,
      "phone": "0855-55-1063",
      "license_no": "050650006",
      "license_date": null,
      "expire_date": null
    },
    {
      "name": "にぎたづ本舗",
      "name_kana": "",
      "business_type": "",
      "address": "江津市渡津町１５４４",
      "lat": 35.018608,
      "lng": 132.236466,
      "geocoding_level": 3,
      "phone": "0855-52-4166",
      "license_no": "060658003",
      "license_date": null,
      "expire_date": null
    },
    {
      "name": "若女食品　株式会社",
      "name_kana": "",
      "business_type": "",
      "address": "江津市渡津町９６１－４",
      "lat": 35.018608,
      "lng": 132.236466,
      "geocoding_level": 3,
      "phone": "0855-52-2468",
      "license_no": "060650003",
      "license_date": null,
      "expire_date": null
    },
    {
      "name": "鈴なりフーズ",
      "name_kana": "",
      "business_type": "",
      "address": "江津市都野津町２３３３－６",
      "lat": 34.983210839,
      "lng": 132.187802934,
      "geocoding_level": 8,
      "phone": "",
      "license_no": "060650004",
      "license_date": null,
      "expire_date": null
    },
    {
      "name": "食堂　よしだ",
      "name_kana": "",
      "business_type": "",
      "address": "江津市都野津町２３６９－３",
      "lat": 34.985033363,
      "lng": 132.186124495,
      "geocoding_level": 8,
      "phone": "0855-53-0043",
      "license_no": "040658015",
      "license_date": null,
      "expire_date": null
    },
    {
      "name": "フーズくわの木",
      "name_kana": "",
      "business_type": "",
      "address": "江津市二宮町神主２２１８－１",
      "lat": 34.974914,
      "lng": 132.19173900000004,
      "geocoding_level": 3,
      "phone": "0855-52-7185",
      "license_no": "080658006",
      "license_date": null,
      "expire_date": null
    },
    {
      "name": "Ｏｕｃｈｉのごはん",
      "name_kana": "",
      "business_type": "",
      "address": "江津市二宮町神主ハ１３４－１６",
      "lat": 34.974914,
      "lng": 132.19173900000004,
      "geocoding_level": 3,
      "phone": "",
      "license_no": "070650003",
      "license_date": null,
      "expire_date": null
    },
    {
      "name": "そわか",
      "name_kana": "",
      "business_type": "",
      "address": "江津市波子町イ１２５５－２７９",
      "lat": 34.962204,
      "lng": 132.153395,
      "geocoding_level": 3,
      "phone": "0855-52-0722",
      "license_no": "070650007",
      "license_date": null,
      "expire_date": null
    },
    {
      "name": "浜田ラーメン",
      "name_kana": "",
      "business_type": "",
      "address": "江津市波子町ロ４５１－６",
      "lat": 34.962204,
      "lng": 132.153395,
      "geocoding_level": 3,
      "phone": "0855-28-1122",
      "license_no": "060650006",
      "license_date": null,
      "expire_date": null
    },
    {
      "name": "レストラン異瑠香",
      "name_kana": "",
      "business_type": "",
      "address": "江津市波子町ロ４５１－６",
      "lat": 34.962204,
      "lng": 132.153395,
      "geocoding_level": 3,
      "phone": "0855-28-1122",
      "license_no": "060650007",
      "license_date": null,
      "expire_date": null
    },
    {
      "name": "川口屋",
      "name_kana": "",
      "business_type": "",
      "address": "江津市有福温泉町５２０",
      "lat": 34.943349,
      "lng": 132.199345,
      "geocoding_level": 3,
      "phone": "",
      "license_no": "070650008",
      "license_date": null,
      "expire_date": null
    },
    {
      "name": "本山ベーカリー",
      "name_kana": "",
      "business_type": "",
      "address": "江津市和木町６０３－２０",
      "lat": 35.000879444,
      "lng": 132.200305142,
      "geocoding_level": 8,
      "phone": "0855-52-3205",
      "license_no": "060650001",
      "license_date": null,
      "expire_date": null
    },
    {
      "name": "中央弁当",
      "name_kana": "",
      "business_type": "",
      "address": "江津市嘉久志町イ１１７４－２",
      "lat": 35.000487,
      "lng": 132.218944,
      "geocoding_level": 3,
      "phone": "0855-52-3393",
      "license_no": "060678001",
      "license_date": null,
      "expire_date": null
    },
    {
      "name": "さくらんぼのお家",
      "name_kana": "",
      "business_type": "",
      "address": "江津市桜江町谷住郷１７１３－１",
      "lat": 34.962640565,
      "lng": 132.336213874,
      "geocoding_level": 8,
      "phone": "0855-92-1171",
      "license_no": "060670001",
      "license_date": null,
      "expire_date": null
    },
    {
      "name": "ゆうずきファーム",
      "name_kana": "",
      "business_type": "",
      "address": "江津市桜江町後山２２３－１２",
      "lat": 34.957727048,
      "lng": 132.329606824,
      "geocoding_level": 8,
      "phone": "0855-92-0164",
      "license_no": "060690006",
      "license_date": null,
      "expire_date": null
    },
    {
      "name": "土田屋",
      "name_kana": "",
      "business_type": "",
      "address": "江津市桜江町江尾３８８",
      "lat": 34.936795938,
      "lng": 132.322046891,
      "geocoding_level": 8,
      "phone": "",
      "license_no": "060690004",
      "license_date": null,
      "expire_date": null
    },
    {
      "name": "宝生庵",
      "name_kana": "",
      "business_type": "",
      "address": "江津市桜江町坂本３８４２－１",
      "lat": 34.955857235,
      "lng": 132.414136209,
      "geocoding_level": 8,
      "phone": "",
      "license_no": "070690002",
      "license_date": null,
      "expire_date": null
    },
    {
      "name": "江の川クラブ",
      "name_kana": "",
      "business_type": "",
      "address": "江津市桜江町谷住郷１１８３",
      "lat": 34.978240547,
      "lng": 132.364083268,
      "geocoding_level": 8,
      "phone": "0855-92-1076",
      "license_no": "060690012",
      "license_date": null,
      "expire_date": null
    },
    {
      "name": "谷住郷地域コミュニティ交流センター",
      "name_kana": "",
      "business_type": "",
      "address": "江津市桜江町谷住郷１８２４－１",
      "lat": 34.965689422,
      "lng": 132.338190661,
      "geocoding_level": 8,
      "phone": "0855-92-1457",
      "license_no": "040690001",
      "license_date": null,
      "expire_date": null
    },
    {
      "name": "長谷特産部　そよ風会",
      "name_kana": "",
      "business_type": "",
      "address": "江津市桜江町長谷１５８５－８",
      "lat": 34.924330119,
      "lng": 132.274903831,
      "geocoding_level": 8,
      "phone": "0855-92-0974",
      "license_no": "050690006",
      "license_date": null,
      "expire_date": null
    },
    {
      "name": "光岡",
      "name_kana": "",
      "business_type": "",
      "address": "江津市松川町市村３３－５",
      "lat": 35.004171,
      "lng": 132.284067,
      "geocoding_level": 3,
      "phone": "",
      "license_no": "060690002",
      "license_date": null,
      "expire_date": null
    },
    {
      "name": "山田　明美",
      "name_kana": "",
      "business_type": "",
      "address": "江津市松川町市村３４２－３０",
      "lat": 35.004171,
      "lng": 132.284067,
      "geocoding_level": 3,
      "phone": "0855-57-0528",
      "license_no": "040690003",
      "license_date": null,
      "expire_date": null
    },
    {
      "name": "やまあいピクルス",
      "name_kana": "",
      "business_type": "",
      "address": "江津市浅利町２０９－３",
      "lat": 35.032003,
      "lng": 132.260821,
      "geocoding_level": 3,
      "phone": "0855-55-1830",
      "license_no": "030690001",
      "license_date": null,
      "expire_date": null
    },
    {
      "name": "あさりの杜「杜の休憩所　ＬＡＵＧＨ　ＲＯＵＧＨ」",
      "name_kana": "",
      "business_type": "",
      "address": "江津市浅利町２４８－５",
      "lat": 35.034271998,
      "lng": 132.2795135,
      "geocoding_level": 8,
      "phone": "",
      "license_no": "060690009",
      "license_date": null,
      "expire_date": null
    },
    {
      "name": "（株）永島青果",
      "name_kana": "",
      "business_type": "",
      "address": "江津市都野津町２３０７－１８",
      "lat": 34.988782,
      "lng": 132.194364,
      "geocoding_level": 3,
      "phone": "0855-53-3777",
      "license_no": "040690002",
      "license_date": null,
      "expire_date": null
    },
    {
      "name": "鈴なりフーズ",
      "name_kana": "",
      "business_type": "",
      "address": "江津市都野津町２３３３－６",
      "lat": 34.983210839,
      "lng": 132.187802934,
      "geocoding_level": 8,
      "phone": "",
      "license_no": "060690011",
      "license_date": null,
      "expire_date": null
    },
    {
      "name": "お薬師フーズ",
      "name_kana": "",
      "business_type": "",
      "address": "江津市黒松町６３４甲２",
      "lat": 35.055138,
      "lng": 132.313035,
      "geocoding_level": 3,
      "phone": "0855-55-1735",
      "license_no": "060700002",
      "license_date": null,
      "expire_date": null
    },