{
  "meta": {
    "updated": 1783906731,
    "sources": [
      {
        "source": "鹿児島県 鹿児島県食品営業許可施設一覧",
        "license": "Creative Commons Attribution 4.0 International"
      },
      {
        "source": "厚生労働省 食品衛生申請等システム（オープンデータ）",
        "license": "公共データ利用規約（第1.0版, PDL1.0）"
      }
    ]
  },
  "data": [
    {
      "name": "幸田　真二",
      "name_kana": "",
      "business_type": "飲食店営業（その他）",
      "address": "霧島市隼人町松永３００５－５ （鹿児島市を除く県内一円）",
      "lat": 31.783681639,
      "lng": 130.764629109,
      "geocoding_level": 8,
      "phone": "",
      "license_no": "第035-000037号",
      "license_date": null,
      "expire_date": "2028-04-30"
    },
    {
      "name": "嶋崎　智",
      "name_kana": "",
      "business_type": "飲食店営業（一般食堂・ﾚｽﾄﾗﾝ等）",
      "address": "霧島市隼人町姫城２７１８－２",
      "lat": 31.758284877,
      "lng": 130.760444195,
      "geocoding_level": 8,
      "phone": "",
      "license_no": "第033-000159号",
      "license_date": null,
      "expire_date": "2027-07-31"
    },
    {
      "name": "株式会社カゴシマバンズ",
      "name_kana": "",
      "business_type": "食肉処理業",
      "address": "霧島市国分広瀬１６９２－３６",
      "lat": 31.709941294999997,
      "lng": 130.75028296,
      "geocoding_level": 8,
      "phone": "",
      "license_no": "第032-000595号",
      "license_date": null,
      "expire_date": "2026-10-31"
    },
    {
      "name": "笹峯　大作",
      "name_kana": "",
      "business_type": "食肉処理業",
      "address": "霧島市溝辺町崎森２２４０",
      "lat": 31.768733533999995,
      "lng": 130.704851724,
      "geocoding_level": 8,
      "phone": "",
      "license_no": "第033-000269号",
      "license_date": null,
      "expire_date": "2027-07-31"
    },
    {
      "name": "大賀　早希",
      "name_kana": "",
      "business_type": "菓子製造業",
      "address": "霧島市国分中央３－１６－３１",
      "lat": 31.738878529,
      "lng": 130.769343441,
      "geocoding_level": 8,
      "phone": "",
      "license_no": "第034-000009号",
      "license_date": null,
      "expire_date": "2028-04-30"
    },
    {
      "name": "株式会社　ユウミ",
      "name_kana": "",
      "business_type": "菓子製造業",
      "address": "霧島市溝辺町竹子６９７－１",
      "lat": 31.858482092,
      "lng": 130.666386554,
      "geocoding_level": 8,
      "phone": "",
      "license_no": "第034-000010号",
      "license_date": null,
      "expire_date": "2028-04-30"
    },
    {
      "name": "西　順子",
      "name_kana": "",
      "business_type": "菓子製造業",
      "address": "霧島市牧園町万膳７１２",
      "lat": 31.901341907,
      "lng": 130.749272059,
      "geocoding_level": 8,
      "phone": "",
      "license_no": "第034-000011号",
      "license_date": null,
      "expire_date": "2028-04-30"
    },
    {
      "name": "西　順子",
      "name_kana": "",
      "business_type": "そうざい製造業",
      "address": "霧島市牧園町万膳７１２",
      "lat": 31.901341907,
      "lng": 130.749272059,
      "geocoding_level": 8,
      "phone": "",
      "license_no": "第034-000012号",
      "license_date": null,
      "expire_date": "2028-04-30"
    },
    {
      "name": "西　順子",
      "name_kana": "",
      "business_type": "みそ又はしょうゆ製造業",
      "address": "霧島市牧園町万膳７１２",
      "lat": 31.901341907,
      "lng": 130.749272059,
      "geocoding_level": 8,
      "phone": "",
      "license_no": "第034-000013号",
      "license_date": null,
      "expire_date": "2028-04-30"
    },
    {
      "name": "西　順子",
      "name_kana": "",
      "business_type": "密封包装食品製造業",
      "address": "霧島市牧園町万膳７１２",
      "lat": 31.901341907,
      "lng": 130.749272059,
      "geocoding_level": 8,
      "phone": "",
      "license_no": "第034-000014号",
      "license_date": null,
      "expire_date": "2028-04-30"
    },
    {
      "name": "川田　一未",
      "name_kana": "",
      "business_type": "菓子製造業",
      "address": "霧島市国分中央３－１６－３１",
      "lat": 31.738878529,
      "lng": 130.769343441,
      "geocoding_level": 8,
      "phone": "",
      "license_no": "第034-000015号",
      "license_date": null,
      "expire_date": "2028-04-30"
    },
    {
      "name": "安部　直人",
      "name_kana": "",
      "business_type": "飲食店営業（その他）",
      "address": "霧島市国分中央３－１２－１０",
      "lat": 31.739981645999997,
      "lng": 130.768664681,
      "geocoding_level": 8,
      "phone": "",
      "license_no": "第034-000016号",
      "license_date": null,
      "expire_date": "2028-04-30"
    },
    {
      "name": "八重尾　数利",
      "name_kana": "",
      "business_type": "食肉処理業",
      "address": "霧島市横川町下ノ１６９０－４",
      "lat": 31.864452496000002,
      "lng": 130.683162593,
      "geocoding_level": 8,
      "phone": "",
      "license_no": "第034-000079号",
      "license_date": null,
      "expire_date": "2028-04-30"
    },
    {
      "name": "内谷　隆生",
      "name_kana": "",
      "business_type": "飲食店営業（一般食堂・ﾚｽﾄﾗﾝ等）",
      "address": "霧島市溝辺町竹子２３１０",
      "lat": 31.861778000000005,
      "lng": 130.652742,
      "geocoding_level": 3,
      "phone": "",
      "license_no": "第034-000082号",
      "license_date": null,
      "expire_date": "2028-04-30"
    },
    {
      "name": "前田　光子",
      "name_kana": "",
      "business_type": "菓子製造業",
      "address": "霧島市溝辺町麓６０８－７",
      "lat": 31.791796340999998,
      "lng": 130.714805757,
      "geocoding_level": 8,
      "phone": "",
      "license_no": "第034-000083号",
      "license_date": null,
      "expire_date": "2028-04-30"
    },
    {
      "name": "株式会社　Ｌｉｖｅきりしま",
      "name_kana": "",
      "business_type": "飲食店営業（一般食堂・ﾚｽﾄﾗﾝ等）",
      "address": "霧島市溝辺町麓９８８－１",
      "lat": 31.792189539,
      "lng": 130.706797151,
      "geocoding_level": 8,
      "phone": "",
      "license_no": "第034-000085号",
      "license_date": null,
      "expire_date": "2028-04-30"
    },
    {
      "name": "イシマル食品有限会社",
      "name_kana": "",
      "business_type": "飲食店営業（一般食堂・ﾚｽﾄﾗﾝ等）",
      "address": "霧島市国分下井字上塩浜３２９４－１",
      "lat": 31.702022,
      "lng": 130.848587,
      "geocoding_level": 3,
      "phone": "",
      "license_no": "第034-000086号",
      "license_date": null,
      "expire_date": "2028-04-30"
    },
    {
      "name": "株式会社スマイル",
      "name_kana": "",
      "business_type": "飲食店営業（一般食堂・ﾚｽﾄﾗﾝ等）",
      "address": "霧島市国分広瀬２－２０－５１",
      "lat": 31.720833,
      "lng": 130.757434,
      "geocoding_level": 3,
      "phone": "",
      "license_no": "第034-000087号",
      "license_date": null,
      "expire_date": "2028-04-30"
    },
    {
      "name": "安楽　芙美代",
      "name_kana": "",
      "business_type": "飲食店営業（一般食堂・ﾚｽﾄﾗﾝ等）",
      "address": "霧島市国分新町９３６－３",
      "lat": 31.759309561,
      "lng": 130.777118224,
      "geocoding_level": 8,
      "phone": "",
      "license_no": "第034-000088号",
      "license_date": null,
      "expire_date": "2028-04-30"
    },
    {
      "name": "万膳　尚幸",
      "name_kana": "",
      "business_type": "飲食店営業（その他）",
      "address": "霧島市国分中央１－２４－２７",
      "lat": 31.7397092,
      "lng": 130.77151846600003,
      "geocoding_level": 8,
      "phone": "",
      "license_no": "第034-000091号",
      "license_date": null,
      "expire_date": "2028-04-30"
    },
    {
      "name": "池田　愛香",
      "name_kana": "",
      "business_type": "飲食店営業（一般食堂・ﾚｽﾄﾗﾝ等）",
      "address": "霧島市国分中央３－２２－２",
      "lat": 31.736961471,
      "lng": 130.766939383,
      "geocoding_level": 8,
      "phone": "",
      "license_no": "第034-000092号",
      "license_date": null,
      "expire_date": "2028-04-30"
    },
    {
      "name": "株式会社スマイル",
      "name_kana": "",
      "business_type": "飲食店営業（その他）",
      "address": "霧島市国分中央３－２４－２６",
      "lat": 31.737391206,
      "lng": 130.76593732,
      "geocoding_level": 8,
      "phone": "",
      "license_no": "第034-000093号",
      "license_date": null,
      "expire_date": "2028-04-30"
    },
    {
      "name": "村上　怜",
      "name_kana": "",
      "business_type": "飲食店営業（その他）",
      "address": "霧島市国分中央３－３４－６－１ キャメルビル１Ｆ",
      "lat": 31.739480000000004,
      "lng": 130.7647,
      "geocoding_level": 3,
      "phone": "",
      "license_no": "第034-000094号",
      "license_date": null,
      "expire_date": "2028-04-30"
    },
    {
      "name": "平山　等",
      "name_kana": "",
      "business_type": "飲食店営業（その他）",
      "address": "霧島市国分中央３－３５－２１ 第２みずほビル",
      "lat": 31.738018944,
      "lng": 130.764628371,
      "geocoding_level": 8,
      "phone": "",
      "license_no": "第034-000095号",
      "license_date": null,
      "expire_date": "2028-04-30"
    },
    {
      "name": "有限会社　本家国分とりや",
      "name_kana": "",
      "business_type": "飲食店営業（一般食堂・ﾚｽﾄﾗﾝ等）",
      "address": "霧島市国分中央３－７－２２ ラベンダービル１Ｆ",
      "lat": 31.739163651,
      "lng": 130.766129467,
      "geocoding_level": 8,
      "phone": "",
      "license_no": "第034-000096号",
      "license_date": null,
      "expire_date": "2028-04-30"
    },
    {
      "name": "田代　達也",
      "name_kana": "",
      "business_type": "飲食店営業（その他）",
      "address": "霧島市国分中央３－８－１５ 花牟禮ビル２０１",
      "lat": 31.738682944,
      "lng": 130.765757625,
      "geocoding_level": 8,
      "phone": "",
      "license_no": "第034-000097号",
      "license_date": null,
      "expire_date": "2028-04-30"
    },
    {
      "name": "キョウワプロテック株式会社",
      "name_kana": "",
      "business_type": "飲食店営業（一般食堂・ﾚｽﾄﾗﾝ等）",
      "address": "霧島市国分福島２－４－１４",
      "lat": 31.723331293,
      "lng": 130.754553055,
      "geocoding_level": 8,
      "phone": "",
      "license_no": "第034-000100号",
      "license_date": null,
      "expire_date": "2028-04-30"
    },
    {
      "name": "梅元　雅代",
      "name_kana": "",
      "business_type": "飲食店営業（その他）",
      "address": "霧島市国分福島２－４－１４",
      "lat": 31.723331293,
      "lng": 130.754553055,
      "geocoding_level": 8,
      "phone": "",
      "license_no": "第034-000101号",
      "license_date": null,
      "expire_date": "2028-04-30"
    },
    {
      "name": "柳田　五月",
      "name_kana": "",
      "business_type": "菓子製造業",
      "address": "霧島市隼人町真孝１３１０－２７",
      "lat": 31.727421955999997,
      "lng": 130.725896299,
      "geocoding_level": 8,
      "phone": "",
      "license_no": "第034-000103号",
      "license_date": null,
      "expire_date": "2028-04-30"
    },
    {
      "name": "有限会社植山かまぼこ屋",
      "name_kana": "",
      "business_type": "水産製品製造業",
      "address": "霧島市隼人町真孝７７０",
      "lat": 31.725961419,
      "lng": 130.730790143,
      "geocoding_level": 8,
      "phone": "",
      "license_no": "第034-000104号",
      "license_date": null,
      "expire_date": "2028-04-30"
    },
    {
      "name": "アップル観光有限会社",
      "name_kana": "",
      "business_type": "飲食店営業（旅館）",
      "address": "霧島市隼人町西光寺字松之尾２７０３－１",
      "lat": 31.776667000000003,
      "lng": 130.736911,
      "geocoding_level": 3,
      "phone": "",
      "license_no": "第034-000105号",
      "license_date": null,
      "expire_date": "2028-04-30"
    },
    {
      "name": "オレンジ観光有限会社",
      "name_kana": "",
      "business_type": "飲食店営業（旅館）",
      "address": "霧島市隼人町西光寺字松之尾２７０４－３",
      "lat": 31.776667000000003,
      "lng": 130.736911,
      "geocoding_level": 3,
      "phone": "",
      "license_no": "第034-000106号",
      "license_date": null,
      "expire_date": "2028-04-30"
    },
    {
      "name": "有限会社　食肉総専門　今肉屋",
      "name_kana": "",
      "business_type": "食肉販売業",
      "address": "霧島市隼人町東郷１－２６９－１",
      "lat": 31.772323796999995,
      "lng": 130.757988121,
      "geocoding_level": 8,
      "phone": "",
      "license_no": "第034-000107号",
      "license_date": null,
      "expire_date": "2028-04-30"
    },
    {
      "name": "有限会社　食肉総専門　今肉屋",
      "name_kana": "",
      "business_type": "飲食店営業（その他）",
      "address": "霧島市隼人町東郷１－２６９－１",
      "lat": 31.772323796999995,
      "lng": 130.757988121,
      "geocoding_level": 8,
      "phone": "",
      "license_no": "第034-000108号",
      "license_date": null,
      "expire_date": "2028-04-30"
    },
    {
      "name": "株式会社　野鶴亭",
      "name_kana": "",
      "business_type": "飲食店営業（旅館）",
      "address": "霧島市隼人町東郷１－８",
      "lat": 31.771204999999995,
      "lng": 130.755638,
      "geocoding_level": 3,
      "phone": "",
      "license_no": "第034-000109号",
      "license_date": null,
      "expire_date": "2028-04-30"
    },
    {
      "name": "井上　詠子",
      "name_kana": "",
      "business_type": "飲食店営業（仕出し屋・弁当屋）",
      "address": "霧島市隼人町内２４９６－１",
      "lat": 31.756382787000003,
      "lng": 130.7376855,
      "geocoding_level": 8,
      "phone": "",
      "license_no": "第034-000110号",
      "license_date": null,
      "expire_date": "2028-04-30"
    },
    {
      "name": "特定非営利活動法人　真愛会",
      "name_kana": "",
      "business_type": "飲食店営業（その他）",
      "address": "霧島市隼人町内山田１－５－２２ （鹿児島市を除く県内一円）",
      "lat": 31.741468275000003,
      "lng": 130.737354902,
      "geocoding_level": 8,
      "phone": "",
      "license_no": "第034-000112号",
      "license_date": null,
      "expire_date": "2027-04-30"
    },
    {
      "name": "特定非営利活動法人隼人わかば会",
      "name_kana": "",
      "business_type": "菓子製造業",
      "address": "霧島市隼人町内山田１－６－８－１",
      "lat": 31.743152,
      "lng": 130.736425,
      "geocoding_level": 3,
      "phone": "",
      "license_no": "第034-000113号",
      "license_date": null,
      "expire_date": "2028-04-30"
    },
    {
      "name": "株式会社　ジックス",
      "name_kana": "",
      "business_type": "飲食店営業（一般食堂・ﾚｽﾄﾗﾝ等）",
      "address": "霧島市隼人町姫城２－３８",
      "lat": 31.763284964000004,
      "lng": 130.758750822,
      "geocoding_level": 8,
      "phone": "",
      "license_no": "第034-000115号",
      "license_date": null,
      "expire_date": "2028-04-30"
    },
    {
      "name": "大田　れい子",
      "name_kana": "",
      "business_type": "飲食店営業（一般食堂・ﾚｽﾄﾗﾝ等）",
      "address": "霧島市隼人町姫城３－２３３",
      "lat": 31.772150826000004,
      "lng": 130.760269733,
      "geocoding_level": 8,
      "phone": "",
      "license_no": "第034-000116号",
      "license_date": null,
      "expire_date": "2028-04-30"
    },
    {
      "name": "宇都醸造有限会社",
      "name_kana": "",
      "business_type": "清涼飲料水製造業",
      "address": "霧島市福山町福山１４９０－１",
      "lat": 31.663398127000004,
      "lng": 130.821231286,
      "geocoding_level": 8,
      "phone": "",
      "license_no": "第034-000117号",
      "license_date": null,
      "expire_date": "2027-04-30"
    },
    {
      "name": "有限会社くすもと",
      "name_kana": "",
      "business_type": "麺類製造業",
      "address": "霧島市福山町福山５３４３",
      "lat": 31.656927000000003,
      "lng": 130.84406,
      "geocoding_level": 3,
      "phone": "",
      "license_no": "第034-000118号",
      "license_date": null,
      "expire_date": "2028-04-30"
    },
    {
      "name": "榮　美雪",
      "name_kana": "",
      "business_type": "飲食店営業（一般食堂・ﾚｽﾄﾗﾝ等）",
      "address": "霧島市牧園町高千穂３３１１－２９ （みやまコンセール内）",
      "lat": 31.881152433000004,
      "lng": 130.805517947,
      "geocoding_level": 8,
      "phone": "",
      "license_no": "第034-000121号",
      "license_date": null,
      "expire_date": "2028-04-30"
    },
    {
      "name": "有限会社　フォレストガーデン",
      "name_kana": "",
      "business_type": "菓子製造業",
      "address": "霧島市牧園町宿窪田２７３８－４６",
      "lat": 31.854185294000004,
      "lng": 130.754851606,
      "geocoding_level": 8,
      "phone": "",
      "license_no": "第034-000123号",
      "license_date": null,
      "expire_date": "2028-04-30"
    },
    {
      "name": "鶴ヶ野　知子",
      "name_kana": "",
      "business_type": "飲食店営業（旅館）",
      "address": "霧島市牧園町宿窪田４１９９－４",
      "lat": 31.819283771,
      "lng": 130.758501618,
      "geocoding_level": 8,
      "phone": "",
      "license_no": "第034-000124号",
      "license_date": null,
      "expire_date": "2028-04-30"
    },
    {
      "name": "吉村　美和子",
      "name_kana": "",
      "business_type": "そうざい製造業",
      "address": "霧島市牧園町上中津川１６０６",
      "lat": 31.857827643000004,
      "lng": 130.7898245,
      "geocoding_level": 8,
      "phone": "",
      "license_no": "第034-000125号",
      "license_date": null,
      "expire_date": "2028-04-30"
    },
    {
      "name": "長瀬　登志子",
      "name_kana": "",
      "business_type": "飲食店営業（その他）",
      "address": "霧島市牧園町上中津川２０８９－８ (鹿児島市を除く鹿児島県内一円）",
      "lat": 31.850987756,
      "lng": 130.812537699,
      "geocoding_level": 8,
      "phone": "",
      "license_no": "第034-000128号",
      "license_date": null,
      "expire_date": "2027-04-30"
    },
    {
      "name": "有限会社　食肉総専門　今肉屋",
      "name_kana": "",
      "business_type": "食肉製品製造業",
      "address": "霧島市隼人町東郷１－２３５",
      "lat": 31.771967334000003,
      "lng": 130.756170136,
      "geocoding_level": 8,
      "phone": "",
      "license_no": "第034-000134号",
      "license_date": null,
      "expire_date": "2028-04-30"
    },
    {
      "name": "木場　史実",
      "name_kana": "",
      "business_type": "菓子製造業",
      "address": "霧島市国分中央３－１６－３１",
      "lat": 31.738878529,
      "lng": 130.769343441,
      "geocoding_level": 8,
      "phone": "",
      "license_no": "第034-000137号",
      "license_date": null,
      "expire_date": "2028-04-30"
    },
    {
      "name": "渡邉　友見",
      "name_kana": "",
      "business_type": "菓子製造業",
      "address": "霧島市国分中央３－１６－３１",
      "lat": 31.738878529,
      "lng": 130.769343441,
      "geocoding_level": 8,
      "phone": "",
      "license_no": "第034-000138号",
      "license_date": null,
      "expire_date": "2028-04-30"
    },
    {
      "name": "株式会社ＫＲＩＪ",
      "name_kana": "",
      "business_type": "飲食店営業（一般食堂・ﾚｽﾄﾗﾝ等）",
      "address": "霧島市国分中央１－７－３－１ 岩戸テナント１階",
      "lat": 31.744070000000004,
      "lng": 130.769426,
      "geocoding_level": 3,
      "phone": "",
      "license_no": "第034-000145号",
      "license_date": null,
      "expire_date": "2028-04-30"
    },
    {
      "name": "山岡　広宣",
      "name_kana": "",
      "business_type": "飲食店営業（その他）",
      "address": "霧島市隼人町姫城１－３３５ ニュー富士　１０２号",
      "lat": 31.767546245,
      "lng": 130.756948925,
      "geocoding_level": 8,
      "phone": "",
      "license_no": "第034-000146号",
      "license_date": null,
      "expire_date": "2028-04-30"
    },
    {
      "name": "ヒル・トップフードシステム株式会社",
      "name_kana": "",
      "business_type": "飲食店営業（一般食堂・ﾚｽﾄﾗﾝ等）",
      "address": "霧島市国分広瀬１０２８－６",
      "lat": 31.712142000000004,
      "lng": 130.753255,
      "geocoding_level": 3,
      "phone": "",
      "license_no": "第034-000157号",
      "license_date": null,
      "expire_date": "2028-04-30"
    },
    {
      "name": "長﨑　正広",
      "name_kana": "",
      "business_type": "飲食店営業（その他）",
      "address": "霧島市国分中央３－２５－３ 西田ビル２Ｆ",
      "lat": 31.736917717,
      "lng": 130.765747803,
      "geocoding_level": 8,
      "phone": "",
      "license_no": "第034-000158号",
      "license_date": null,
      "expire_date": "2028-04-30"
    },
    {
      "name": "末永　百合子",
      "name_kana": "",
      "business_type": "そうざい製造業",
      "address": "霧島市横川町上ノ２０２４",
      "lat": 31.894341000000004,
      "lng": 130.65391,
      "geocoding_level": 3,
      "phone": "",
      "license_no": "第034-000162号",
      "license_date": null,
      "expire_date": "2028-04-30"
    },
    {
      "name": "中原　忍",
      "name_kana": "",
      "business_type": "飲食店営業（その他）",
      "address": "霧島市国分中央３－１１－２１ 令和国分ビル２０２号",
      "lat": 31.740146685000003,
      "lng": 130.767114369,
      "geocoding_level": 8,
      "phone": "",
      "license_no": "第034-000180号",
      "license_date": null,
      "expire_date": "2028-07-31"
    },
    {
      "name": "合同会社Ｓｉ－ｅｎ",
      "name_kana": "",
      "business_type": "飲食店営業（一般食堂・ﾚｽﾄﾗﾝ等）",
      "address": "霧島市国分新町１１５３－４",
      "lat": 31.766006590000003,
      "lng": 130.779453501,
      "geocoding_level": 8,
      "phone": "",
      "license_no": "第034-000170号",
      "license_date": null,
      "expire_date": "2028-04-30"
    },
    {
      "name": "中村　貴志",
      "name_kana": "",
      "business_type": "飲食店営業（その他）",
      "address": "霧島市霧島永水２７７２－５",
      "lat": 31.797019,
      "lng": 130.838565,
      "geocoding_level": 3,
      "phone": "",
      "license_no": "第034-000164号",
      "license_date": null,
      "expire_date": "2027-04-30"
    },
    {
      "name": "有限会社　清姫温泉",
      "name_kana": "",
      "business_type": "飲食店営業（旅館）",
      "address": "霧島市隼人町姫城３－１２４",
      "lat": 31.770224277,
      "lng": 130.757827157,
      "geocoding_level": 8,
      "phone": "",
      "license_no": "第034-000183号",
      "license_date": null,
      "expire_date": "2028-07-31"
    },
    {
      "name": "古江　せい子",
      "name_kana": "",
      "business_type": "菓子製造業",
      "address": "霧島市牧園町三体堂６６５",
      "lat": 31.894760999999995,
      "lng": 130.79063,
      "geocoding_level": 3,
      "phone": "",
      "license_no": "第034-000184号",
      "license_date": null,
      "expire_date": "2028-07-31"
    },
    {
      "name": "古江　せい子",
      "name_kana": "",
      "business_type": "漬物製造業",
      "address": "霧島市牧園町三体堂６６５",
      "lat": 31.894760999999995,
      "lng": 130.79063,
      "geocoding_level": 3,
      "phone": "",
      "license_no": "第034-000185号",
      "license_date": null,
      "expire_date": "2028-07-31"
    },
    {
      "name": "池田　貴成",
      "name_kana": "",
      "business_type": "飲食店営業（その他）",
      "address": "霧島市隼人町住吉２４９－１",
      "lat": 31.727064063,
      "lng": 130.746383937,
      "geocoding_level": 8,
      "phone": "",
      "license_no": "第034-000194号",
      "license_date": null,
      "expire_date": "2027-07-31"
    },
    {
      "name": "矢野　絹子",
      "name_kana": "",
      "business_type": "飲食店営業（一般食堂・ﾚｽﾄﾗﾝ等）",
      "address": "霧島市牧園町高千穂３８７８－２０２",
      "lat": 31.89012279,
      "lng": 130.823065175,
      "geocoding_level": 8,
      "phone": "",
      "license_no": "第034-000203号",
      "license_date": null,
      "expire_date": "2028-07-31"
    },
    {
      "name": "市野　みゆき",
      "name_kana": "",
      "business_type": "菓子製造業",
      "address": "霧島市横川町下ノ９３６－１",
      "lat": 31.874507518,
      "lng": 130.709379645,
      "geocoding_level": 8,
      "phone": "",
      "license_no": "第034-000205号",
      "license_date": null,
      "expire_date": "2028-07-31"
    },
    {
      "name": "市野　みゆき",
      "name_kana": "",
      "business_type": "そうざい製造業",
      "address": "霧島市横川町下ノ９３６－１",
      "lat": 31.874507518,
      "lng": 130.709379645,
      "geocoding_level": 8,
      "phone": "",
      "license_no": "第034-000206号",
      "license_date": null,
      "expire_date": "2028-07-31"
    },
    {
      "name": "郡田　正幸",
      "name_kana": "",
      "business_type": "飲食店営業（一般食堂・ﾚｽﾄﾗﾝ等）",
      "address": "霧島市国分新町９７２－１",
      "lat": 31.762273805,
      "lng": 130.778256138,
      "geocoding_level": 8,
      "phone": "",
      "license_no": "第034-000207号",
      "license_date": null,
      "expire_date": "2028-07-31"
    },
    {
      "name": "土川　龍二",
      "name_kana": "",
      "business_type": "飲食店営業（その他）",
      "address": "霧島市国分松木町５－１４クリエイト１０２ （鹿児島市を除く県内一円）",
      "lat": 31.734010731,
      "lng": 130.752484068,
      "geocoding_level": 8,
      "phone": "",
      "license_no": "第034-000209号",
      "license_date": null,
      "expire_date": "2027-07-31"
    },
    {
      "name": "東代宮　亜里沙",
      "name_kana": "",
      "business_type": "飲食店営業（その他）",
      "address": "霧島市国分中央３－６－７ 瀧聞ビル２階２０３",
      "lat": 31.740516685000003,
      "lng": 130.767179496,
      "geocoding_level": 8,
      "phone": "",
      "license_no": "第034-000229号",
      "license_date": null,
      "expire_date": "2028-07-31"
    },
    {
      "name": "株式会社スマイル",
      "name_kana": "",
      "business_type": "食肉販売業",
      "address": "霧島市国分広瀬２－２０－５１",
      "lat": 31.720833,
      "lng": 130.757434,
      "geocoding_level": 3,
      "phone": "",
      "license_no": "第034-000223号",
      "license_date": null,
      "expire_date": "2028-07-31"
    },
    {
      "name": "橋口　里美",
      "name_kana": "",
      "business_type": "みそ又はしょうゆ製造業",
      "address": "霧島市横川町上ノ３５９０－９ 霧島市横川農業交流センター丸岡さくら館",
      "lat": 31.88951528,
      "lng": 130.674943316,
      "geocoding_level": 8,
      "phone": "",
      "license_no": "第034-000224号",
      "license_date": null,
      "expire_date": "2028-07-31"
    },
    {
      "name": "株式会社Ｎ－ＳＴＡＧＥ",
      "name_kana": "",
      "business_type": "飲食店営業（その他）",
      "address": "霧島市国分中央３－１２－１ センタービル２Ｆ",
      "lat": 31.740649077,
      "lng": 130.767619205,
      "geocoding_level": 8,
      "phone": "",
      "license_no": "第034-000225号",
      "license_date": null,
      "expire_date": "2028-07-31"
    },
    {
      "name": "脇田　峻輔",
      "name_kana": "",
      "business_type": "飲食店営業（その他）",
      "address": "霧島市隼人町見次１２５７－３",
      "lat": 31.739042883999996,
      "lng": 130.743359017,
      "geocoding_level": 8,
      "phone": "",
      "license_no": "第034-000232号",
      "license_date": null,
      "expire_date": "2028-07-31"
    },
    {
      "name": "古江　睦美",
      "name_kana": "",
      "business_type": "菓子製造業",
      "address": "霧島市隼人町真孝１６６－１",
      "lat": 31.731366944,
      "lng": 130.735053872,
      "geocoding_level": 8,
      "phone": "",
      "license_no": "第034-000240号",
      "license_date": null,
      "expire_date": "2028-07-31"
    },
    {
      "name": "東　みな",
      "name_kana": "",
      "business_type": "飲食店営業（その他）",
      "address": "霧島市国分中央３－２８－１６ 中央国分BLD５A号室",
      "lat": 31.737097964,
      "lng": 130.765139254,
      "geocoding_level": 8,
      "phone": "",
      "license_no": "第034-000241号",
      "license_date": null,
      "expire_date": "2028-07-31"
    },
    {
      "name": "株式会社　Ｒｅ・Ｐｒｏ",
      "name_kana": "",
      "business_type": "飲食店営業（その他）",
      "address": "霧島市国分中央３－１５－１４ ＹＴビル２F",
      "lat": 31.737396700000005,
      "lng": 130.768219297,
      "geocoding_level": 8,
      "phone": "",
      "license_no": "第034-000237号",
      "license_date": null,
      "expire_date": "2028-07-31"
    },
    {
      "name": "堀川　末男",
      "name_kana": "",
      "business_type": "飲食店営業（一般食堂・ﾚｽﾄﾗﾝ等）",
      "address": "霧島市隼人町姫城１－６４",
      "lat": 31.764011964,
      "lng": 130.757314107,
      "geocoding_level": 8,
      "phone": "",
      "license_no": "第034-000244号",
      "license_date": null,
      "expire_date": "2028-07-31"
    },
    {
      "name": "有村　奈央",
      "name_kana": "",
      "business_type": "菓子製造業",
      "address": "霧島市国分中央３－１６－３１",
      "lat": 31.738878529,
      "lng": 130.769343441,
      "geocoding_level": 8,
      "phone": "",
      "license_no": "第034-000242号",
      "license_date": null,
      "expire_date": "2028-07-31"
    },
    {
      "name": "中村　博文",
      "name_kana": "",
      "business_type": "そうざい製造業",
      "address": "霧島市隼人町東郷１６１",
      "lat": 31.767496203000004,
      "lng": 130.753185874,
      "geocoding_level": 8,
      "phone": "",
      "license_no": "第034-000245号",
      "license_date": null,
      "expire_date": "2028-07-31"
    },
    {
      "name": "今村　志緒里",
      "name_kana": "",
      "business_type": "飲食店営業（その他）",
      "address": "霧島市牧園町高千穂３９３０－７ （鹿児島市を除く県内一円）",
      "lat": 31.893238852000003,
      "lng": 130.829554766,
      "geocoding_level": 8,
      "phone": "",
      "license_no": "第034-000254号",
      "license_date": null,
      "expire_date": "2028-07-31"
    },
    {
      "name": "岩﨑　惠利子",
      "name_kana": "",
      "business_type": "飲食店営業（一般食堂・ﾚｽﾄﾗﾝ等）",
      "address": "霧島市横川町中ノ１３６２",
      "lat": 31.898146000000004,
      "lng": 130.709349,
      "geocoding_level": 3,
      "phone": "",
      "license_no": "第034-000297号",
      "license_date": null,
      "expire_date": "2027-07-31"
    },
    {
      "name": "壱岐　瑞生",
      "name_kana": "",
      "business_type": "菓子製造業",
      "address": "霧島市溝辺町竹子７８４",
      "lat": 31.860839226,
      "lng": 130.661996711,
      "geocoding_level": 8,
      "phone": "",
      "license_no": "第034-000298号",
      "license_date": null,
      "expire_date": "2028-07-31"
    },
    {
      "name": "壱岐　瑞生",
      "name_kana": "",
      "business_type": "そうざい製造業",
      "address": "霧島市溝辺町竹子７８４",
      "lat": 31.860839226,
      "lng": 130.661996711,
      "geocoding_level": 8,
      "phone": "",
      "license_no": "第034-000299号",
      "license_date": null,
      "expire_date": "2028-07-31"
    },
    {
      "name": "迫間　清文",
      "name_kana": "",
      "business_type": "飲食店営業（その他）",
      "address": "霧島市溝辺町麓３３９１－１０２",
      "lat": 31.826815256000003,
      "lng": 130.687501584,
      "geocoding_level": 8,
      "phone": "",
      "license_no": "第034-000363号",
      "license_date": null,
      "expire_date": "2028-07-31"
    },
    {
      "name": "松嵜　和人",
      "name_kana": "",
      "business_type": "飲食店営業（仕出し屋・弁当屋）",
      "address": "霧島市国分広瀬４－２１－１",
      "lat": 31.711662402,
      "lng": 130.763854502,
      "geocoding_level": 8,
      "phone": "",
      "license_no": "第034-000300号",
      "license_date": null,
      "expire_date": "2028-07-31"
    },
    {
      "name": "株式会社さくら農園",
      "name_kana": "",
      "business_type": "飲食店営業（一般食堂・ﾚｽﾄﾗﾝ等）",
      "address": "霧島市国分重久６０２９－３",
      "lat": 31.787151224999995,
      "lng": 130.784664913,
      "geocoding_level": 8,
      "phone": "",
      "license_no": "第034-000301号",
      "license_date": null,
      "expire_date": "2028-07-31"
    },
    {
      "name": "株式会社さくら農園",
      "name_kana": "",
      "business_type": "清涼飲料水製造業",
      "address": "霧島市国分重久６０２９－３",
      "lat": 31.787151224999995,
      "lng": 130.784664913,
      "geocoding_level": 8,
      "phone": "",
      "license_no": "第034-000302号",
      "license_date": null,
      "expire_date": "2028-07-31"
    },
    {
      "name": "有限会社　ホテル牧の原",
      "name_kana": "",
      "business_type": "飲食店営業（旅館）",
      "address": "霧島市国分上之段２５６５",
      "lat": 31.692717,
      "lng": 130.833946,
      "geocoding_level": 3,
      "phone": "",
      "license_no": "第034-000303号",
      "license_date": null,
      "expire_date": "2027-07-31"
    },
    {
      "name": "有限会社　鹿児島ラーメン",
      "name_kana": "",
      "business_type": "麺類製造業",
      "address": "霧島市国分上之段３６２－３",
      "lat": 31.684774272,
      "lng": 130.836394435,
      "geocoding_level": 8,
      "phone": "",
      "license_no": "第034-000304号",
      "license_date": null,
      "expire_date": "2027-07-31"
    },
    {
      "name": "竹本　朋広",
      "name_kana": "",
      "business_type": "飲食店営業（一般食堂・ﾚｽﾄﾗﾝ等）",
      "address": "霧島市国分中央３－１３－１５",
      "lat": 31.738579774,
      "lng": 130.767396449,
      "geocoding_level": 8,
      "phone": "",
      "license_no": "第034-000308号",
      "license_date": null,
      "expire_date": "2028-07-31"
    },
    {
      "name": "杉村　恵子",
      "name_kana": "",
      "business_type": "飲食店営業（その他）",
      "address": "霧島市国分中央３－２８－１６ 中央国分ＢＬＤ５Ｆ　Ｃ号室",
      "lat": 31.737097964,
      "lng": 130.765139254,
      "geocoding_level": 8,
      "phone": "",
      "license_no": "第034-000310号",
      "license_date": null,
      "expire_date": "2028-07-31"
    },
    {
      "name": "みやま産業株式会社",
      "name_kana": "",
      "business_type": "飲食店営業（一般食堂・ﾚｽﾄﾗﾝ等）",
      "address": "霧島市国分中央３－７－２２ 大屋ビル１Ｆ",
      "lat": 31.739163651,
      "lng": 130.766129467,
      "geocoding_level": 8,
      "phone": "",
      "license_no": "第034-000312号",
      "license_date": null,
      "expire_date": "2028-07-31"
    },
    {
      "name": "山口　史人",
      "name_kana": "",
      "business_type": "飲食店営業（その他）",
      "address": "霧島市国分中央３－８０６－１　（１Ｆ）",
      "lat": 31.739480000000004,
      "lng": 130.7647,
      "geocoding_level": 3,
      "phone": "",
      "license_no": "第034-000364号",
      "license_date": null,
      "expire_date": "2028-07-31"
    },
    {
      "name": "東　日出光",
      "name_kana": "",
      "business_type": "飲食店営業（一般食堂・ﾚｽﾄﾗﾝ等）",
      "address": "霧島市国分中央５－４－７　　２Ｆ",
      "lat": 31.737505438,
      "lng": 130.764041972,
      "geocoding_level": 8,
      "phone": "",
      "license_no": "第034-000313号",
      "license_date": null,
      "expire_date": "2028-07-31"
    },
    {
      "name": "ブルーオーシャンフーズ株式会社",
      "name_kana": "",
      "business_type": "飲食店営業（一般食堂・ﾚｽﾄﾗﾝ等）",
      "address": "霧島市国分中央５－６１０ パティオ内１Ｆ",
      "lat": 31.735543,
      "lng": 130.763354,
      "geocoding_level": 3,
      "phone": "",
      "license_no": "第034-000314号",
      "license_date": null,
      "expire_date": "2028-07-31"
    },
    {
      "name": "大迫　節子",
      "name_kana": "",
      "business_type": "飲食店営業（その他）",
      "address": "霧島市国分敷根１３４",
      "lat": 31.705582093000004,
      "lng": 130.787569576,
      "geocoding_level": 8,
      "phone": "",
      "license_no": "第034-000318号",
      "license_date": null,
      "expire_date": "2028-07-31"
    },
    {
      "name": "中島　憲輔",
      "name_kana": "",
      "business_type": "魚介類販売業",
      "address": "霧島市国分敷根２７－２",
      "lat": 31.703883393,
      "lng": 130.789456586,
      "geocoding_level": 8,
      "phone": "",
      "license_no": "第034-000319号",
      "license_date": null,
      "expire_date": "2028-07-31"
    },
    {
      "name": "橋　龍子",
      "name_kana": "",
      "business_type": "飲食店営業（その他）",
      "address": "霧島市国分福島２－１０－２５",
      "lat": 31.723315048,
      "lng": 130.754871057,
      "geocoding_level": 8,
      "phone": "",
      "license_no": "第034-000320号",
      "license_date": null,
      "expire_date": "2028-07-31"
    },
    {
      "name": "岡留　ひとみ",
      "name_kana": "",
      "business_type": "飲食店営業（その他）",
      "address": "霧島市国分名波町１９－２８",
      "lat": 31.732723003000004,
      "lng": 130.781481056,
      "geocoding_level": 8,
      "phone": "",
      "license_no": "第034-000321号",
      "license_date": null,
      "expire_date": "2028-07-31"
    },
    {
      "name": "安田　次男",
      "name_kana": "",
      "business_type": "飲食店営業（その他）",
      "address": "霧島市国分野口町１７－６ （鹿児島市を除く県内一円）",
      "lat": 31.735201197,
      "lng": 130.750000472,
      "geocoding_level": 8,
      "phone": "",
      "license_no": "第034-000323号",
      "license_date": null,
      "expire_date": "2027-07-31"
    },
    {
      "name": "株式会社丸亀製麺",
      "name_kana": "",
      "business_type": "飲食店営業（一般食堂・ﾚｽﾄﾗﾝ等）",
      "address": "霧島市国分野口東８－３９",
      "lat": 31.737798706,
      "lng": 130.753937389,
      "geocoding_level": 8,
      "phone": "",
      "license_no": "第034-000324号",
      "license_date": null,
      "expire_date": "2028-07-31"
    },
    {
      "name": "桑迫　隼人",
      "name_kana": "",
      "business_type": "飲食店営業（その他）",
      "address": "霧島市隼人町見次２７－４ サクセス見次Ａ号室",
      "lat": 31.745703131000003,
      "lng": 130.745250561,
      "geocoding_level": 8,
      "phone": "",
      "license_no": "第034-000365号",
      "license_date": null,
      "expire_date": "2028-07-31"
    },
    {
      "name": "株式会社山形屋ストア",
      "name_kana": "",
      "business_type": "飲食店営業（その他）",
      "address": "霧島市隼人町真孝１５８－１",
      "lat": 31.731011567000003,
      "lng": 130.736329371,
      "geocoding_level": 8,
      "phone": "",
      "license_no": "第034-000327号",
      "license_date": null,
      "expire_date": "2028-07-31"
    },
    {
      "name": "株式会社山形屋ストア",
      "name_kana": "",
      "business_type": "飲食店営業（その他）",
      "address": "霧島市隼人町真孝１５８－１",
      "lat": 31.731011567000003,
      "lng": 130.736329371,
      "geocoding_level": 8,
      "phone": "",
      "license_no": "第034-000328号",
      "license_date": null,
      "expire_date": "2028-07-31"
    },
    {
      "name": "株式会社山形屋ストア",
      "name_kana": "",
      "business_type": "飲食店営業（その他）",
      "address": "霧島市隼人町真孝１５８－１",
      "lat": 31.731011567000003,
      "lng": 130.736329371,
      "geocoding_level": 8,
      "phone": "",
      "license_no": "第034-000329号",
      "license_date": null,
      "expire_date": "2028-07-31"
    },
    {
      "name": "株式会社山形屋ストア",
      "name_kana": "",
      "business_type": "食肉販売業",
      "address": "霧島市隼人町真孝１５８－１",
      "lat": 31.731011567000003,
      "lng": 130.736329371,
      "geocoding_level": 8,
      "phone": "",
      "license_no": "第034-000330号",
      "license_date": null,
      "expire_date": "2028-07-31"
    },
    {
      "name": "株式会社山形屋ストア",
      "name_kana": "",
      "business_type": "魚介類販売業",
      "address": "霧島市隼人町真孝１５８－１",
      "lat": 31.731011567000003,
      "lng": 130.736329371,
      "geocoding_level": 8,
      "phone": "",
      "license_no": "第034-000331号",
      "license_date": null,
      "expire_date": "2028-07-31"
    },
    {
      "name": "杉中　祥司",
      "name_kana": "",
      "business_type": "飲食店営業（旅館）",
      "address": "霧島市隼人町西光寺１２６８－１",
      "lat": 31.771757429,
      "lng": 130.732788839,
      "geocoding_level": 8,
      "phone": "",
      "license_no": "第034-000332号",
      "license_date": null,
      "expire_date": "2028-07-31"
    },
    {
      "name": "迫田食品株式会社",
      "name_kana": "",
      "business_type": "菓子製造業",
      "address": "霧島市隼人町内６７６",
      "lat": 31.754454327,
      "lng": 130.749334241,
      "geocoding_level": 8,
      "phone": "",
      "license_no": "第034-000333号",
      "license_date": null,
      "expire_date": "2028-07-31"
    },
    {
      "name": "有限会社　Ｙａｍａｄａ",
      "name_kana": "",
      "business_type": "飲食店営業（その他）",
      "address": "霧島市隼人町姫城１－１",
      "lat": 31.76101926,
      "lng": 130.755892097,
      "geocoding_level": 8,
      "phone": "",
      "license_no": "第034-000335号",
      "license_date": null,
      "expire_date": "2028-07-31"
    },
    {
      "name": "宗教法人観音堂",
      "name_kana": "",
      "business_type": "飲食店営業（その他）",
      "address": "霧島市牧園町高千穂３６１７ （鹿児島市を除く県内一円）",
      "lat": 31.897209999999998,
      "lng": 130.830875,
      "geocoding_level": 3,
      "phone": "",
      "license_no": "第034-000338号",
      "license_date": null,
      "expire_date": "2027-07-31"
    },
    {
      "name": "伊田食品株式会社",
      "name_kana": "",
      "business_type": "飲食店営業（一般食堂・ﾚｽﾄﾗﾝ等）",
      "address": "霧島市牧園町高千穂３６１７－１",
      "lat": 31.882327531999998,
      "lng": 130.812229972,
      "geocoding_level": 8,
      "phone": "",
      "license_no": "第034-000339号",
      "license_date": null,
      "expire_date": "2028-07-31"
    },
    {
      "name": "有限会社　ｗａｉ　ｗａｉ　アトリエ",
      "name_kana": "",
      "business_type": "飲食店営業（一般食堂・ﾚｽﾄﾗﾝ等）",
      "address": "霧島市牧園町高千穂３８９３－１",
      "lat": 31.893098917,
      "lng": 130.824569802,
      "geocoding_level": 8,
      "phone": "",
      "license_no": "第034-000341号",
      "license_date": null,
      "expire_date": "2028-07-31"
    },
    {
      "name": "霧島開発株式会社",
      "name_kana": "",
      "business_type": "飲食店営業（その他）",
      "address": "霧島市牧園町高千穂３９１７－５１１",
      "lat": 31.901856694,
      "lng": 130.814864417,
      "geocoding_level": 8,
      "phone": "",
      "license_no": "第034-000343号",
      "license_date": null,
      "expire_date": "2028-07-31"
    },
    {
      "name": "満田　律子",
      "name_kana": "",
      "business_type": "飲食店営業（一般食堂・ﾚｽﾄﾗﾝ等）",
      "address": "霧島市牧園町三体堂２０５３－１",
      "lat": 31.888024186000003,
      "lng": 130.798972716,
      "geocoding_level": 8,
      "phone": "",
      "license_no": "第034-000344号",
      "license_date": null,
      "expire_date": "2027-07-31"
    },
    {
      "name": "満田　律子",
      "name_kana": "",
      "business_type": "麺類製造業",
      "address": "霧島市牧園町三体堂２０５３－１",
      "lat": 31.888024186000003,
      "lng": 130.798972716,
      "geocoding_level": 8,
      "phone": "",
      "license_no": "第034-000345号",
      "license_date": null,
      "expire_date": "2027-07-31"
    },
    {
      "name": "霧島市",
      "name_kana": "",
      "business_type": "清涼飲料水製造業",
      "address": "霧島市牧園町三体堂２０５７－８",
      "lat": 31.887812506,
      "lng": 130.803911045,
      "geocoding_level": 8,
      "phone": "",
      "license_no": "第034-000346号",
      "license_date": null,
      "expire_date": "2028-07-31"
    },
    {
      "name": "下脇　教子",
      "name_kana": "",
      "business_type": "飲食店営業（その他）",
      "address": "霧島市霧島大窪１７４",
      "lat": 31.824185,
      "lng": 130.859499,
      "geocoding_level": 3,
      "phone": "",
      "license_no": "第034-000348号",
      "license_date": null,
      "expire_date": "2028-07-31"
    },
    {
      "name": "株式会社　西川海陸輸送",
      "name_kana": "",
      "business_type": "飲食店営業（仕出し屋・弁当屋）",
      "address": "霧島市霧島田口２４６５",
      "lat": 31.877493,
      "lng": 130.870356,
      "geocoding_level": 3,
      "phone": "",
      "license_no": "第034-000349号",
      "license_date": null,
      "expire_date": "2028-07-31"
    },
    {
      "name": "平原　拓真",
      "name_kana": "",
      "business_type": "飲食店営業（その他）",
      "address": "霧島市国分中央３－９－６平田ビル２Ｆ",
      "lat": 31.738735124,
      "lng": 130.767069215,
      "geocoding_level": 8,
      "phone": "",
      "license_no": "第034-000251号",
      "license_date": null,
      "expire_date": "2028-07-31"
    },
    {
      "name": "仙名　チエ子",
      "name_kana": "",
      "business_type": "飲食店営業（その他）",
      "address": "霧島市国分中央１－１６－１１",
      "lat": 31.744517500000004,
      "lng": 130.774133793,
      "geocoding_level": 8,
      "phone": "",
      "license_no": "第034-000352号",
      "license_date": null,
      "expire_date": "2028-07-31"
    },
    {
      "name": "永山　良",
      "name_kana": "",
      "business_type": "飲食店営業（その他）",
      "address": "霧島市隼人町見次５３０－１ 見次パレスビル１０１号",
      "lat": 31.739965119,
      "lng": 130.739803913,
      "geocoding_level": 8,
      "phone": "",
      "license_no": "第034-000353号",
      "license_date": null,
      "expire_date": "2028-07-31"
    },
    {
      "name": "藤井　順子",
      "name_kana": "",
      "business_type": "飲食店営業（その他）",
      "address": "霧島市隼人町神宮５－２－２６",
      "lat": 31.750205010000002,
      "lng": 130.744919033,
      "geocoding_level": 8,
      "phone": "",
      "license_no": "第034-000255号",
      "license_date": null,
      "expire_date": "2028-07-31"
    },
    {
      "name": "臼木　るい",
      "name_kana": "",
      "business_type": "飲食店営業（一般食堂・ﾚｽﾄﾗﾝ等）",
      "address": "霧島市牧園町宿窪田２６５７－２２",
      "lat": 31.859055138,
      "lng": 130.759540485,
      "geocoding_level": 8,
      "phone": "",
      "license_no": "第034-000252号",
      "license_date": null,
      "expire_date": "2028-07-31"
    },
    {
      "name": "エクセル株式会社",
      "name_kana": "",
      "business_type": "飲食店営業（その他）",
      "address": "霧島市隼人町松永１－１ （鹿児島市を除く県内一円）",
      "lat": 31.774643687000005,
      "lng": 130.756693554,
      "geocoding_level": 8,
      "phone": "",
      "license_no": "第034-000355号",
      "license_date": null,
      "expire_date": "2028-07-31"
    },
    {
      "name": "秋本　尚希",
      "name_kana": "",
      "business_type": "食品の小分け業",
      "address": "霧島市横川町上ノ３５９０－９",
      "lat": 31.88951528,
      "lng": 130.674943316,
      "geocoding_level": 8,
      "phone": "",
      "license_no": "第034-000358号",
      "license_date": null,
      "expire_date": "2028-07-31"
    },
    {
      "name": "株式会社ヨシックスフーズ",
      "name_kana": "",
      "business_type": "飲食店営業（その他）",
      "address": "霧島市国分中央３－１２－１",
      "lat": 31.740649077,
      "lng": 130.767619205,
      "geocoding_level": 8,
      "phone": "",
      "license_no": "第034-000371号",
      "license_date": null,
      "expire_date": "2028-07-31"
    },
    {
      "name": "岩下　綾",
      "name_kana": "",
      "business_type": "飲食店営業（一般食堂・ﾚｽﾄﾗﾝ等）",
      "address": "霧島市国分中央５－８－１８",
      "lat": 31.735276178,
      "lng": 130.763612375,
      "geocoding_level": 8,
      "phone": "",
      "license_no": "第034-000372号",
      "license_date": null,
      "expire_date": "2028-07-31"
    },
    {
      "name": "ヘンタ製茶有限会社",
      "name_kana": "",
      "business_type": "飲食店営業（その他）",
      "address": "霧島市牧園町下中津川１０５２",
      "lat": 31.82335,
      "lng": 130.776631,
      "geocoding_level": 3,
      "phone": "",
      "license_no": "第034-000379号",
      "license_date": null,
      "expire_date": "2028-07-31"
    },
    {
      "name": "川野　博明",
      "name_kana": "",
      "business_type": "飲食店営業（その他）",
      "address": "霧島市国分中央３－１５－１４",
      "lat": 31.737396700000005,
      "lng": 130.768219297,
      "geocoding_level": 8,
      "phone": "",
      "license_no": "第034-000384号",
      "license_date": null,
      "expire_date": "2028-07-31"
    },
    {
      "name": "有限会社植山かまぼこ屋",
      "name_kana": "",
      "business_type": "アイスクリーム類製造業",
      "address": "霧島市隼人町真孝７７０",
      "lat": 31.725961419,
      "lng": 130.730790143,
      "geocoding_level": 8,
      "phone": "",
      "license_no": "第034-000388号",
      "license_date": null,
      "expire_date": "2028-07-31"
    },
    {
      "name": "奥野　貴大",
      "name_kana": "",
      "business_type": "飲食店営業（その他）",
      "address": "霧島市国分向花町２１－６－３ （鹿児島市を除く県内一円）",
      "lat": 31.747625000000003,
      "lng": 130.763949,
      "geocoding_level": 3,
      "phone": "",
      "license_no": "第034-000389号",
      "license_date": null,
      "expire_date": "2027-07-31"
    },
    {
      "name": "指宿　友秋",
      "name_kana": "",
      "business_type": "そうざい製造業",
      "address": "霧島市福山町佳例川２４３７",
      "lat": 31.698529000000004,
      "lng": 130.880736,
      "geocoding_level": 3,
      "phone": "",
      "license_no": "第034-000405号",
      "license_date": null,
      "expire_date": "2028-10-31"
    },
    {
      "name": "今吉製茶有限会社",
      "name_kana": "",
      "business_type": "清涼飲料水製造業",
      "address": "霧島市溝辺町有川１３７－１６",
      "lat": 31.830787903,
      "lng": 130.688406358,
      "geocoding_level": 8,
      "phone": "",
      "license_no": "第034-000408号",
      "license_date": null,
      "expire_date": "2028-10-31"
    },
    {
      "name": "みやま産業株式会社",
      "name_kana": "",
      "business_type": "飲食店営業（その他）",
      "address": "霧島市国分新町２－４０９－２",
      "lat": 31.752739000000002,
      "lng": 130.764714,
      "geocoding_level": 3,
      "phone": "",
      "license_no": "第034-000434号",
      "license_date": null,
      "expire_date": "2028-10-31"
    },
    {
      "name": "みやま産業株式会社",
      "name_kana": "",
      "business_type": "食肉販売業",
      "address": "霧島市国分新町２－４０９－２",
      "lat": 31.752739000000002,
      "lng": 130.764714,
      "geocoding_level": 3,
      "phone": "",
      "license_no": "第034-000435号",
      "license_date": null,
      "expire_date": "2028-10-31"
    },
    {
      "name": "井上　詠子",
      "name_kana": "",
      "business_type": "飲食店営業（一般食堂・ﾚｽﾄﾗﾝ等）",
      "address": "霧島市国分福島１－５－１９",
      "lat": 31.728154552999996,
      "lng": 130.75353737800003,
      "geocoding_level": 8,
      "phone": "",
      "license_no": "第034-000437号",
      "license_date": null,
      "expire_date": "2028-10-31"
    },
    {
      "name": "ｍａｋｅ　ｏｎｅ’ｓ　Ｄ．Ｃ．Ｔ株式会社",
      "name_kana": "",
      "business_type": "飲食店営業（一般食堂・ﾚｽﾄﾗﾝ等）",
      "address": "霧島市隼人町小浜１８１７－１",
      "lat": 31.738924759,
      "lng": 130.68579834,
      "geocoding_level": 8,
      "phone": "",
      "license_no": "第034-000436号",
      "license_date": null,
      "expire_date": "2028-10-31"
    },
    {
      "name": "角田　雄一",
      "name_kana": "",
      "business_type": "菓子製造業",
      "address": "霧島市国分重久１８８５－５",
      "lat": 31.773891826,
      "lng": 130.789687262,
      "geocoding_level": 8,
      "phone": "",
      "license_no": "第034-000439号",
      "license_date": null,
      "expire_date": "2028-10-31"
    },
    {
      "name": "株式会社津曲食品",
      "name_kana": "",
      "business_type": "飲食店営業（その他）",
      "address": "霧島市隼人町見次１２２９ イオン隼人国分店内",
      "lat": 31.741079000000003,
      "lng": 130.741094,
      "geocoding_level": 3,
      "phone": "",
      "license_no": "第034-000440号",
      "license_date": null,
      "expire_date": "2028-10-31"
    },
    {
      "name": "きりしまＰＰＰ株式会社",
      "name_kana": "",
      "business_type": "飲食店営業（一般食堂・ﾚｽﾄﾗﾝ等）",
      "address": "霧島市横川町上ノ３２０１",
      "lat": 31.894341000000004,
      "lng": 130.65391,
      "geocoding_level": 3,
      "phone": "",
      "license_no": "第034-000294号",
      "license_date": null,
      "expire_date": "2028-07-31"
    },
    {
      "name": "きりしまＰＰＰ株式会社",
      "name_kana": "",
      "business_type": "飲食店営業（一般食堂・ﾚｽﾄﾗﾝ等）",
      "address": "霧島市横川町上ノ３２０１",
      "lat": 31.894341000000004,
      "lng": 130.65391,
      "geocoding_level": 3,
      "phone": "",
      "license_no": "第034-000295号",
      "license_date": null,
      "expire_date": "2028-07-31"
    },
    {
      "name": "奥野　貴大",
      "name_kana": "",
      "business_type": "飲食店営業（一般食堂・ﾚｽﾄﾗﾝ等）",
      "address": "霧島市溝辺町有川１７９－６",
      "lat": 31.835631155,
      "lng": 130.686943256,
      "geocoding_level": 8,
      "phone": "",
      "license_no": "第034-000441号",
      "license_date": null,
      "expire_date": "2028-10-31"
    },
    {
      "name": "株式会社ｉｌｅｘ",
      "name_kana": "",
      "business_type": "菓子製造業",
      "address": "霧島市霧島大窪７８５－４１９ Ｕ街区２２８",
      "lat": 31.833098695000004,
      "lng": 130.865667574,
      "geocoding_level": 8,
      "phone": "",
      "license_no": "第034-000418号",
      "license_date": null,
      "expire_date": "2028-10-31"
    },
    {
      "name": "有限会社ワタセ食鳥",
      "name_kana": "",
      "business_type": "食肉販売業",
      "address": "霧島市牧園町宿窪田２６３２－２",
      "lat": 31.843349000000003,
      "lng": 130.75147100000004,
      "geocoding_level": 3,
      "phone": "",
      "license_no": "第034-000122号",
      "license_date": null,
      "expire_date": "2028-04-30"
    },
    {
      "name": "飯牟禮　明美",
      "name_kana": "",
      "business_type": "飲食店営業（その他）",
      "address": "霧島市国分中央３－１３－７",
      "lat": 31.738647038,
      "lng": 130.768275722,
      "geocoding_level": 8,
      "phone": "",
      "license_no": "第034-000446号",
      "license_date": null,
      "expire_date": "2028-10-31"
    },
    {
      "name": "株式会社サン・スマイルフーズ",
      "name_kana": "",
      "business_type": "飲食店営業（その他）",
      "address": "霧島市国分重久５８６６－１ （鹿児島市を除く県内一円）",
      "lat": 31.786545001,
      "lng": 130.791351006,
      "geocoding_level": 8,
      "phone": "",
      "license_no": "第034-000450号",
      "license_date": null,
      "expire_date": "2028-10-31"
    },
    {
      "name": "有限会社ワタセ食鳥",
      "name_kana": "",
      "business_type": "飲食店営業（その他）",
      "address": "霧島市牧園町宿窪田２６３２－２",
      "lat": 31.843349000000003,
      "lng": 130.75147100000004,
      "geocoding_level": 3,
      "phone": "",
      "license_no": "第034-000451号",
      "license_date": null,
      "expire_date": "2028-10-31"
    },
    {
      "name": "有限会社なかよし商事",
      "name_kana": "",
      "business_type": "飲食店営業（一般食堂・ﾚｽﾄﾗﾝ等）",
      "address": "霧島市国分中央３－３３－１４",
      "lat": 31.738613627,
      "lng": 130.765210474,
      "geocoding_level": 8,
      "phone": "",
      "license_no": "第034-000458号",
      "license_date": null,
      "expire_date": "2028-10-31"
    },
    {
      "name": "有限会社なかよし商事",
      "name_kana": "",
      "business_type": "菓子製造業",
      "address": "霧島市国分中央３－３３－１４",
      "lat": 31.738613627,
      "lng": 130.765210474,
      "geocoding_level": 8,
      "phone": "",
      "license_no": "第034-000459号",
      "license_date": null,
      "expire_date": "2028-10-31"
    },
    {
      "name": "有限会社なかよし商事",
      "name_kana": "",
      "business_type": "そうざい製造業",
      "address": "霧島市国分中央３－３３－１４",
      "lat": 31.738613627,
      "lng": 130.765210474,
      "geocoding_level": 8,
      "phone": "",
      "license_no": "第034-000460号",
      "license_date": null,
      "expire_date": "2028-10-31"
    },
    {
      "name": "西谷　紀彦",
      "name_kana": "",
      "business_type": "飲食店営業（一般食堂・ﾚｽﾄﾗﾝ等）",
      "address": "霧島市国分福島３－４６－６",
      "lat": 31.725128597,
      "lng": 130.761587556,
      "geocoding_level": 8,
      "phone": "",
      "license_no": "第034-000462号",
      "license_date": null,
      "expire_date": "2028-10-31"
    },
    {
      "name": "西谷　紀彦",
      "name_kana": "",
      "business_type": "魚介類販売業",
      "address": "霧島市国分福島３－４６－６",
      "lat": 31.725128597,
      "lng": 130.761587556,
      "geocoding_level": 8,
      "phone": "",
      "license_no": "第034-000463号",
      "license_date": null,
      "expire_date": "2028-10-31"
    },
    {
      "name": "みやま産業株式会社",
      "name_kana": "",
      "business_type": "飲食店営業（その他）",
      "address": "霧島市国分新町２－４０９－２",
      "lat": 31.752739000000002,
      "lng": 130.764714,
      "geocoding_level": 3,
      "phone": "",
      "license_no": "第034-000525号",
      "license_date": null,
      "expire_date": "2028-10-31"
    },
    {
      "name": "福丸　伊津夫",
      "name_kana": "",
      "business_type": "飲食店営業（一般食堂・ﾚｽﾄﾗﾝ等）",
      "address": "霧島市溝辺町三縄８４０－３",
      "lat": 31.848179845,
      "lng": 130.682012881,
      "geocoding_level": 8,
      "phone": "",
      "license_no": "第034-000559号",
      "license_date": null,
      "expire_date": "2028-10-31"
    },
    {
      "name": "有限会社　久保田工業",
      "name_kana": "",
      "business_type": "飲食店営業（旅館）",
      "address": "霧島市溝辺町麓２４３３－１",
      "lat": 31.813752280999996,
      "lng": 130.707672481,
      "geocoding_level": 8,
      "phone": "",
      "license_no": "第034-000560号",
      "license_date": null,
      "expire_date": "2028-10-31"
    },
    {
      "name": "有限会社河内菌本舗",
      "name_kana": "",
      "business_type": "飲食店営業（一般食堂・ﾚｽﾄﾗﾝ等）",
      "address": "霧島市溝辺町麓８５６－１",
      "lat": 31.797984495000005,
      "lng": 130.715176757,
      "geocoding_level": 8,
      "phone": "",
      "license_no": "第034-000561号",
      "license_date": null,
      "expire_date": "2028-10-31"
    },
    {
      "name": "きりしま高原麦酒株式会社",
      "name_kana": "",
      "business_type": "飲食店営業（一般食堂・ﾚｽﾄﾗﾝ等）",
      "address": "霧島市溝辺町麓８７６－１５",
      "lat": 31.797023836000005,
      "lng": 130.713531841,
      "geocoding_level": 8,
      "phone": "",
      "license_no": "第034-000562号",
      "license_date": null,
      "expire_date": "2028-10-31"
    },
    {
      "name": "きりしま高原麦酒株式会社",
      "name_kana": "",
      "business_type": "清涼飲料水製造業",
      "address": "霧島市溝辺町麓８７６－１５",
      "lat": 31.797023836000005,
      "lng": 130.713531841,
      "geocoding_level": 8,
      "phone": "",
      "license_no": "第034-000563号",
      "license_date": null,
      "expire_date": "2028-10-31"
    },
    {
      "name": "岩崎　真知子",
      "name_kana": "",
      "business_type": "飲食店営業（一般食堂・ﾚｽﾄﾗﾝ等）",
      "address": "霧島市国分広瀬１－２４－４３－８",
      "lat": 31.717707102,
      "lng": 130.75038561,
      "geocoding_level": 8,
      "phone": "",
      "license_no": "第034-000564号",
      "license_date": null,
      "expire_date": "2028-10-31"
    },
    {
      "name": "大塚　美帆",
      "name_kana": "",
      "business_type": "飲食店営業（その他）",
      "address": "霧島市国分広瀬３－６－４４",
      "lat": 31.71598843,
      "lng": 130.758288666,
      "geocoding_level": 8,
      "phone": "",
      "license_no": "第034-000565号",
      "license_date": null,
      "expire_date": "2028-10-31"
    },
    {
      "name": "髙田　真理子",
      "name_kana": "",
      "business_type": "飲食店営業（一般食堂・ﾚｽﾄﾗﾝ等）",
      "address": "霧島市国分清水１－１３－２ すみれハイツ１０２",
      "lat": 31.748784158,
      "lng": 130.771791364,
      "geocoding_level": 8,
      "phone": "",
      "license_no": "第034-000567号",
      "license_date": null,
      "expire_date": "2028-10-31"
    },
    {
      "name": "株式会社　サウステック",
      "name_kana": "",
      "business_type": "飲食店営業（その他）",
      "address": "霧島市国分中央１－３－２６",
      "lat": 31.741796518,
      "lng": 130.766176049,
      "geocoding_level": 8,
      "phone": "",
      "license_no": "第034-000568号",
      "license_date": null,
      "expire_date": "2028-10-31"
    },
    {
      "name": "内丸　洋子",
      "name_kana": "",
      "business_type": "飲食店営業（その他）",
      "address": "霧島市国分中央３－１３－５",
      "lat": 31.738889955,
      "lng": 130.76834427,
      "geocoding_level": 8,
      "phone": "",
      "license_no": "第034-000569号",
      "license_date": null,
      "expire_date": "2028-10-31"
    },
    {
      "name": "田原　澄子",
      "name_kana": "",
      "business_type": "飲食店営業（その他）",
      "address": "霧島市国分中央３－１３－７ 東商ビル１０３",
      "lat": 31.738647038,
      "lng": 130.768275722,
      "geocoding_level": 8,
      "phone": "",
      "license_no": "第034-000570号",
      "license_date": null,
      "expire_date": "2028-10-31"
    },
    {
      "name": "吉留　かおり",
      "name_kana": "",
      "business_type": "飲食店営業（その他）",
      "address": "霧島市国分中央３－２８－１６",
      "lat": 31.737097964,
      "lng": 130.765139254,
      "geocoding_level": 8,
      "phone": "",
      "license_no": "第034-000574号",
      "license_date": null,
      "expire_date": "2028-10-31"
    },
    {
      "name": "前原　神子",
      "name_kana": "",
      "business_type": "飲食店営業（その他）",
      "address": "霧島市国分中央３－２８－１６ 中央国分ＢＬＤ　３F",
      "lat": 31.737097964,
      "lng": 130.765139254,
      "geocoding_level": 8,
      "phone": "",
      "license_no": "第034-000575号",
      "license_date": null,
      "expire_date": "2028-10-31"
    },
    {
      "name": "室屋　裕子",
      "name_kana": "",
      "business_type": "飲食店営業（一般食堂・ﾚｽﾄﾗﾝ等）",
      "address": "霧島市国分中央３－２８－２２",
      "lat": 31.737870154,
      "lng": 130.765351583,
      "geocoding_level": 8,
      "phone": "",
      "license_no": "第034-000576号",
      "license_date": null,
      "expire_date": "2028-10-31"
    },
    {
      "name": "立山　美智子",
      "name_kana": "",
      "business_type": "飲食店営業（その他）",
      "address": "霧島市国分中央３－３０－１",
      "lat": 31.738002024,
      "lng": 130.765216358,
      "geocoding_level": 8,
      "phone": "",
      "license_no": "第034-000577号",
      "license_date": null,
      "expire_date": "2028-10-31"
    },
    {
      "name": "下野　卓也",
      "name_kana": "",
      "business_type": "飲食店営業（一般食堂・ﾚｽﾄﾗﾝ等）",
      "address": "霧島市国分中央３－８－１７",
      "lat": 31.738573841,
      "lng": 130.765459584,
      "geocoding_level": 8,
      "phone": "",
      "license_no": "第034-000578号",
      "license_date": null,
      "expire_date": "2028-10-31"
    },
    {
      "name": "松元　久美子",
      "name_kana": "",
      "business_type": "飲食店営業（その他）",
      "address": "霧島市国分中央３－８－１７ みよしビル２Ｆ",
      "lat": 31.738573841,
      "lng": 130.765459584,
      "geocoding_level": 8,
      "phone": "",
      "license_no": "第034-000579号",
      "license_date": null,
      "expire_date": "2028-10-31"
    },
    {
      "name": "松延　哲也",
      "name_kana": "",
      "business_type": "飲食店営業（一般食堂・ﾚｽﾄﾗﾝ等）",
      "address": "霧島市国分中央３－９－７",
      "lat": 31.738665641,
      "lng": 130.767189097,
      "geocoding_level": 8,
      "phone": "",
      "license_no": "第034-000580号",
      "license_date": null,
      "expire_date": "2028-10-31"
    },
    {
      "name": "青山　和寛",
      "name_kana": "",
      "business_type": "菓子製造業",
      "address": "霧島市国分中央５－１８－２６　２号",
      "lat": 31.733472542,
      "lng": 130.764330405,
      "geocoding_level": 8,
      "phone": "",
      "license_no": "第034-000581号",
      "license_date": null,
      "expire_date": "2028-10-31"
    },
    {
      "name": "合同会社フードアシスト",
      "name_kana": "",
      "business_type": "飲食店営業（その他）",
      "address": "霧島市国分府中町１－５３－１",
      "lat": 31.745612,
      "lng": 130.75916,
      "geocoding_level": 3,
      "phone": "",
      "license_no": "第034-000582号",
      "license_date": null,
      "expire_date": "2028-10-31"
    },
    {
      "name": "生活協同組合コープかごしま",
      "name_kana": "",
      "business_type": "飲食店営業（その他）",
      "address": "霧島市国分府中町１－５３－１",
      "lat": 31.745612,
      "lng": 130.75916,
      "geocoding_level": 3,
      "phone": "",
      "license_no": "第034-000583号",
      "license_date": null,
      "expire_date": "2028-10-31"
    },
    {
      "name": "合同会社　ＯＮＥ",
      "name_kana": "",
      "business_type": "飲食店営業（その他）",
      "address": "霧島市国分敷根５３６－２",
      "lat": 31.708013924,
      "lng": 130.787306251,
      "geocoding_level": 8,
      "phone": "",
      "license_no": "第034-000585号",
      "license_date": null,
      "expire_date": "2028-10-31"
    },
    {
      "name": "加治木　正明",
      "name_kana": "",
      "business_type": "食肉販売業",
      "address": "霧島市国分野口町１８－５",
      "lat": 31.735173708000005,
      "lng": 130.751149842,
      "geocoding_level": 8,
      "phone": "",
      "license_no": "第034-000586号",
      "license_date": null,
      "expire_date": "2028-10-31"
    },
    {
      "name": "野村　義弘",
      "name_kana": "",
      "business_type": "飲食店営業（一般食堂・ﾚｽﾄﾗﾝ等）",
      "address": "霧島市国分野口北１６１９",
      "lat": 31.740447000000003,
      "lng": 130.75174,
      "geocoding_level": 3,
      "phone": "",
      "license_no": "第034-000588号",
      "license_date": null,
      "expire_date": "2028-10-31"
    },
    {
      "name": "白石　茂樹",
      "name_kana": "",
      "business_type": "飲食店営業（一般食堂・ﾚｽﾄﾗﾝ等）",
      "address": "霧島市隼人町嘉例川２８７１",
      "lat": 31.827906020000004,
      "lng": 130.718285293,
      "geocoding_level": 8,
      "phone": "",
      "license_no": "第034-000589号",
      "license_date": null,
      "expire_date": "2028-10-31"
    },
    {
      "name": "株式会社　マスコ",
      "name_kana": "",
      "business_type": "飲食店営業（一般食堂・ﾚｽﾄﾗﾝ等）",
      "address": "霧島市隼人町見次３００－２",
      "lat": 31.739930265,
      "lng": 130.741686835,
      "geocoding_level": 8,
      "phone": "",
      "license_no": "第034-000590号",
      "license_date": null,
      "expire_date": "2028-10-31"
    },
    {
      "name": "川崎　和利",
      "name_kana": "",
      "business_type": "飲食店営業（その他）",
      "address": "霧島市隼人町神宮２－５－３ （鹿児島市を除く県内一円）",
      "lat": 31.749784032,
      "lng": 130.740442387,
      "geocoding_level": 8,
      "phone": "",
      "license_no": "第034-000592号",
      "license_date": null,
      "expire_date": "2027-10-31"
    },
    {
      "name": "株式会社マーガレット",
      "name_kana": "",
      "business_type": "飲食店営業（旅館）",
      "address": "霧島市隼人町西光寺２４７５",
      "lat": 31.786717035,
      "lng": 130.72568151,
      "geocoding_level": 8,
      "phone": "",
      "license_no": "第034-000593号",
      "license_date": null,
      "expire_date": "2028-10-31"
    },
    {
      "name": "有限会社キャロット",
      "name_kana": "",
      "business_type": "飲食店営業（旅館）",
      "address": "霧島市隼人町西光寺３１６７－１",
      "lat": 31.787386244,
      "lng": 130.734570002,
      "geocoding_level": 8,
      "phone": "",
      "license_no": "第034-000594号",
      "license_date": null,
      "expire_date": "2028-10-31"
    },
    {
      "name": "有限会社　はとや",
      "name_kana": "",
      "business_type": "飲食店営業（その他）",
      "address": "霧島市隼人町東郷１－２７７－２",
      "lat": 31.773182223,
      "lng": 130.758113312,
      "geocoding_level": 8,
      "phone": "",
      "license_no": "第034-000595号",
      "license_date": null,
      "expire_date": "2028-10-31"
    },
    {
      "name": "前田　昭徳",
      "name_kana": "",
      "business_type": "菓子製造業",
      "address": "霧島市隼人町内１３８１－３",
      "lat": 31.761280144,
      "lng": 130.752338295,
      "geocoding_level": 8,
      "phone": "",
      "license_no": "第034-000597号",
      "license_date": null,
      "expire_date": "2028-10-31"
    },
    {
      "name": "泊　洋子",
      "name_kana": "",
      "business_type": "そうざい製造業",
      "address": "霧島市福山町福山５２９０－８３",
      "lat": 31.670811269,
      "lng": 130.853494635,
      "geocoding_level": 8,
      "phone": "",
      "license_no": "第034-000600号",
      "license_date": null,
      "expire_date": "2027-10-31"
    },
    {
      "name": "花田　次雄",
      "name_kana": "",
      "business_type": "食肉販売業",
      "address": "霧島市牧園町下中津川１１０５－３",
      "lat": 31.834245085000003,
      "lng": 130.779981303,
      "geocoding_level": 8,
      "phone": "",
      "license_no": "第034-000601号",
      "license_date": null,
      "expire_date": "2028-10-31"
    },
    {
      "name": "吉原建設株式会社",
      "name_kana": "",
      "business_type": "飲食店営業（旅館）",
      "address": "霧島市牧園町高千穂手洗３９１９",
      "lat": 31.897209999999998,
      "lng": 130.830875,
      "geocoding_level": 3,
      "phone": "",
      "license_no": "第034-000607号",
      "license_date": null,
      "expire_date": "2028-10-31"
    },
    {
      "name": "平川　泉水",
      "name_kana": "",
      "business_type": "豆腐製造業",
      "address": "霧島市牧園町宿窪田２０４７－１",
      "lat": 31.852685530000002,
      "lng": 130.75330671,
      "geocoding_level": 8,
      "phone": "",
      "license_no": "第034-000608号",
      "license_date": null,
      "expire_date": "2028-10-31"
    },
    {
      "name": "谷山　一治",
      "name_kana": "",
      "business_type": "飲食店営業（一般食堂・ﾚｽﾄﾗﾝ等）",
      "address": "霧島市霧島大窪４７０－６",
      "lat": 31.819512768999996,
      "lng": 130.837153129,
      "geocoding_level": 8,
      "phone": "",
      "license_no": "第034-000609号",
      "license_date": null,
      "expire_date": "2028-10-31"
    },
    {
      "name": "公益社団法人　霧島市観光協会",
      "name_kana": "",
      "business_type": "飲食店営業（その他）",
      "address": "霧島市霧島田口２４５９－６",
      "lat": 31.877493,
      "lng": 130.870356,
      "geocoding_level": 3,
      "phone": "",
      "license_no": "第034-000610号",
      "license_date": null,
      "expire_date": "2028-10-31"
    },
    {
      "name": "小谷　久男",
      "name_kana": "",
      "business_type": "豆腐製造業",
      "address": "霧島市霧島田口８５９",
      "lat": 31.877493,
      "lng": 130.870356,
      "geocoding_level": 3,
      "phone": "",
      "license_no": "第034-000611号",
      "license_date": null,
      "expire_date": "2027-10-31"
    },
    {
      "name": "安藤　美穂",
      "name_kana": "",
      "business_type": "飲食店営業（その他）",
      "address": "霧島市国分中央３－１６－２８",
      "lat": 31.738538367,
      "lng": 130.769087212,
      "geocoding_level": 8,
      "phone": "",
      "license_no": "第034-000536号",
      "license_date": null,
      "expire_date": "2028-10-31"
    },
    {
      "name": "猶木　慎吾",
      "name_kana": "",
      "business_type": "菓子製造業",
      "address": "霧島市溝辺町麓２４１２－１",
      "lat": 31.813508694999996,
      "lng": 130.707394808,
      "geocoding_level": 8,
      "phone": "",
      "license_no": "第034-000542号",
      "license_date": null,
      "expire_date": "2028-10-31"
    },
    {
      "name": "岡元　雅一",
      "name_kana": "",
      "business_type": "飲食店営業（一般食堂・ﾚｽﾄﾗﾝ等）",
      "address": "霧島市隼人町住吉９１８",
      "lat": 31.726448582999996,
      "lng": 130.740860719,
      "geocoding_level": 8,
      "phone": "",
      "license_no": "第034-000613号",
      "license_date": null,
      "expire_date": "2028-10-31"
    },
    {
      "name": "株式会社Ｈｕｂｉｎｇ",
      "name_kana": "",
      "business_type": "飲食店営業（その他）",
      "address": "霧島市溝辺町麓１３２２－４ （鹿児島市を除く県内一円）",
      "lat": 31.799292524,
      "lng": 130.712325659,
      "geocoding_level": 8,
      "phone": "",
      "license_no": "第034-000614号",
      "license_date": null,
      "expire_date": "2028-10-31"
    },
    {
      "name": "株式会社ナガミネ",
      "name_kana": "",
      "business_type": "冷凍食品製造業",
      "address": "霧島市牧園町宿窪田１９８３",
      "lat": 31.850414822,
      "lng": 130.753530408,
      "geocoding_level": 8,
      "phone": "",
      "license_no": "第034-000635号",
      "license_date": null,
      "expire_date": "2028-10-31"
    },
    {
      "name": "株式会社ナガミネ",
      "name_kana": "",
      "business_type": "密封包装食品製造業",
      "address": "霧島市牧園町宿窪田１９８３",
      "lat": 31.850414822,
      "lng": 130.753530408,
      "geocoding_level": 8,
      "phone": "",
      "license_no": "第034-000636号",
      "license_date": null,
      "expire_date": "2028-10-31"
    },
    {
      "name": "脇　英士",
      "name_kana": "",
      "business_type": "飲食店営業（一般食堂・ﾚｽﾄﾗﾝ等）",
      "address": "霧島市国分湊４７８",
      "lat": 31.715607000000002,
      "lng": 130.774643,
      "geocoding_level": 3,
      "phone": "",
      "license_no": "第034-000627号",
      "license_date": null,
      "expire_date": "2028-10-31"
    },
    {
      "name": "有限会社　ワタセ食鳥",
      "name_kana": "",
      "business_type": "飲食店営業（その他）",
      "address": "霧島市牧園町宿窪田１２４０－４ （鹿児島市を除く県内一円）",
      "lat": 31.858588725,
      "lng": 130.745772554,
      "geocoding_level": 8,
      "phone": "",
      "license_no": "第034-000629号",
      "license_date": null,
      "expire_date": "2027-10-31"
    },
    {
      "name": "有限会社　山家",
      "name_kana": "",
      "business_type": "飲食店営業（その他）",
      "address": "霧島市霧島田口２４５８",
      "lat": 31.877493,
      "lng": 130.870356,
      "geocoding_level": 3,
      "phone": "",
      "license_no": "第034-000630号",
      "license_date": null,
      "expire_date": "2028-10-31"
    },
    {
      "name": "松山　かおり",
      "name_kana": "",
      "business_type": "飲食店営業（その他）",
      "address": "霧島市国分中央３－７－２２ ラベンダービル２０１",
      "lat": 31.739163651,
      "lng": 130.766129467,
      "geocoding_level": 8,
      "phone": "",
      "license_no": "第034-000634号",
      "license_date": null,
      "expire_date": "2028-10-31"
    },
    {
      "name": "株式会社ローソン南九州",
      "name_kana": "",
      "business_type": "飲食店営業（その他）",
      "address": "霧島市国分中央５－１６－１",
      "lat": 31.735950713,
      "lng": 130.766926568,
      "geocoding_level": 8,
      "phone": "",
      "license_no": "第034-000655号",
      "license_date": null,
      "expire_date": "2029-01-31"
    },
    {
      "name": "辻田　修子",
      "name_kana": "",
      "business_type": "飲食店営業（その他）",
      "address": "霧島市国分中央３－８－１７ みよしビル１Ｆ",
      "lat": 31.738573841,
      "lng": 130.765459584,
      "geocoding_level": 8,
      "phone": "",
      "license_no": "第034-000653号",
      "license_date": null,
      "expire_date": "2028-10-31"
    },
    {
      "name": "久保　洋子",
      "name_kana": "",
      "business_type": "食肉製品製造業",
      "address": "霧島市牧園町高千穂３９１７－２２８",
      "lat": 31.905263779,
      "lng": 130.816750021,
      "geocoding_level": 8,
      "phone": "",
      "license_no": "第034-000603号",
      "license_date": null,
      "expire_date": "2027-10-31"
    },
    {
      "name": "倍盛　友香",
      "name_kana": "",
      "business_type": "菓子製造業",
      "address": "霧島市国分中央３－１６－３１",
      "lat": 31.738878529,
      "lng": 130.769343441,
      "geocoding_level": 8,
      "phone": "",
      "license_no": "第034-000664号",
      "license_date": null,
      "expire_date": "2029-01-31"
    },
    {
      "name": "飯野　聖矢",
      "name_kana": "",
      "business_type": "飲食店営業（一般食堂・ﾚｽﾄﾗﾝ等）",
      "address": "霧島市国分中央３－１６－３１",
      "lat": 31.738878529,
      "lng": 130.769343441,
      "geocoding_level": 8,
      "phone": "",
      "license_no": "第034-000665号",
      "license_date": null,
      "expire_date": "2029-01-31"
    },
    {
      "name": "石丸　翔太",
      "name_kana": "",
      "business_type": "飲食店営業（その他）",
      "address": "霧島市国分中央３－１２－１　センタービル１Ｆ",
      "lat": 31.740649077,
      "lng": 130.767619205,
      "geocoding_level": 8,
      "phone": "",
      "license_no": "第034-000395号",
      "license_date": null,
      "expire_date": "2028-07-31"
    },
    {
      "name": "園田　孝子",
      "name_kana": "",
      "business_type": "飲食店営業（その他）",
      "address": "霧島市国分中央３－１６－３１",
      "lat": 31.738878529,
      "lng": 130.769343441,
      "geocoding_level": 8,
      "phone": "",
      "license_no": "第034-000688号",
      "license_date": null,
      "expire_date": "2029-01-31"
    },
    {
      "name": "園田　孝子",
      "name_kana": "",
      "business_type": "菓子製造業",
      "address": "霧島市国分中央３－１６－３１",
      "lat": 31.738878529,
      "lng": 130.769343441,
      "geocoding_level": 8,
      "phone": "",
      "license_no": "第034-000689号",
      "license_date": null,
      "expire_date": "2029-01-31"
    },
    {
      "name": "牧之瀬　咲",
      "name_kana": "",
      "business_type": "菓子製造業",
      "address": "霧島市国分中央３－１６－３１",
      "lat": 31.738878529,
      "lng": 130.769343441,
      "geocoding_level": 8,
      "phone": "",
      "license_no": "第034-000690号",
      "license_date": null,
      "expire_date": "2029-01-31"
    },
    {
      "name": "合同会社　七姫",
      "name_kana": "",
      "business_type": "飲食店営業（その他）",
      "address": "霧島市隼人町内１３３３－７",
      "lat": 31.758966218,
      "lng": 130.75125337500003,
      "geocoding_level": 8,
      "phone": "",
      "license_no": "第034-000691号",
      "license_date": null,
      "expire_date": "2029-01-31"
    },
    {
      "name": "上原　昌子",
      "name_kana": "",
      "business_type": "飲食店営業（その他）",
      "address": "霧島市霧島大窪８９９",
      "lat": 31.824185,
      "lng": 130.859499,
      "geocoding_level": 3,
      "phone": "",
      "license_no": "第034-000708号",
      "license_date": null,
      "expire_date": "2028-01-31"
    },
    {
      "name": "森山　奈々江",
      "name_kana": "",
      "business_type": "飲食店営業（その他）",
      "address": "霧島市隼人町姫城１０５８－３　B棟 （鹿児島市を除く県内一円）",
      "lat": 31.759936211,
      "lng": 130.75660958,
      "geocoding_level": 8,
      "phone": "",
      "license_no": "第034-000714号",
      "license_date": null,
      "expire_date": "2029-01-31"
    },
    {
      "name": "恒吉　かおり",
      "name_kana": "",
      "business_type": "菓子製造業",
      "address": "霧島市国分中央３－１６－３１",
      "lat": 31.738878529,
      "lng": 130.769343441,
      "geocoding_level": 8,
      "phone": "",
      "license_no": "第034-000728号",
      "license_date": null,
      "expire_date": "2029-01-31"
    },
    {
      "name": "三川　麻美",
      "name_kana": "",
      "business_type": "飲食店営業（その他）",
      "address": "霧島市隼人町松永６７７－２ （鹿児島市を除く県内一円）",
      "lat": 31.775277192999997,
      "lng": 130.765617106,
      "geocoding_level": 8,
      "phone": "",
      "license_no": "第034-000734号",
      "license_date": null,
      "expire_date": "2028-01-31"
    },
    {
      "name": "アットスター株式会社",
      "name_kana": "",
      "business_type": "酒類製造業",
      "address": "霧島市横川町上ノ３２８０－５",
      "lat": 31.893461743999996,
      "lng": 130.682290372,
      "geocoding_level": 8,
      "phone": "",
      "license_no": "第033-000412号",
      "license_date": null,
      "expire_date": "2027-10-31"
    },
    {
      "name": "小原　啓輔",
      "name_kana": "",
      "business_type": "飲食店営業（その他）",
      "address": "霧島市隼人町神宮６－４－７",
      "lat": 31.749037174000005,
      "lng": 130.743304042,
      "geocoding_level": 8,
      "phone": "",
      "license_no": "第034-000740号",
      "license_date": null,
      "expire_date": "2029-01-31"
    },
    {
      "name": "龍勝株式会社",
      "name_kana": "",
      "business_type": "飲食店営業（一般食堂・ﾚｽﾄﾗﾝ等）",
      "address": "霧島市国分敷根１３８－１",
      "lat": 31.706052924,
      "lng": 130.78660069,
      "geocoding_level": 8,
      "phone": "",
      "license_no": "第034-000747号",
      "license_date": null,
      "expire_date": "2029-01-31"
    },
    {
      "name": "馬場　由香",
      "name_kana": "",
      "business_type": "そうざい製造業",
      "address": "霧島市溝辺町麓１３６３－５",
      "lat": 31.802909039000003,
      "lng": 130.712385198,
      "geocoding_level": 8,
      "phone": "",
      "license_no": "第034-000750号",
      "license_date": null,
      "expire_date": "2029-01-31"
    },
    {
      "name": "有限会社フォー･ユー",
      "name_kana": "",
      "business_type": "飲食店営業（一般食堂・ﾚｽﾄﾗﾝ等）",
      "address": "霧島市国分野口町４－２６",
      "lat": 31.738524254999998,
      "lng": 130.749787489,
      "geocoding_level": 8,
      "phone": "",
      "license_no": "第034-000587号",
      "license_date": null,
      "expire_date": "2028-10-31"
    },
    {
      "name": "合同会社ＬＩＮＫ",
      "name_kana": "",
      "business_type": "飲食店営業（一般食堂・ﾚｽﾄﾗﾝ等）",
      "address": "霧島市隼人町見次５１３－３",
      "lat": 31.740569699999998,
      "lng": 130.74161913,
      "geocoding_level": 8,
      "phone": "",
      "license_no": "第034-000751号",
      "license_date": null,
      "expire_date": "2029-01-31"
    },
    {
      "name": "前田　佳子",
      "name_kana": "",
      "business_type": "飲食店営業（その他）",
      "address": "霧島市隼人町姫城１０７５",
      "lat": 31.761981,
      "lng": 130.761192,
      "geocoding_level": 3,
      "phone": "",
      "license_no": "第034-000628号",
      "license_date": null,
      "expire_date": "2028-10-31"
    },
    {
      "name": "三川　麻美",
      "name_kana": "",
      "business_type": "菓子製造業",
      "address": "霧島市国分中央３－１６－３１",
      "lat": 31.738878529,
      "lng": 130.769343441,
      "geocoding_level": 8,
      "phone": "",
      "license_no": "第034-000755号",
      "license_date": null,
      "expire_date": "2029-01-31"
    },
    {
      "name": "三川　麻美",
      "name_kana": "",
      "business_type": "そうざい製造業",
      "address": "霧島市国分中央３－１６－３１",
      "lat": 31.738878529,
      "lng": 130.769343441,
      "geocoding_level": 8,
      "phone": "",
      "license_no": "第034-000756号",
      "license_date": null,
      "expire_date": "2029-01-31"
    },
    {
      "name": "株式会社Ｂｉｓｈｎｕ  Ｉｎｔｅｒｎａｔｉｏｎａｌ",
      "name_kana": "",
      "business_type": "飲食店営業（一般食堂・ﾚｽﾄﾗﾝ等）",
      "address": "霧島市隼人町見次１０１０－３",
      "lat": 31.735944821,
      "lng": 130.739311173,
      "geocoding_level": 8,
      "phone": "",
      "license_no": "第034-000757号",
      "license_date": null,
      "expire_date": "2029-01-31"
    },
    {
      "name": "臼木　るい",
      "name_kana": "",
      "business_type": "菓子製造業",
      "address": "霧島市牧園町宿窪田２６５７－２２",
      "lat": 31.859055138,
      "lng": 130.759540485,
      "geocoding_level": 8,
      "phone": "",
      "license_no": "第034-000754号",
      "license_date": null,
      "expire_date": "2029-01-31"
    },
    {
      "name": "湯田　清治",
      "name_kana": "",
      "business_type": "食肉販売業",
      "address": "霧島市牧園町高千穂３６２０－３６",
      "lat": 31.882957597,
      "lng": 130.815362114,
      "geocoding_level": 8,
      "phone": "",
      "license_no": "第032-000402号",
      "license_date": null,
      "expire_date": "2026-07-31"
    },
    {
      "name": "有限会社ワタセ食鳥",
      "name_kana": "",
      "business_type": "食肉販売業",
      "address": "霧島市牧園町宿窪田１２４０－４",
      "lat": 31.858588725,
      "lng": 130.745772554,
      "geocoding_level": 8,
      "phone": "",
      "license_no": "第032-000408号",
      "license_date": null,
      "expire_date": "2026-07-31"
    },
    {
      "name": "前田　学",
      "name_kana": "",
      "business_type": "食肉販売業",
      "address": "霧島市横川町下ノ赤水２４１－３",
      "lat": 31.859797,
      "lng": 130.715132,
      "geocoding_level": 3,
      "phone": "",
      "license_no": "第032-000873号",
      "license_date": null,
      "expire_date": "2027-01-31"
    },
    {
      "name": "みやま産業株式会社",
      "name_kana": "",
      "business_type": "飲食店営業（その他）",
      "address": "霧島市国分中央３－１４－９",
      "lat": 31.737885589,
      "lng": 130.767562225,
      "geocoding_level": 8,
      "phone": "",
      "license_no": "第032-000084号",
      "license_date": null,
      "expire_date": "2026-04-30"
    },
    {
      "name": "みやま産業株式会社",
      "name_kana": "",
      "business_type": "飲食店営業（一般食堂・ﾚｽﾄﾗﾝ等）",
      "address": "霧島市霧島田口１６１１－１０",
      "lat": 31.852216060999996,
      "lng": 130.829615186,
      "geocoding_level": 8,
      "phone": "",
      "license_no": "第033-000117号",
      "license_date": null,
      "expire_date": "2027-04-30"
    },
    {
      "name": "笹峯　大作",
      "name_kana": "",
      "business_type": "食肉販売業",
      "address": "霧島市隼人町内２２６５－２５",
      "lat": 31.763695005999995,
      "lng": 130.72683944600004,
      "geocoding_level": 8,
      "phone": "",
      "license_no": "第033-000305号",
      "license_date": null,
      "expire_date": "2027-07-31"
    },
    {
      "name": "蔵元　弘",
      "name_kana": "",
      "business_type": "食肉販売業",
      "address": "霧島市隼人町姫城１－２５－２",
      "lat": 31.761498991,
      "lng": 130.757396864,
      "geocoding_level": 8,
      "phone": "",
      "license_no": "第032-000635号",
      "license_date": null,
      "expire_date": "2026-10-31"
    },
    {
      "name": "有限会社　坂留鶏肉店",
      "name_kana": "",
      "business_type": "食肉販売業",
      "address": "霧島市溝辺町麓１－４７",
      "lat": 31.741015000000004,
      "lng": 130.763136,
      "geocoding_level": 2,
      "phone": "",
      "license_no": "第033-000138号",
      "license_date": null,
      "expire_date": "2027-04-30"
    },
    {
      "name": "みやま産業株式会社",
      "name_kana": "",
      "business_type": "食肉販売業",
      "address": "霧島市国分福島２－２７－１４",
      "lat": 31.723343112000002,
      "lng": 130.758739408,
      "geocoding_level": 8,
      "phone": "",
      "license_no": "第033-000650号",
      "license_date": null,
      "expire_date": "2028-04-30"
    },
    {
      "name": "株式会社　魚国総本社",
      "name_kana": "",
      "business_type": "飲食店営業（一般食堂・ﾚｽﾄﾗﾝ等）",
      "address": "霧島市隼人町真孝１４６０－１",
      "lat": 31.731462756000003,
      "lng": 130.728337007,
      "geocoding_level": 8,
      "phone": "",
      "license_no": "第033-000064号",
      "license_date": null,
      "expire_date": "2027-04-30"
    },
    {
      "name": "一般財団法人防衛弘済会",
      "name_kana": "",
      "business_type": "飲食店営業（一般食堂・ﾚｽﾄﾗﾝ等）",
      "address": "霧島市国分福島２－４－１４",
      "lat": 31.723331293,
      "lng": 130.754553055,
      "geocoding_level": 8,
      "phone": "",
      "license_no": "第031-001180号",
      "license_date": null,
      "expire_date": "2026-04-30"
    },
    {
      "name": "有限会社　わきもと",
      "name_kana": "",
      "business_type": "飲食店営業（一般食堂・ﾚｽﾄﾗﾝ等）",
      "address": "霧島市牧園町高千穂３８８５－７３",
      "lat": 31.891830306,
      "lng": 130.826515502,
      "geocoding_level": 8,
      "phone": "",
      "license_no": "第032-000135号",
      "license_date": null,
      "expire_date": "2026-04-30"
    },
    {
      "name": "田之上　史子",
      "name_kana": "",
      "business_type": "飲食店営業（一般食堂・ﾚｽﾄﾗﾝ等）",
      "address": "霧島市隼人町内山田２－５－５",
      "lat": 31.744928600000005,
      "lng": 130.73813336,
      "geocoding_level": 8,
      "phone": "",
      "license_no": "第031-001076号",
      "license_date": null,
      "expire_date": "2026-01-31"
    },
    {
      "name": "岩崎産業株式会社",
      "name_kana": "",
      "business_type": "飲食店営業（旅館）",
      "address": "霧島市牧園町高千穂３９５８",
      "lat": 31.897209999999998,
      "lng": 130.830875,
      "geocoding_level": 3,
      "phone": "",
      "license_no": "第031-001125号",
      "license_date": null,
      "expire_date": "2026-01-31"
    },
    {
      "name": "下園　武志",
      "name_kana": "",
      "business_type": "飲食店営業（一般食堂・ﾚｽﾄﾗﾝ等）",
      "address": "霧島市隼人町内１５４３",
      "lat": 31.763574672000004,
      "lng": 130.752659594,
      "geocoding_level": 8,
      "phone": "",
      "license_no": "第032-000115号",
      "license_date": null,
      "expire_date": "2026-04-30"
    },
    {
      "name": "海江田　義文",
      "name_kana": "",
      "business_type": "飲食店営業（その他）",
      "address": "霧島市隼人町神宮１－１３－２８",
      "lat": 31.750301872000005,
      "lng": 130.742922418,
      "geocoding_level": 8,
      "phone": "",
      "license_no": "第032-000372号",
      "license_date": null,
      "expire_date": "2026-07-31"
    },
    {
      "name": "八ヶ代　優子",
      "name_kana": "",
      "business_type": "菓子製造業",
      "address": "霧島市国分郡田４２７－２１",
      "lat": 31.7645048,
      "lng": 130.785417707,
      "geocoding_level": 8,
      "phone": "",
      "license_no": "第032-000074号",
      "license_date": null,
      "expire_date": "2026-04-30"
    },
    {
      "name": "雅叙苑観光有限会社",
      "name_kana": "",
      "business_type": "飲食店営業（その他）",
      "address": "霧島市牧園町宿窪田４２３０",
      "lat": 31.843349000000003,
      "lng": 130.75147100000004,
      "geocoding_level": 3,
      "phone": "",
      "license_no": "第032-000652号",
      "license_date": null,
      "expire_date": "2026-10-31"
    },
    {
      "name": "有限会社　妙見荘",
      "name_kana": "",
      "business_type": "飲食店営業（旅館）",
      "address": "霧島市牧園町宿窪田４２３６－１",
      "lat": 31.812056589,
      "lng": 130.75758241,
      "geocoding_level": 8,
      "phone": "",
      "license_no": "第032-000725号",
      "license_date": null,
      "expire_date": "2026-10-31"
    },
    {
      "name": "瀬戸口　了",
      "name_kana": "",
      "business_type": "飲食店営業（一般食堂・ﾚｽﾄﾗﾝ等）",
      "address": "霧島市国分中央３－２８－１７ ＭＫ　ＦＡＳＴＮＥＳＳビル　１０１",
      "lat": 31.737180204,
      "lng": 130.76508354,
      "geocoding_level": 8,
      "phone": "",
      "license_no": "第032-000904号",
      "license_date": null,
      "expire_date": "2027-01-31"
    },
    {
      "name": "岩重　輝義",
      "name_kana": "",
      "business_type": "飲食店営業（その他）",
      "address": "霧島市国分中央３－３３－１７",
      "lat": 31.738538767000005,
      "lng": 130.764817458,
      "geocoding_level": 8,
      "phone": "",
      "license_no": "第033-000583号",
      "license_date": null,
      "expire_date": "2028-01-31"
    },
    {
      "name": "株式会社馬酔木",
      "name_kana": "",
      "business_type": "飲食店営業（一般食堂・ﾚｽﾄﾗﾝ等）",
      "address": "霧島市国分中央５－８－１７",
      "lat": 31.735357839,
      "lng": 130.763658654,
      "geocoding_level": 8,
      "phone": "",
      "license_no": "第033-000586号",
      "license_date": null,
      "expire_date": "2028-01-31"
    },
    {
      "name": "間世田農園合同会社",
      "name_kana": "",
      "business_type": "食肉処理業",
      "address": "霧島市溝辺町竹子７０７－１",
      "lat": 31.85852555,
      "lng": 130.665274115,
      "geocoding_level": 8,
      "phone": "",
      "license_no": "第033-000229号",
      "license_date": null,
      "expire_date": "2027-07-31"
    },
    {
      "name": "有限会社　松元鮮魚",
      "name_kana": "",
      "business_type": "魚介類販売業",
      "address": "霧島市国分中央３－１６－３",
      "lat": 31.739238616,
      "lng": 130.770077799,
      "geocoding_level": 8,
      "phone": "",
      "license_no": "第034-000572号",
      "license_date": null,
      "expire_date": "2028-10-31"
    },
    {
      "name": "溝口　勝郎",
      "name_kana": "",
      "business_type": "豆腐製造業",
      "address": "霧島市隼人町住吉１",
      "lat": 31.717719031999998,
      "lng": 130.745201658,
      "geocoding_level": 8,
      "phone": "",
      "license_no": "第034-000423号",
      "license_date": null,
      "expire_date": "2028-10-31"
    },
    {
      "name": "宗教法人　カトリック聖血礼拝修道会",
      "name_kana": "",
      "business_type": "菓子製造業",
      "address": "霧島市溝辺町有川１０７",
      "lat": 31.822475999999998,
      "lng": 130.663257,
      "geocoding_level": 3,
      "phone": "",
      "license_no": "第034-000155号",
      "license_date": null,
      "expire_date": "2028-04-30"
    },
    {
      "name": "白川田　真由美",
      "name_kana": "",
      "business_type": "飲食店営業（その他）",
      "address": "霧島市隼人町内１４４０－３ 永野ビル１号室",
      "lat": 31.761503117000004,
      "lng": 130.753560145,
      "geocoding_level": 8,
      "phone": "",
      "license_no": "第034-000598号",
      "license_date": null,
      "expire_date": "2028-10-31"
    },
    {
      "name": "安楽　雄二",
      "name_kana": "",
      "business_type": "飲食店営業（旅館）",
      "address": "霧島市牧園町宿窪田４１９３",
      "lat": 31.843349000000003,
      "lng": 130.75147100000004,
      "geocoding_level": 3,
      "phone": "",
      "license_no": "第034-000449号",
      "license_date": null,
      "expire_date": "2028-10-31"
    },
    {
      "name": "久木田　由美",
      "name_kana": "",
      "business_type": "菓子製造業",
      "address": "霧島市溝辺町竹子９８１－１",
      "lat": 31.860352647,
      "lng": 130.659372127,
      "geocoding_level": 8,
      "phone": "",
      "license_no": "第034-000813号",
      "license_date": null,
      "expire_date": "2029-01-31"
    },
    {
      "name": "久木田　由美",
      "name_kana": "",
      "business_type": "そうざい製造業",
      "address": "霧島市溝辺町竹子９８１－１",
      "lat": 31.860352647,
      "lng": 130.659372127,
      "geocoding_level": 8,
      "phone": "",
      "license_no": "第034-000814号",
      "license_date": null,
      "expire_date": "2029-01-31"
    },
    {
      "name": "有限会社　大名閣",
      "name_kana": "",
      "business_type": "菓子製造業",
      "address": "霧島市溝辺町麓２９９－１０",
      "lat": 31.793877904,
      "lng": 130.717363465,
      "geocoding_level": 8,
      "phone": "",
      "license_no": "第034-000815号",
      "license_date": null,
      "expire_date": "2029-01-31"
    },
    {
      "name": "有限会社　大名閣",
      "name_kana": "",
      "business_type": "麺類製造業",
      "address": "霧島市溝辺町麓２９９－１０",
      "lat": 31.793877904,
      "lng": 130.717363465,
      "geocoding_level": 8,
      "phone": "",
      "license_no": "第034-000816号",
      "license_date": null,
      "expire_date": "2029-01-31"
    },
    {
      "name": "有限会社　大名閣",
      "name_kana": "",
      "business_type": "そうざい製造業",
      "address": "霧島市溝辺町麓２９９－１０",
      "lat": 31.793877904,
      "lng": 130.717363465,
      "geocoding_level": 8,
      "phone": "",
      "license_no": "第034-000817号",
      "license_date": null,
      "expire_date": "2029-01-31"
    },
    {
      "name": "株式会社　鮮ど市場",
      "name_kana": "",
      "business_type": "飲食店営業（その他）",
      "address": "霧島市国分上井６５",
      "lat": 31.72189978,
      "lng": 130.778350014,
      "geocoding_level": 8,
      "phone": "",
      "license_no": "第034-000818号",
      "license_date": null,
      "expire_date": "2028-01-31"
    },
    {
      "name": "鎌田　和久",
      "name_kana": "",
      "business_type": "飲食店営業（一般食堂・ﾚｽﾄﾗﾝ等）",
      "address": "霧島市国分新町１－３２－５８－４",
      "lat": 31.755449107,
      "lng": 130.761960792,
      "geocoding_level": 8,
      "phone": "",
      "license_no": "第034-000819号",
      "license_date": null,
      "expire_date": "2029-01-31"
    },
    {
      "name": "東郷　すみ子",
      "name_kana": "",
      "business_type": "飲食店営業（一般食堂・ﾚｽﾄﾗﾝ等）",
      "address": "霧島市国分清水４－３－８",
      "lat": 31.761007170000003,
      "lng": 130.78422805,
      "geocoding_level": 8,
      "phone": "",
      "license_no": "第034-000820号",
      "license_date": null,
      "expire_date": "2029-01-31"
    },
    {
      "name": "池田　洋一",
      "name_kana": "",
      "business_type": "菓子製造業",
      "address": "霧島市国分川原鍋ノ谷１６１０－３",
      "lat": 31.745281000000002,
      "lng": 130.826462,
      "geocoding_level": 3,
      "phone": "",
      "license_no": "第034-000821号",
      "license_date": null,
      "expire_date": "2029-01-31"
    },
    {
      "name": "有限会社ワンズオリジナル",
      "name_kana": "",
      "business_type": "飲食店営業（その他）",
      "address": "霧島市国分中央１－２－３５",
      "lat": 31.743112258999997,
      "lng": 130.764045383,
      "geocoding_level": 8,
      "phone": "",
      "license_no": "第034-000822号",
      "license_date": null,
      "expire_date": "2029-01-31"
    },
    {
      "name": "山神　勝美",
      "name_kana": "",
      "business_type": "飲食店営業（一般食堂・ﾚｽﾄﾗﾝ等）",
      "address": "霧島市国分中央１－２６－３１",
      "lat": 31.739872916000003,
      "lng": 130.769153258,
      "geocoding_level": 8,
      "phone": "",
      "license_no": "第034-000824号",
      "license_date": null,
      "expire_date": "2029-01-31"
    },
    {
      "name": "ベガン　ティモテ",
      "name_kana": "",
      "business_type": "菓子製造業",
      "address": "霧島市国分中央３－１３－１７",
      "lat": 31.738809140000004,
      "lng": 130.767438669,
      "geocoding_level": 8,
      "phone": "",
      "license_no": "第034-000827号",
      "license_date": null,
      "expire_date": "2029-01-31"
    },
    {
      "name": "和泉　一洋",
      "name_kana": "",
      "business_type": "飲食店営業（その他）",
      "address": "霧島市国分中央３－２８－１６ 中央国分ＢＬＤ　１Ｆ",
      "lat": 31.737097964,
      "lng": 130.765139254,
      "geocoding_level": 8,
      "phone": "",
      "license_no": "第034-000828号",
      "license_date": null,
      "expire_date": "2029-01-31"
    },
    {
      "name": "有限会社いしはら",
      "name_kana": "",
      "business_type": "飲食店営業（一般食堂・ﾚｽﾄﾗﾝ等）",
      "address": "霧島市国分中央３－３５－２０－１",
      "lat": 31.739480000000004,
      "lng": 130.7647,
      "geocoding_level": 3,
      "phone": "",
      "license_no": "第034-000829号",
      "license_date": null,
      "expire_date": "2029-01-31"
    },
    {
      "name": "齋藤　考史",
      "name_kana": "",
      "business_type": "飲食店営業（一般食堂・ﾚｽﾄﾗﾝ等）",
      "address": "霧島市国分中央３－９－６　１Ｆ",
      "lat": 31.738735124,
      "lng": 130.767069215,
      "geocoding_level": 8,
      "phone": "",
      "license_no": "第034-000830号",
      "license_date": null,
      "expire_date": "2029-01-31"
    },
    {
      "name": "有限会社ティンカーベル",
      "name_kana": "",
      "business_type": "飲食店営業（その他）",
      "address": "霧島市国分名波町７－４",
      "lat": 31.735124975,
      "lng": 130.780151406,
      "geocoding_level": 8,
      "phone": "",
      "license_no": "第034-000832号",
      "license_date": null,
      "expire_date": "2029-01-31"
    },
    {
      "name": "有限会社ティンカーベル",
      "name_kana": "",
      "business_type": "菓子製造業",
      "address": "霧島市国分名波町７－４",
      "lat": 31.735124975,
      "lng": 130.780151406,
      "geocoding_level": 8,
      "phone": "",
      "license_no": "第034-000833号",
      "license_date": null,
      "expire_date": "2029-01-31"
    },
    {
      "name": "株式会社照国商事",
      "name_kana": "",
      "business_type": "飲食店営業（旅館）",
      "address": "霧島市隼人町西光寺２４７４",
      "lat": 31.776667000000003,
      "lng": 130.736911,
      "geocoding_level": 3,
      "phone": "",
      "license_no": "第034-000837号",
      "license_date": null,
      "expire_date": "2029-01-31"
    },
    {
      "name": "原田　大樹",
      "name_kana": "",
      "business_type": "飲食店営業（一般食堂・ﾚｽﾄﾗﾝ等）",
      "address": "霧島市隼人町内６６０",
      "lat": 31.753467832,
      "lng": 130.74969138,
      "geocoding_level": 8,
      "phone": "",
      "license_no": "第034-000838号",
      "license_date": null,
      "expire_date": "2029-01-31"
    },
    {
      "name": "中濱　サエ子",
      "name_kana": "",
      "business_type": "飲食店営業（一般食堂・ﾚｽﾄﾗﾝ等）",
      "address": "霧島市隼人町内山田１－２－８",
      "lat": 31.744741715,
      "lng": 130.740073272,
      "geocoding_level": 8,
      "phone": "",
      "license_no": "第034-000839号",
      "license_date": null,
      "expire_date": "2029-01-31"
    },
    {
      "name": "中山　優子",
      "name_kana": "",
      "business_type": "飲食店営業（一般食堂・ﾚｽﾄﾗﾝ等）",
      "address": "霧島市隼人町内山田２－２－１９",
      "lat": 31.745760484000005,
      "lng": 130.741265633,
      "geocoding_level": 8,
      "phone": "",
      "license_no": "第034-000840号",
      "license_date": null,
      "expire_date": "2029-01-31"
    },
    {
      "name": "富士産業株式会社",
      "name_kana": "",
      "business_type": "飲食店営業（一般食堂・ﾚｽﾄﾗﾝ等）",
      "address": "霧島市隼人町姫城１０５０－１",
      "lat": 31.759793975000004,
      "lng": 130.757790288,
      "geocoding_level": 8,
      "phone": "",
      "license_no": "第034-000841号",
      "license_date": null,
      "expire_date": "2029-01-31"
    },
    {
      "name": "西濱　健児",
      "name_kana": "",
      "business_type": "飲食店営業（一般食堂・ﾚｽﾄﾗﾝ等）",
      "address": "霧島市隼人町姫城３－１５５",
      "lat": 31.771133672999998,
      "lng": 130.757630469,
      "geocoding_level": 8,
      "phone": "",
      "license_no": "第034-000842号",
      "license_date": null,
      "expire_date": "2029-01-31"
    },
    {
      "name": "福森　秋子",
      "name_kana": "",
      "business_type": "そうざい製造業",
      "address": "霧島市福山町福山４６５１－１",
      "lat": 31.669485895000005,
      "lng": 130.844146709,
      "geocoding_level": 8,
      "phone": "",
      "license_no": "第034-000843号",
      "license_date": null,
      "expire_date": "2029-01-31"
    },
    {
      "name": "吉富　久寛",
      "name_kana": "",
      "business_type": "飲食店営業（一般食堂・ﾚｽﾄﾗﾝ等）",
      "address": "霧島市霧島田口２４５４",
      "lat": 31.877493,
      "lng": 130.870356,
      "geocoding_level": 3,
      "phone": "",
      "license_no": "第034-000845号",
      "license_date": null,
      "expire_date": "2029-01-31"
    },
    {
      "name": "下脇　教子",
      "name_kana": "",
      "business_type": "そうざい製造業",
      "address": "霧島市霧島田口２５８３－５５",
      "lat": 31.863266273,
      "lng": 130.855045112,
      "geocoding_level": 8,
      "phone": "",
      "license_no": "第034-000846号",
      "license_date": null,
      "expire_date": "2029-01-31"
    },
    {
      "name": "みやま産業株式会社",
      "name_kana": "",
      "business_type": "菓子製造業",
      "address": "霧島市国分新町２－４０９－２",
      "lat": 31.752739000000002,
      "lng": 130.764714,
      "geocoding_level": 3,
      "phone": "",
      "license_no": "第034-000772号",
      "license_date": null,
      "expire_date": "2029-01-31"
    },
    {
      "name": "今吉製茶有限会社",
      "name_kana": "",
      "business_type": "飲食店営業（その他）",
      "address": "霧島市溝辺町麓３３９１",
      "lat": 31.806222000000005,
      "lng": 130.701763,
      "geocoding_level": 3,
      "phone": "",
      "license_no": "第034-000161号",
      "license_date": null,
      "expire_date": "2028-04-30"
    },
    {
      "name": "合同会社ＮＯＡ",
      "name_kana": "",
      "business_type": "菓子製造業",
      "address": "霧島市国分中央５－４－７",
      "lat": 31.737505438,
      "lng": 130.764041972,
      "geocoding_level": 8,
      "phone": "",
      "license_no": "第034-000780号",
      "license_date": null,
      "expire_date": "2029-01-31"
    },
    {
      "name": "夏田　真吾",
      "name_kana": "",
      "business_type": "飲食店営業（その他）",
      "address": "霧島市国分中央３－８－１５ 花牟礼ビル２０２",
      "lat": 31.738682944,
      "lng": 130.765757625,
      "geocoding_level": 8,
      "phone": "",
      "license_no": "第034-000781号",
      "license_date": null,
      "expire_date": "2029-01-31"
    },
    {
      "name": "ＫＨＡＲＥＬ ＴＵＬＳＩ ＲＡＭ",
      "name_kana": "",
      "business_type": "飲食店営業（一般食堂・ﾚｽﾄﾗﾝ等）",
      "address": "霧島市国分中央４－８－１２",
      "lat": 31.733217835000005,
      "lng": 130.776332841,
      "geocoding_level": 8,
      "phone": "",
      "license_no": "第034-000782号",
      "license_date": null,
      "expire_date": "2029-01-31"
    },
    {
      "name": "五領　建蔵",
      "name_kana": "",
      "business_type": "飲食店営業（一般食堂・ﾚｽﾄﾗﾝ等）",
      "address": "霧島市国分中央３－９－６",
      "lat": 31.738735124,
      "lng": 130.767069215,
      "geocoding_level": 8,
      "phone": "",
      "license_no": "第034-000847号",
      "license_date": null,
      "expire_date": "2029-01-31"
    },
    {
      "name": "恒松　成興",
      "name_kana": "",
      "business_type": "飲食店営業（その他）",
      "address": "霧島市国分松木町３２－７－２",
      "lat": 31.732319,
      "lng": 130.751961,
      "geocoding_level": 3,
      "phone": "",
      "license_no": "第034-000848号",
      "license_date": null,
      "expire_date": "2029-01-31"
    },
    {
      "name": "一冨士フードサービス株式会社",
      "name_kana": "",
      "business_type": "飲食店営業（一般食堂・ﾚｽﾄﾗﾝ等）",
      "address": "霧島市霧島田口２１９０－１０",
      "lat": 31.851914561,
      "lng": 130.853691632,
      "geocoding_level": 8,
      "phone": "",
      "license_no": "第034-000854号",
      "license_date": null,
      "expire_date": "2029-01-31"
    },
    {
      "name": "上園食品株式会社",
      "name_kana": "",
      "business_type": "漬物製造業",
      "address": "霧島市隼人町真孝字松山３３４４－１",
      "lat": 31.72692,
      "lng": 130.725669,
      "geocoding_level": 3,
      "phone": "",
      "license_no": "第034-000787号",
      "license_date": null,
      "expire_date": "2028-01-31"
    },
    {
      "name": "福原　徳一",
      "name_kana": "",
      "business_type": "食肉販売業",
      "address": "霧島市横川町下ノ下原９０１－１７",
      "lat": 31.859797,
      "lng": 130.715132,
      "geocoding_level": 3,
      "phone": "",
      "license_no": "第034-000788号",
      "license_date": null,
      "expire_date": "2029-01-31"
    },
    {
      "name": "福原　静江",
      "name_kana": "",
      "business_type": "そうざい製造業",
      "address": "霧島市横川町上ノ１８８１－２",
      "lat": 31.895870131,
      "lng": 130.678928971,
      "geocoding_level": 8,
      "phone": "",
      "license_no": "第034-000860号",
      "license_date": null,
      "expire_date": "2029-01-31"
    },
    {
      "name": "あいら農業協同組合",
      "name_kana": "",
      "business_type": "みそ製造業",
      "address": "霧島市隼人町内山田２－７－２",
      "lat": 31.745014781,
      "lng": 130.737070797,
      "geocoding_level": 8,
      "phone": "",
      "license_no": "第032-000119号",
      "license_date": null,
      "expire_date": "2026-04-30"
    },
    {
      "name": "あいら農業協同組合",
      "name_kana": "",
      "business_type": "菓子製造業",
      "address": "霧島市隼人町内山田２－７－２",
      "lat": 31.745014781,
      "lng": 130.737070797,
      "geocoding_level": 8,
      "phone": "",
      "license_no": "第032-000382号",
      "license_date": null,
      "expire_date": "2026-07-31"
    },
    {
      "name": "江夏石油株式会社",
      "name_kana": "",
      "business_type": "飲食店営業（旅館）",
      "address": "霧島市霧島田口１９６６－４",
      "lat": 31.844033223000004,
      "lng": 130.84824345,
      "geocoding_level": 8,
      "phone": "",
      "license_no": "第033-000363号",
      "license_date": null,
      "expire_date": "2027-10-31"
    },
    {
      "name": "大上　美由紀",
      "name_kana": "",
      "business_type": "飲食店営業（一般食堂・ﾚｽﾄﾗﾝ等）",
      "address": "霧島市国分新町１５７７－４－１０１",
      "lat": 31.758631000000005,
      "lng": 130.775663,
      "geocoding_level": 3,
      "phone": "",
      "license_no": "第034-000863号",
      "license_date": null,
      "expire_date": "2029-04-30"
    },