{
  "meta": {
    "updated": 1783906731,
    "sources": [
      {
        "source": "福島県食品営業許可施設一覧",
        "license": "CC BY 2.1 JP"
      },
      {
        "source": "厚生労働省 食品衛生申請等システム（オープンデータ）",
        "license": "公共データ利用規約（第1.0版, PDL1.0）"
      }
    ]
  },
  "data": [
    {
      "name": "フレッシュストア吉田",
      "name_kana": "",
      "business_type": "魚介類販売業",
      "address": "二本松市戸沢字下田７０",
      "lat": 37.567299732,
      "lng": 140.578527938,
      "geocoding_level": 8,
      "phone": "0243-46-3555",
      "license_no": "2-82",
      "license_date": null,
      "expire_date": null
    },
    {
      "name": "フレッシュストア吉田",
      "name_kana": "",
      "business_type": "食肉販売業",
      "address": "二本松市戸沢字下田７０",
      "lat": 37.567299732,
      "lng": 140.578527938,
      "geocoding_level": 8,
      "phone": "0243-46-3555",
      "license_no": "2-83",
      "license_date": null,
      "expire_date": null
    },
    {
      "name": "フレッシュストア吉田",
      "name_kana": "",
      "business_type": "そうざい製造業",
      "address": "二本松市戸沢字下田７０",
      "lat": 37.567299732,
      "lng": 140.578527938,
      "geocoding_level": 8,
      "phone": "0243-46-3555",
      "license_no": "2-81",
      "license_date": null,
      "expire_date": null
    },
    {
      "name": "かとう",
      "name_kana": "",
      "business_type": "飲食店営業",
      "address": "二本松市太田字上太北５７",
      "lat": 37.584783,
      "lng": 140.431199,
      "geocoding_level": 2,
      "phone": "0243-47-3226",
      "license_no": "2-125",
      "license_date": null,
      "expire_date": null
    },
    {
      "name": "かとう",
      "name_kana": "",
      "business_type": "魚介類販売業",
      "address": "二本松市太田字上太北５７",
      "lat": 37.584783,
      "lng": 140.431199,
      "geocoding_level": 2,
      "phone": "0243-47-3226",
      "license_no": "2-126",
      "license_date": null,
      "expire_date": null
    },
    {
      "name": "本田豆富店",
      "name_kana": "",
      "business_type": "豆腐製造業",
      "address": "二本松市太田字馬乗１００",
      "lat": 37.556109641,
      "lng": 140.580199999,
      "geocoding_level": 8,
      "phone": "0243-46-2617",
      "license_no": "2-103",
      "license_date": null,
      "expire_date": null
    },
    {
      "name": "杉山糀店",
      "name_kana": "",
      "business_type": "みそ又はしょうゆ製造業",
      "address": "二本松市木幡字大泉前５０",
      "lat": 37.584783,
      "lng": 140.431199,
      "geocoding_level": 2,
      "phone": "0243-46-2961",
      "license_no": "2-104",
      "license_date": null,
      "expire_date": null
    },
    {
      "name": "みどりや旅館",
      "name_kana": "",
      "business_type": "飲食店営業",
      "address": "二本松市木幡字松木下５８",
      "lat": 37.584783,
      "lng": 140.431199,
      "geocoding_level": 2,
      "phone": "0243-46-2727",
      "license_no": "2-128",
      "license_date": null,
      "expire_date": null
    },
    {
      "name": "太田屋",
      "name_kana": "",
      "business_type": "飲食店営業",
      "address": "二本松市小浜字反町４１３",
      "lat": 37.584783,
      "lng": 140.431199,
      "geocoding_level": 2,
      "phone": "0243-55-2649",
      "license_no": "2-106",
      "license_date": null,
      "expire_date": null
    },
    {
      "name": "山口屋",
      "name_kana": "",
      "business_type": "飲食店営業",
      "address": "二本松市小浜字新町１７",
      "lat": 37.561163101,
      "lng": 140.508097869,
      "geocoding_level": 8,
      "phone": "0243-55-2307",
      "license_no": "2-85",
      "license_date": null,
      "expire_date": null
    },
    {
      "name": "山口屋",
      "name_kana": "",
      "business_type": "魚介類販売業",
      "address": "二本松市小浜字新町１７",
      "lat": 37.561163101,
      "lng": 140.508097869,
      "geocoding_level": 8,
      "phone": "0243-55-2307",
      "license_no": "2-86",
      "license_date": null,
      "expire_date": null
    },
    {
      "name": "相模屋",
      "name_kana": "",
      "business_type": "飲食店営業",
      "address": "二本松市小浜字反町１０",
      "lat": 37.554218439,
      "lng": 140.506558213,
      "geocoding_level": 8,
      "phone": "0243-55-2150",
      "license_no": "2-133",
      "license_date": null,
      "expire_date": null
    },
    {
      "name": "割烹　浜の湯",
      "name_kana": "",
      "business_type": "飲食店営業",
      "address": "二本松市小浜字鳥居町５２",
      "lat": 37.561112626,
      "lng": 140.508556928,
      "geocoding_level": 8,
      "phone": "0243-55-2037",
      "license_no": "2-87",
      "license_date": null,
      "expire_date": null
    },
    {
      "name": "大黒屋菓子店",
      "name_kana": "",
      "business_type": "菓子製造業",
      "address": "二本松市油井字道田１",
      "lat": 37.584783,
      "lng": 140.431199,
      "geocoding_level": 2,
      "phone": "0243-22-0655",
      "license_no": "2-135",
      "license_date": null,
      "expire_date": null
    },
    {
      "name": "及善食品",
      "name_kana": "",
      "business_type": "菓子製造業",
      "address": "二本松市油井字漆原町６０",
      "lat": 37.601488278,
      "lng": 140.455450042,
      "geocoding_level": 8,
      "phone": "0243-23-1285",
      "license_no": "2-138",
      "license_date": null,
      "expire_date": null
    },
    {
      "name": "星野屋",
      "name_kana": "",
      "business_type": "飲食店営業",
      "address": "二本松市油井字八軒町３８",
      "lat": 37.60265625,
      "lng": 140.456472922,
      "geocoding_level": 8,
      "phone": "0243-22-0044",
      "license_no": "2-306",
      "license_date": null,
      "expire_date": null
    },
    {
      "name": "星野屋",
      "name_kana": "",
      "business_type": "菓子製造業",
      "address": "二本松市油井字八軒町３８",
      "lat": 37.60265625,
      "lng": 140.456472922,
      "geocoding_level": 8,
      "phone": "0243-22-0044",
      "license_no": "2-305",
      "license_date": null,
      "expire_date": null
    },
    {
      "name": "安斎酒店",
      "name_kana": "",
      "business_type": "豆腐製造業",
      "address": "二本松市上川崎字永作８３",
      "lat": 37.599296111,
      "lng": 140.491273398,
      "geocoding_level": 8,
      "phone": "0243-52-2109",
      "license_no": "2-140",
      "license_date": null,
      "expire_date": null
    },
    {
      "name": "福島県醤油醸造協同組合",
      "name_kana": "",
      "business_type": "みそ又はしょうゆ製造業",
      "address": "二本松市油井字簑掛１０",
      "lat": 37.584783,
      "lng": 140.431199,
      "geocoding_level": 2,
      "phone": "0243-22-3171",
      "license_no": "2-141",
      "license_date": null,
      "expire_date": null
    },
    {
      "name": "小浜納豆",
      "name_kana": "",
      "business_type": "納豆製造業",
      "address": "二本松市小浜字鳥居町８１－１",
      "lat": 37.558695428,
      "lng": 140.507700229,
      "geocoding_level": 8,
      "phone": "0243-55-2397",
      "license_no": "2-146",
      "license_date": null,
      "expire_date": null
    },
    {
      "name": "レストラン立美",
      "name_kana": "",
      "business_type": "飲食店営業",
      "address": "二本松市榎戸２丁目５８",
      "lat": 37.594951127,
      "lng": 140.457432484,
      "geocoding_level": 8,
      "phone": "0243-22-4591",
      "license_no": "2-243",
      "license_date": null,
      "expire_date": null
    },
    {
      "name": "有限会社三好製菓",
      "name_kana": "",
      "business_type": "菓子製造業",
      "address": "二本松市郭内１丁目１９５－８",
      "lat": 37.596895108,
      "lng": 140.435822107,
      "geocoding_level": 8,
      "phone": "0243-22-2086",
      "license_no": "2-148",
      "license_date": null,
      "expire_date": null
    },
    {
      "name": "レストランかすみ",
      "name_kana": "",
      "business_type": "飲食店営業",
      "address": "二本松市郭内３丁目２８７",
      "lat": 37.597074526,
      "lng": 140.432020737,
      "geocoding_level": 8,
      "phone": "0243-22-1502",
      "license_no": "2-244",
      "license_date": null,
      "expire_date": null
    },
    {
      "name": "居酒屋ひかり",
      "name_kana": "",
      "business_type": "飲食店営業",
      "address": "二本松市亀谷１丁目２８５－２",
      "lat": 37.591239809,
      "lng": 140.441242216,
      "geocoding_level": 8,
      "phone": "",
      "license_no": "2-117",
      "license_date": null,
      "expire_date": null
    },
    {
      "name": "ベークショップピノキオ",
      "name_kana": "",
      "business_type": "飲食店営業",
      "address": "二本松市竹田１丁目４２",
      "lat": 37.599795033,
      "lng": 140.444590241,
      "geocoding_level": 8,
      "phone": "0243-22-0523",
      "license_no": "2-151",
      "license_date": null,
      "expire_date": null
    },
    {
      "name": "ベークショップピノキオ",
      "name_kana": "",
      "business_type": "菓子製造業",
      "address": "二本松市竹田１丁目４２",
      "lat": 37.599795033,
      "lng": 140.444590241,
      "geocoding_level": 8,
      "phone": "0243-22-0523",
      "license_no": "2-152",
      "license_date": null,
      "expire_date": null
    },
    {
      "name": "国田屋醸造",
      "name_kana": "",
      "business_type": "飲食店営業",
      "address": "二本松市竹田２丁目３０",
      "lat": 37.60131,
      "lng": 140.445495,
      "geocoding_level": 3,
      "phone": "0243-22-0108",
      "license_no": "2-307",
      "license_date": null,
      "expire_date": null
    },
    {
      "name": "国田屋醸造",
      "name_kana": "",
      "business_type": "みそ又はしょうゆ製造業",
      "address": "二本松市竹田２丁目３０",
      "lat": 37.60131,
      "lng": 140.445495,
      "geocoding_level": 3,
      "phone": "0243-22-0108",
      "license_no": "2-385",
      "license_date": null,
      "expire_date": null
    },
    {
      "name": "辰巳屋製あん所",
      "name_kana": "",
      "business_type": "菓子製造業",
      "address": "二本松市根崎１丁目４５",
      "lat": 37.599316524,
      "lng": 140.449285431,
      "geocoding_level": 8,
      "phone": "",
      "license_no": "2-308",
      "license_date": null,
      "expire_date": null
    },
    {
      "name": "有限会社丸巳屋食品",
      "name_kana": "",
      "business_type": "豆腐製造業",
      "address": "二本松市榎戸１丁目３９１－４",
      "lat": 37.591782328,
      "lng": 140.448498127,
      "geocoding_level": 8,
      "phone": "0243-23-5032",
      "license_no": "2-153",
      "license_date": null,
      "expire_date": null
    },
    {
      "name": "菓子処　勝田屋",
      "name_kana": "",
      "business_type": "菓子製造業",
      "address": "二本松市根崎２丁目１８８－１",
      "lat": 37.59991748,
      "lng": 140.450501637,
      "geocoding_level": 8,
      "phone": "0243-22-0910",
      "license_no": "2-140",
      "license_date": null,
      "expire_date": null
    },
    {
      "name": "安達ケ原大福屋",
      "name_kana": "",
      "business_type": "菓子製造業",
      "address": "二本松市安達ケ原４丁目２３５－５",
      "lat": 37.59332223100001,
      "lng": 140.462878117,
      "geocoding_level": 8,
      "phone": "0243-22-1538",
      "license_no": "2-245",
      "license_date": null,
      "expire_date": null
    },
    {
      "name": "二本松御苑",
      "name_kana": "",
      "business_type": "飲食店営業",
      "address": "二本松市金色久保２２２－７",
      "lat": 37.584208,
      "lng": 140.434149,
      "geocoding_level": 3,
      "phone": "0243-23-3921",
      "license_no": "2-154",
      "license_date": null,
      "expire_date": null
    },
    {
      "name": "青木荘",
      "name_kana": "",
      "business_type": "飲食店営業",
      "address": "二本松市木ノ根坂１０",
      "lat": 37.642635059,
      "lng": 140.341449041,
      "geocoding_level": 8,
      "phone": "0243-24-2244",
      "license_no": "2-155",
      "license_date": null,
      "expire_date": null
    },
    {
      "name": "ぐみ塚レストハウス",
      "name_kana": "",
      "business_type": "飲食店営業",
      "address": "二本松市塩沢字茱黄塚山国有林内",
      "lat": 37.642445,
      "lng": 140.330254,
      "geocoding_level": 3,
      "phone": "0243-24-2845",
      "license_no": "2-88",
      "license_date": null,
      "expire_date": null
    },
    {
      "name": "白河屋",
      "name_kana": "",
      "business_type": "菓子製造業",
      "address": "二本松市杉田町１丁目９２",
      "lat": 37.562489293,
      "lng": 140.4120568,
      "geocoding_level": 8,
      "phone": "0243-22-0936",
      "license_no": "2-156",
      "license_date": null,
      "expire_date": null
    },
    {
      "name": "あだたらの宿扇や",
      "name_kana": "",
      "business_type": "飲食店営業",
      "address": "二本松市岳温泉１丁目３",
      "lat": 37.606932647,
      "lng": 140.355711131,
      "geocoding_level": 8,
      "phone": "0243-24-2001",
      "license_no": "2-246",
      "license_date": null,
      "expire_date": null
    },
    {
      "name": "有限会社玉川屋",
      "name_kana": "",
      "business_type": "菓子製造業",
      "address": "二本松市岳温泉１丁目１３",
      "lat": 37.606015,
      "lng": 140.356452,
      "geocoding_level": 3,
      "phone": "0243-24-2510",
      "license_no": "2-134",
      "license_date": null,
      "expire_date": null
    },
    {
      "name": "株式会社ホテル光雲閣",
      "name_kana": "",
      "business_type": "飲食店営業",
      "address": "二本松市岳温泉１丁目８５",
      "lat": 37.607761705,
      "lng": 140.352477373,
      "geocoding_level": 8,
      "phone": "0243-24-2101",
      "license_no": "2-120",
      "license_date": null,
      "expire_date": null
    },
    {
      "name": "株式会社ホテル光雲閣",
      "name_kana": "",
      "business_type": "飲食店営業",
      "address": "二本松市岳温泉１丁目８５",
      "lat": 37.607761705,
      "lng": 140.352477373,
      "geocoding_level": 8,
      "phone": "0243-24-2101",
      "license_no": "2-121",
      "license_date": null,
      "expire_date": null
    },
    {
      "name": "株式会社ホテル光雲閣",
      "name_kana": "",
      "business_type": "飲食店営業",
      "address": "二本松市岳温泉１丁目８５",
      "lat": 37.607761705,
      "lng": 140.352477373,
      "geocoding_level": 8,
      "phone": "0243-24-2101",
      "license_no": "2-122",
      "license_date": null,
      "expire_date": null
    },
    {
      "name": "居酒屋洗心亭",
      "name_kana": "",
      "business_type": "飲食店営業",
      "address": "二本松市岳温泉１丁目１０５",
      "lat": 37.606278023,
      "lng": 140.356081709,
      "geocoding_level": 8,
      "phone": "0243-24-2920",
      "license_no": "2-387",
      "license_date": null,
      "expire_date": null
    },
    {
      "name": "株式会社成駒",
      "name_kana": "",
      "business_type": "飲食店営業",
      "address": "二本松市岳温泉１丁目１１５－１",
      "lat": 37.605776616,
      "lng": 140.357039511,
      "geocoding_level": 8,
      "phone": "0243-24-2412",
      "license_no": "2-89",
      "license_date": null,
      "expire_date": null
    },
    {
      "name": "ペンションイノセントエイジ",
      "name_kana": "",
      "business_type": "飲食店営業",
      "address": "二本松市岳温泉４丁目５１４－５",
      "lat": 37.616959032,
      "lng": 140.359872827,
      "geocoding_level": 8,
      "phone": "",
      "license_no": "2-247",
      "license_date": null,
      "expire_date": null
    },
    {
      "name": "東日本酒造協業組合",
      "name_kana": "",
      "business_type": "酒類製造業",
      "address": "二本松市休石１６７",
      "lat": 37.629733,
      "lng": 140.386255,
      "geocoding_level": 3,
      "phone": "0243-22-3117",
      "license_no": "2-248",
      "license_date": null,
      "expire_date": null
    },
    {
      "name": "奥の松酒造株式会社",
      "name_kana": "",
      "business_type": "酒類製造業",
      "address": "二本松市長命６９",
      "lat": 37.559768,
      "lng": 140.405106,
      "geocoding_level": 3,
      "phone": "0243-22-2153",
      "license_no": "2-158",
      "license_date": null,
      "expire_date": null
    },
    {
      "name": "サンマートみやとや",
      "name_kana": "",
      "business_type": "飲食店営業",
      "address": "二本松市西町３３",
      "lat": 37.557741885,
      "lng": 140.412665916,
      "geocoding_level": 8,
      "phone": "0243-22-1077",
      "license_no": "2-250",
      "license_date": null,
      "expire_date": null
    },
    {
      "name": "サンマートみやとや",
      "name_kana": "",
      "business_type": "魚介類販売業",
      "address": "二本松市西町３３",
      "lat": 37.557741885,
      "lng": 140.412665916,
      "geocoding_level": 8,
      "phone": "0243-22-1077",
      "license_no": "2-8",
      "license_date": null,
      "expire_date": null
    },
    {
      "name": "稲屋",
      "name_kana": "",
      "business_type": "飲食店営業",
      "address": "二本松市平石町２４４",
      "lat": 37.553992,
      "lng": 140.463123,
      "geocoding_level": 3,
      "phone": "0243-22-1009",
      "license_no": "2-287",
      "license_date": null,
      "expire_date": null
    },
    {
      "name": "稲屋",
      "name_kana": "",
      "business_type": "魚介類販売業",
      "address": "二本松市平石町２４４",
      "lat": 37.553992,
      "lng": 140.463123,
      "geocoding_level": 3,
      "phone": "0243-22-1009",
      "license_no": "2-309",
      "license_date": null,
      "expire_date": null
    },
    {
      "name": "稲屋",
      "name_kana": "",
      "business_type": "食肉販売業",
      "address": "二本松市平石町２４４",
      "lat": 37.553992,
      "lng": 140.463123,
      "geocoding_level": 3,
      "phone": "0243-22-1009",
      "license_no": "2-310",
      "license_date": null,
      "expire_date": null
    },
    {
      "name": "白樺荘",
      "name_kana": "",
      "business_type": "飲食店営業",
      "address": "二本松市平石高田１丁目６６２－３",
      "lat": 37.575883667,
      "lng": 140.462035755,
      "geocoding_level": 8,
      "phone": "0243-22-3186",
      "license_no": "2-124",
      "license_date": null,
      "expire_date": null
    },
    {
      "name": "玉嶋屋",
      "name_kana": "",
      "business_type": "菓子製造業",
      "address": "二本松市本町１丁目８８",
      "lat": 37.591608134,
      "lng": 140.435996788,
      "geocoding_level": 8,
      "phone": "0243-23-2121",
      "license_no": "2-125",
      "license_date": null,
      "expire_date": null
    },
    {
      "name": "玉嶋屋",
      "name_kana": "",
      "business_type": "菓子製造業",
      "address": "二本松市本町１丁目８８",
      "lat": 37.591608134,
      "lng": 140.435996788,
      "geocoding_level": 8,
      "phone": "0243-23-2121",
      "license_no": "2-159",
      "license_date": null,
      "expire_date": null
    },
    {
      "name": "マルカ加藤魚店",
      "name_kana": "",
      "business_type": "魚介類販売業",
      "address": "二本松市本町１丁目２３０",
      "lat": 37.592010561,
      "lng": 140.439955155,
      "geocoding_level": 8,
      "phone": "0243-22-1790",
      "license_no": "2-290",
      "license_date": null,
      "expire_date": null
    },
    {
      "name": "スナック獏",
      "name_kana": "",
      "business_type": "飲食店営業",
      "address": "二本松市本町２丁目１５２－２",
      "lat": 37.590751835,
      "lng": 140.438245056,
      "geocoding_level": 8,
      "phone": "0243-23-4054",
      "license_no": "2-311",
      "license_date": null,
      "expire_date": null
    },
    {
      "name": "株式会社まるいちフードセンター若宮店",
      "name_kana": "",
      "business_type": "飲食店営業",
      "address": "二本松市若宮２丁目１５２－７",
      "lat": 37.58944,
      "lng": 140.427423,
      "geocoding_level": 3,
      "phone": "0243-23-4850",
      "license_no": "2-252",
      "license_date": null,
      "expire_date": null
    },
    {
      "name": "株式会社まるいちフードセンター若宮店",
      "name_kana": "",
      "business_type": "魚介類販売業",
      "address": "二本松市若宮２丁目１５２－７",
      "lat": 37.58944,
      "lng": 140.427423,
      "geocoding_level": 3,
      "phone": "0243-23-4850",
      "license_no": "2-160",
      "license_date": null,
      "expire_date": null
    },
    {
      "name": "株式会社まるいちフードセンター若宮店",
      "name_kana": "",
      "business_type": "食肉販売業",
      "address": "二本松市若宮２丁目１５２－７",
      "lat": 37.58944,
      "lng": 140.427423,
      "geocoding_level": 3,
      "phone": "0243-23-4850",
      "license_no": "2-253",
      "license_date": null,
      "expire_date": null
    },
    {
      "name": "二番軒",
      "name_kana": "",
      "business_type": "飲食店営業",
      "address": "二本松市金色４０２－１８",
      "lat": 37.58664,
      "lng": 140.431144,
      "geocoding_level": 3,
      "phone": "0243-22-9264",
      "license_no": "2-161",
      "license_date": null,
      "expire_date": null
    },
    {
      "name": "吉野糀店",
      "name_kana": "",
      "business_type": "みそ又はしょうゆ製造業",
      "address": "二本松市正法寺町２０７－１",
      "lat": 37.581094496,
      "lng": 140.419486171,
      "geocoding_level": 8,
      "phone": "0243-22-1317",
      "license_no": "2-389",
      "license_date": null,
      "expire_date": null
    },
    {
      "name": "あだたら高原富士急レストハウス",
      "name_kana": "",
      "business_type": "飲食店営業",
      "address": "二本松市永田字長坂国有林第１３林班内",
      "lat": 37.584783,
      "lng": 140.431199,
      "geocoding_level": 2,
      "phone": "0243-24-2141",
      "license_no": "2-128",
      "license_date": null,
      "expire_date": null
    },
    {
      "name": "安達太良カントリークラブ",
      "name_kana": "",
      "business_type": "飲食店営業",
      "address": "二本松市雄平台１５",
      "lat": 37.57559835,
      "lng": 140.360494339,
      "geocoding_level": 8,
      "phone": "0243-24-2111",
      "license_no": "2-254",
      "license_date": null,
      "expire_date": null
    },
    {
      "name": "安達太良カントリークラブ",
      "name_kana": "",
      "business_type": "飲食店営業",
      "address": "二本松市雄平台１５",
      "lat": 37.57559835,
      "lng": 140.360494339,
      "geocoding_level": 8,
      "phone": "0243-24-2111",
      "license_no": "2-255",
      "license_date": null,
      "expire_date": null
    },
    {
      "name": "株式会社美女来",
      "name_kana": "",
      "business_type": "そうざい製造業",
      "address": "二本松市戸沢字美女木４７",
      "lat": 37.589596031,
      "lng": 140.621494947,
      "geocoding_level": 8,
      "phone": "0243-46-2037",
      "license_no": "2-147",
      "license_date": null,
      "expire_date": null
    },
    {
      "name": "株式会社美女来",
      "name_kana": "",
      "business_type": "冷凍食品製造業",
      "address": "二本松市戸沢字美女木４７",
      "lat": 37.589596031,
      "lng": 140.621494947,
      "geocoding_level": 8,
      "phone": "0243-46-2037",
      "license_no": "1-193",
      "license_date": null,
      "expire_date": null
    },
    {
      "name": "株式会社美女来",
      "name_kana": "",
      "business_type": "漬物製造業",
      "address": "二本松市戸沢字美女木４７",
      "lat": 37.589596031,
      "lng": 140.621494947,
      "geocoding_level": 8,
      "phone": "0243-46-2037",
      "license_no": "1-194",
      "license_date": null,
      "expire_date": null
    },
    {
      "name": "有限会社片野製麺所",
      "name_kana": "",
      "business_type": "麺類製造業",
      "address": "二本松市金色久保２２８－１７",
      "lat": 37.584208,
      "lng": 140.434149,
      "geocoding_level": 3,
      "phone": "0243-22-0540",
      "license_no": "2-163",
      "license_date": null,
      "expire_date": null
    },
    {
      "name": "スナック静",
      "name_kana": "",
      "business_type": "飲食店営業",
      "address": "二本松市岳温泉１丁目１９－２",
      "lat": 37.606411301,
      "lng": 140.357328227,
      "geocoding_level": 8,
      "phone": "0243-24-2833",
      "license_no": "2-164",
      "license_date": null,
      "expire_date": null
    },
    {
      "name": "魚国総本社・二本松２１１５５",
      "name_kana": "",
      "business_type": "飲食店営業",
      "address": "二本松市宮戸３０　二本松ＮＯＫ株式会社",
      "lat": 37.574400449,
      "lng": 140.439465591,
      "geocoding_level": 8,
      "phone": "0243-23-7141",
      "license_no": "2-312",
      "license_date": null,
      "expire_date": null
    },
    {
      "name": "ペンションシャンカー",
      "name_kana": "",
      "business_type": "飲食店営業",
      "address": "二本松市岳温泉３丁目３７－３",
      "lat": 37.604118822,
      "lng": 140.353072846,
      "geocoding_level": 8,
      "phone": "0243-24-2951",
      "license_no": "2-90",
      "license_date": null,
      "expire_date": null
    },
    {
      "name": "ペンションティーポット",
      "name_kana": "",
      "business_type": "飲食店営業",
      "address": "二本松市岳温泉２丁目５９－１",
      "lat": 37.602790087,
      "lng": 140.355793388,
      "geocoding_level": 8,
      "phone": "0243-24-2316",
      "license_no": "2-155",
      "license_date": null,
      "expire_date": null
    },
    {
      "name": "大谷屋",
      "name_kana": "",
      "business_type": "飲食店営業",
      "address": "二本松市木幡字松木下５２",
      "lat": 37.584783,
      "lng": 140.431199,
      "geocoding_level": 2,
      "phone": "0243-46-2721",
      "license_no": "2-148",
      "license_date": null,
      "expire_date": null
    },
    {
      "name": "大谷屋",
      "name_kana": "",
      "business_type": "魚介類販売業",
      "address": "二本松市木幡字松木下５２",
      "lat": 37.584783,
      "lng": 140.431199,
      "geocoding_level": 2,
      "phone": "0243-46-2721",
      "license_no": "2-165",
      "license_date": null,
      "expire_date": null
    },
    {
      "name": "大谷屋",
      "name_kana": "",
      "business_type": "食肉販売業",
      "address": "二本松市木幡字松木下５２",
      "lat": 37.584783,
      "lng": 140.431199,
      "geocoding_level": 2,
      "phone": "0243-46-2721",
      "license_no": "2-149",
      "license_date": null,
      "expire_date": null
    },
    {
      "name": "のんの",
      "name_kana": "",
      "business_type": "飲食店営業",
      "address": "二本松市平石高田２丁目１１３－１",
      "lat": 37.580923658,
      "lng": 140.452742353,
      "geocoding_level": 8,
      "phone": "0243-23-7012",
      "license_no": "2-131",
      "license_date": null,
      "expire_date": null
    },
    {
      "name": "恵美寿屋",
      "name_kana": "",
      "business_type": "飲食店営業",
      "address": "二本松市岳温泉１丁目１０",
      "lat": 37.60639545,
      "lng": 140.356709972,
      "geocoding_level": 8,
      "phone": "0243-24-2414",
      "license_no": "2-132",
      "license_date": null,
      "expire_date": null
    },
    {
      "name": "レストパブキャッツ",
      "name_kana": "",
      "business_type": "飲食店営業",
      "address": "二本松市本町２丁目１００",
      "lat": 37.59142916900001,
      "lng": 140.438142568,
      "geocoding_level": 8,
      "phone": "0243-23-4038",
      "license_no": "2-133",
      "license_date": null,
      "expire_date": null
    },
    {
      "name": "エンドレス",
      "name_kana": "",
      "business_type": "飲食店営業",
      "address": "二本松市本町２丁目５６",
      "lat": 37.590463,
      "lng": 140.436135,
      "geocoding_level": 3,
      "phone": "0243-22-5525",
      "license_no": "2-313",
      "license_date": null,
      "expire_date": null
    },
    {
      "name": "株式会社檜物屋酒造店",
      "name_kana": "",
      "business_type": "酒類製造業",
      "address": "二本松市松岡１７３",
      "lat": 37.591524751,
      "lng": 140.433647242,
      "geocoding_level": 8,
      "phone": "0243-23-0164",
      "license_no": "2-91",
      "license_date": null,
      "expire_date": null
    },
    {
      "name": "結城食品",
      "name_kana": "",
      "business_type": "そうざい製造業",
      "address": "二本松市杉田町３丁目３２９－１",
      "lat": 37.568546093,
      "lng": 140.412029158,
      "geocoding_level": 8,
      "phone": "0243-22-5165",
      "license_no": "2-137",
      "license_date": null,
      "expire_date": null
    },
    {
      "name": "結城食品",
      "name_kana": "",
      "business_type": "漬物製造業",
      "address": "二本松市杉田町３丁目３２９－１",
      "lat": 37.568546093,
      "lng": 140.412029158,
      "geocoding_level": 8,
      "phone": "0243-22-5165",
      "license_no": "1-175",
      "license_date": null,
      "expire_date": null
    },
    {
      "name": "結城食品",
      "name_kana": "",
      "business_type": "密封包装食品製造業",
      "address": "二本松市杉田町３丁目３２９－１",
      "lat": 37.568546093,
      "lng": 140.412029158,
      "geocoding_level": 8,
      "phone": "0243-22-5165",
      "license_no": "2-136",
      "license_date": null,
      "expire_date": null
    },
    {
      "name": "エーム３５０２",
      "name_kana": "",
      "business_type": "飲食店営業",
      "address": "二本松市住吉１００",
      "lat": 37.554605,
      "lng": 140.405038,
      "geocoding_level": 3,
      "phone": "0243-22-3100",
      "license_no": "2-314",
      "license_date": null,
      "expire_date": null
    },
    {
      "name": "エーム３５０２",
      "name_kana": "",
      "business_type": "菓子製造業",
      "address": "二本松市住吉１００",
      "lat": 37.554605,
      "lng": 140.405038,
      "geocoding_level": 3,
      "phone": "0243-22-3100",
      "license_no": "2-92",
      "license_date": null,
      "expire_date": null
    },
    {
      "name": "加藤精肉店",
      "name_kana": "",
      "business_type": "食肉販売業",
      "address": "二本松市岳温泉１丁目２６４",
      "lat": 37.605337548,
      "lng": 140.357005797,
      "geocoding_level": 8,
      "phone": "0243-24-2516",
      "license_no": "2-138",
      "license_date": null,
      "expire_date": null
    },
    {
      "name": "本多屋食堂",
      "name_kana": "",
      "business_type": "飲食店営業",
      "address": "二本松市岳温泉１丁目１０８",
      "lat": 37.60595561900001,
      "lng": 140.356396474,
      "geocoding_level": 8,
      "phone": "0243-24-2411",
      "license_no": "2-135",
      "license_date": null,
      "expire_date": null
    },
    {
      "name": "香港苑",
      "name_kana": "",
      "business_type": "飲食店営業",
      "address": "二本松市若宮２丁目１５９－１１",
      "lat": 37.58944,
      "lng": 140.427423,
      "geocoding_level": 3,
      "phone": "0243-23-3640",
      "license_no": "2-167",
      "license_date": null,
      "expire_date": null
    },
    {
      "name": "株式会社まるいちフードセンター　智恵子の森店",
      "name_kana": "",
      "business_type": "飲食店営業",
      "address": "二本松市油井字荒井樋口２４－３",
      "lat": 37.584783,
      "lng": 140.431199,
      "geocoding_level": 2,
      "phone": "0243-22-0172",
      "license_no": "2-168",
      "license_date": null,
      "expire_date": null
    },
    {
      "name": "株式会社まるいちフードセンター　智恵子の森店",
      "name_kana": "",
      "business_type": "魚介類販売業",
      "address": "二本松市油井字荒井樋口２４－３",
      "lat": 37.584783,
      "lng": 140.431199,
      "geocoding_level": 2,
      "phone": "0243-22-0172",
      "license_no": "2-169",
      "license_date": null,
      "expire_date": null
    },
    {
      "name": "株式会社まるいちフードセンター　智恵子の森店",
      "name_kana": "",
      "business_type": "食肉販売業",
      "address": "二本松市油井字荒井樋口２４－３",
      "lat": 37.584783,
      "lng": 140.431199,
      "geocoding_level": 2,
      "phone": "0243-22-0172",
      "license_no": "2-170",
      "license_date": null,
      "expire_date": null
    },
    {
      "name": "スナックラーク",
      "name_kana": "",
      "business_type": "飲食店営業",
      "address": "二本松市本町２丁目１６５－３",
      "lat": 37.590623827,
      "lng": 140.437596688,
      "geocoding_level": 8,
      "phone": "0243-23-4323",
      "license_no": "2-171",
      "license_date": null,
      "expire_date": null
    },
    {
      "name": "有限会社まるひで",
      "name_kana": "",
      "business_type": "飲食店営業",
      "address": "二本松市木ノ崎２４７－３",
      "lat": 37.575901111,
      "lng": 140.466428091,
      "geocoding_level": 8,
      "phone": "0243-23-6603",
      "license_no": "2-292",
      "license_date": null,
      "expire_date": null
    },
    {
      "name": "有限会社まるひで",
      "name_kana": "",
      "business_type": "飲食店営業",
      "address": "二本松市木ノ崎２４７－３",
      "lat": 37.575901111,
      "lng": 140.466428091,
      "geocoding_level": 8,
      "phone": "0243-23-6603",
      "license_no": "2-257",
      "license_date": null,
      "expire_date": null
    },
    {
      "name": "ライオン菓子株式会社二本松工場",
      "name_kana": "",
      "business_type": "菓子製造業",
      "address": "二本松市安達ケ原１丁目３００",
      "lat": 37.584139696,
      "lng": 140.460916695,
      "geocoding_level": 8,
      "phone": "0243-23-1911",
      "license_no": "2-315",
      "license_date": null,
      "expire_date": null
    },
    {
      "name": "マドンナ",
      "name_kana": "",
      "business_type": "飲食店営業",
      "address": "二本松市小浜字新町２２",
      "lat": 37.561692437,
      "lng": 140.508221567,
      "geocoding_level": 8,
      "phone": "0243-55-3171",
      "license_no": "2-150",
      "license_date": null,
      "expire_date": null
    },
    {
      "name": "有限会社本家丹波屋",
      "name_kana": "",
      "business_type": "菓子製造業",
      "address": "二本松市根崎１丁目１２７－１",
      "lat": 37.598958867,
      "lng": 140.449129588,
      "geocoding_level": 8,
      "phone": "0243-22-0745",
      "license_no": "2-258",
      "license_date": null,
      "expire_date": null
    },
    {
      "name": "渡辺豆富店",
      "name_kana": "",
      "business_type": "飲食店営業",
      "address": "二本松市岳温泉１丁目１１３",
      "lat": 37.605865752,
      "lng": 140.356843617,
      "geocoding_level": 8,
      "phone": "0243-24-2711",
      "license_no": "2-142",
      "license_date": null,
      "expire_date": null
    },
    {
      "name": "渡辺豆富店",
      "name_kana": "",
      "business_type": "豆腐製造業",
      "address": "二本松市岳温泉１丁目１１３",
      "lat": 37.605865752,
      "lng": 140.356843617,
      "geocoding_level": 8,
      "phone": "0243-24-2711",
      "license_no": "2-259",
      "license_date": null,
      "expire_date": null
    },
    {
      "name": "ショッピングセンターいわしろ",
      "name_kana": "",
      "business_type": "飲食店営業",
      "address": "二本松市西勝田字立坂５７－２",
      "lat": 37.565765147,
      "lng": 140.501862537,
      "geocoding_level": 8,
      "phone": "0243-55-2211",
      "license_no": "2-143",
      "license_date": null,
      "expire_date": null
    },
    {
      "name": "ショッピングセンターいわしろ",
      "name_kana": "",
      "business_type": "魚介類販売業",
      "address": "二本松市西勝田字立坂５７－２",
      "lat": 37.565765147,
      "lng": 140.501862537,
      "geocoding_level": 8,
      "phone": "0243-55-2211",
      "license_no": "2-144",
      "license_date": null,
      "expire_date": null
    },
    {
      "name": "ショッピングセンターいわしろ",
      "name_kana": "",
      "business_type": "食肉販売業",
      "address": "二本松市西勝田字立坂５７－２",
      "lat": 37.565765147,
      "lng": 140.501862537,
      "geocoding_level": 8,
      "phone": "0243-55-2211",
      "license_no": "2-145",
      "license_date": null,
      "expire_date": null
    },
    {
      "name": "有限会社増田屋",
      "name_kana": "",
      "business_type": "あん類製造業",
      "address": "二本松市正法寺町２２８",
      "lat": 37.580315978,
      "lng": 140.41853408600002,
      "geocoding_level": 8,
      "phone": "0243-22-0852",
      "license_no": "2-163",
      "license_date": null,
      "expire_date": null
    },
    {
      "name": "有限会社増田屋",
      "name_kana": "",
      "business_type": "飲食店営業",
      "address": "二本松市正法寺町２２８",
      "lat": 37.580315978,
      "lng": 140.41853408600002,
      "geocoding_level": 8,
      "phone": "0243-22-0852",
      "license_no": "1-96",
      "license_date": null,
      "expire_date": null
    },
    {
      "name": "有限会社増田屋",
      "name_kana": "",
      "business_type": "菓子製造業",
      "address": "二本松市正法寺町２２８",
      "lat": 37.580315978,
      "lng": 140.41853408600002,
      "geocoding_level": 8,
      "phone": "0243-22-0852",
      "license_no": "2-260",
      "license_date": null,
      "expire_date": null
    },
    {
      "name": "有限会社クラブアリラン",
      "name_kana": "",
      "business_type": "飲食店営業",
      "address": "二本松市本町２丁目９１",
      "lat": 37.591030621,
      "lng": 140.437843766,
      "geocoding_level": 8,
      "phone": "0243-22-2009",
      "license_no": "2-146",
      "license_date": null,
      "expire_date": null
    },
    {
      "name": "割烹寿しかねすい真弓店",
      "name_kana": "",
      "business_type": "飲食店営業",
      "address": "二本松市本町２丁目１６９",
      "lat": 37.590463,
      "lng": 140.436135,
      "geocoding_level": 3,
      "phone": "0243-22-0058",
      "license_no": "2-164",
      "license_date": null,
      "expire_date": null
    },
    {
      "name": "陽日の郷あづま館",
      "name_kana": "",
      "business_type": "飲食店営業",
      "address": "二本松市岳温泉１丁目５",
      "lat": 37.607013073,
      "lng": 140.356151108,
      "geocoding_level": 8,
      "phone": "0243-24-2211",
      "license_no": "2-174",
      "license_date": null,
      "expire_date": null
    },
    {
      "name": "陽日の郷あづま館居酒屋一二",
      "name_kana": "",
      "business_type": "飲食店営業",
      "address": "二本松市岳温泉１丁目５",
      "lat": 37.607013073,
      "lng": 140.356151108,
      "geocoding_level": 8,
      "phone": "0243-24-2211",
      "license_no": "2-175",
      "license_date": null,
      "expire_date": null
    },
    {
      "name": "陽日の郷あづま館ラウンジ一二",
      "name_kana": "",
      "business_type": "飲食店営業",
      "address": "二本松市岳温泉１丁目５",
      "lat": 37.607013073,
      "lng": 140.356151108,
      "geocoding_level": 8,
      "phone": "0243-24-2211",
      "license_no": "2-176",
      "license_date": null,
      "expire_date": null
    },
    {
      "name": "陽日の郷あづま館カラオケカンタカンタ",
      "name_kana": "",
      "business_type": "飲食店営業",
      "address": "二本松市岳温泉１丁目５",
      "lat": 37.607013073,
      "lng": 140.356151108,
      "geocoding_level": 8,
      "phone": "0243-24-2211",
      "license_no": "2-147",
      "license_date": null,
      "expire_date": null
    },
    {
      "name": "ローソン二本松槻木店",
      "name_kana": "",
      "business_type": "飲食店営業",
      "address": "二本松市槻木１１７－４",
      "lat": 37.575779188,
      "lng": 140.421357967,
      "geocoding_level": 8,
      "phone": "0243-23-1383",
      "license_no": "2-149",
      "license_date": null,
      "expire_date": null
    },
    {
      "name": "菓子処豊田屋",
      "name_kana": "",
      "business_type": "菓子製造業",
      "address": "二本松市竹田２丁目１－１０",
      "lat": 37.600460306,
      "lng": 140.443253176,
      "geocoding_level": 8,
      "phone": "0243-22-0856",
      "license_no": "2-150",
      "license_date": null,
      "expire_date": null
    },
    {
      "name": "株式会社御菓子処日夏",
      "name_kana": "",
      "business_type": "菓子製造業",
      "address": "二本松市本町１丁目２０３",
      "lat": 37.593199,
      "lng": 140.436332,
      "geocoding_level": 3,
      "phone": "0243-22-0063",
      "license_no": "2-181",
      "license_date": null,
      "expire_date": null
    },
    {
      "name": "有限会社　智恵子の湯",
      "name_kana": "",
      "business_type": "飲食店営業",
      "address": "二本松市油井字八軒町８６",
      "lat": 37.603550349,
      "lng": 140.459148876,
      "geocoding_level": 8,
      "phone": "0243-23-1178",
      "license_no": "2-183",
      "license_date": null,
      "expire_date": null
    },
    {
      "name": "斎藤りんご園",
      "name_kana": "",
      "business_type": "清涼飲料水製造業",
      "address": "二本松市百目木字平１７５",
      "lat": 37.55006324,
      "lng": 140.615748492,
      "geocoding_level": 8,
      "phone": "0243-56-2135",
      "license_no": "2-136",
      "license_date": null,
      "expire_date": null
    },
    {
      "name": "有限会社増田屋",
      "name_kana": "",
      "business_type": "菓子製造業",
      "address": "二本松市正法寺町２３０－１",
      "lat": 37.580137865,
      "lng": 140.41824863000002,
      "geocoding_level": 8,
      "phone": "0243-22-0852",
      "license_no": "2-184",
      "license_date": null,
      "expire_date": null
    },
    {
      "name": "かねすい商店",
      "name_kana": "",
      "business_type": "飲食店営業",
      "address": "二本松市藤之前６１",
      "lat": 37.578181,
      "lng": 140.415247,
      "geocoding_level": 3,
      "phone": "0243-22-1462",
      "license_no": "2-168",
      "license_date": null,
      "expire_date": null
    },
    {
      "name": "かねすい商店",
      "name_kana": "",
      "business_type": "魚介類販売業",
      "address": "二本松市藤之前６１",
      "lat": 37.578181,
      "lng": 140.415247,
      "geocoding_level": 3,
      "phone": "0243-22-1462",
      "license_no": "2-169",
      "license_date": null,
      "expire_date": null
    },
    {
      "name": "株式会社糀屋",
      "name_kana": "",
      "business_type": "飲食店営業",
      "address": "二本松市亀谷１丁目５３",
      "lat": 37.592280316,
      "lng": 140.43972199,
      "geocoding_level": 8,
      "phone": "0243-23-0017",
      "license_no": "2-261",
      "license_date": null,
      "expire_date": null
    },
    {
      "name": "パン工房・ショプロン",
      "name_kana": "",
      "business_type": "菓子製造業",
      "address": "二本松市休石１４４－９",
      "lat": 37.628770166,
      "lng": 140.389328078,
      "geocoding_level": 8,
      "phone": "0243-22-8295",
      "license_no": "2-316",
      "license_date": null,
      "expire_date": null
    },
    {
      "name": "サウンドワールドグッピー",
      "name_kana": "",
      "business_type": "飲食店営業",
      "address": "二本松市太田字下田１４３－２",
      "lat": 37.567159817,
      "lng": 140.576491285,
      "geocoding_level": 8,
      "phone": "",
      "license_no": "2-151",
      "license_date": null,
      "expire_date": null
    },
    {
      "name": "佐藤物産",
      "name_kana": "",
      "business_type": "飲食店営業",
      "address": "二本松市岳温泉１丁目１４",
      "lat": 37.606170925,
      "lng": 140.357115656,
      "geocoding_level": 8,
      "phone": "0243-24-2504",
      "license_no": "2-262",
      "license_date": null,
      "expire_date": null
    },
    {
      "name": "二本松ドライブイン",
      "name_kana": "",
      "business_type": "飲食店営業",
      "address": "二本松市長命６０－２",
      "lat": 37.56007313,
      "lng": 140.407332925,
      "geocoding_level": 8,
      "phone": "0243-22-2735",
      "license_no": "2-263",
      "license_date": null,
      "expire_date": null
    },
    {
      "name": "高橋製麺所",
      "name_kana": "",
      "business_type": "麺類製造業",
      "address": "二本松市長命６０－２",
      "lat": 37.56007313,
      "lng": 140.407332925,
      "geocoding_level": 8,
      "phone": "0243-22-2735",
      "license_no": "2-264",
      "license_date": null,
      "expire_date": null
    },
    {
      "name": "平屋商店",
      "name_kana": "",
      "business_type": "菓子製造業",
      "address": "二本松市木幡字松木下５２",
      "lat": 37.584783,
      "lng": 140.431199,
      "geocoding_level": 2,
      "phone": "0243-46-2715",
      "license_no": "2-153",
      "license_date": null,
      "expire_date": null
    },
    {
      "name": "レストラン　オリーブ",
      "name_kana": "",
      "business_type": "飲食店営業",
      "address": "二本松市舟形石山１５－３",
      "lat": 37.572658202,
      "lng": 140.433380648,
      "geocoding_level": 8,
      "phone": "0243-22-8944",
      "license_no": "2-266",
      "license_date": null,
      "expire_date": null
    },
    {
      "name": "有限会社安達太良高原観光牧場",
      "name_kana": "",
      "business_type": "アイスクリーム類製造業",
      "address": "二本松市大関４２５",
      "lat": 37.627609,
      "lng": 140.352743,
      "geocoding_level": 3,
      "phone": "0243-24-3242",
      "license_no": "2-189",
      "license_date": null,
      "expire_date": null
    },
    {
      "name": "有限会社菓子処丸井",
      "name_kana": "",
      "business_type": "菓子製造業",
      "address": "二本松市岳温泉１丁目１２",
      "lat": 37.606339731,
      "lng": 140.356945032,
      "geocoding_level": 8,
      "phone": "0243-24-2410",
      "license_no": "2-154",
      "license_date": null,
      "expire_date": null
    },
    {
      "name": "有限会社木羽屋製粉",
      "name_kana": "",
      "business_type": "麺類製造業",
      "address": "二本松市針道字町１２３",
      "lat": 37.599649131,
      "lng": 140.577658768,
      "geocoding_level": 8,
      "phone": "0243-46-2608",
      "license_no": "2-317",
      "license_date": null,
      "expire_date": null
    },
    {
      "name": "レストラン　ランデブー",
      "name_kana": "",
      "business_type": "飲食店営業",
      "address": "二本松市永田字長坂国有林１３林班内",
      "lat": 37.584783,
      "lng": 140.431199,
      "geocoding_level": 2,
      "phone": "0243-24-2141",
      "license_no": "2-172",
      "license_date": null,
      "expire_date": null
    },
    {
      "name": "ぺんしょん「杜の泉」",
      "name_kana": "",
      "business_type": "飲食店営業",
      "address": "二本松市不動平３１－４",
      "lat": 37.641299769,
      "lng": 140.345969442,
      "geocoding_level": 8,
      "phone": "0243-24-3301",
      "license_no": "2-390",
      "license_date": null,
      "expire_date": null
    },
    {
      "name": "有限会社鮨富",
      "name_kana": "",
      "business_type": "飲食店営業",
      "address": "二本松市若宮２丁目１５９－１８",
      "lat": 37.58944,
      "lng": 140.427423,
      "geocoding_level": 3,
      "phone": "0243-22-2166",
      "license_no": "2-153",
      "license_date": null,
      "expire_date": null
    },
    {
      "name": "九頭見菓子舗",
      "name_kana": "",
      "business_type": "菓子製造業",
      "address": "二本松市安達ケ原２丁目７－３",
      "lat": 37.592708332,
      "lng": 140.464311205,
      "geocoding_level": 8,
      "phone": "0243-22-0080",
      "license_no": "2-173",
      "license_date": null,
      "expire_date": null
    },
    {
      "name": "ゆめのいえ",
      "name_kana": "",
      "business_type": "飲食店営業",
      "address": "二本松市岳温泉１丁目２６８",
      "lat": 37.605573487,
      "lng": 140.35741556,
      "geocoding_level": 8,
      "phone": "0243-24-2416",
      "license_no": "2-391",
      "license_date": null,
      "expire_date": null
    },
    {
      "name": "山栄食品株式会社福島工場",
      "name_kana": "",
      "business_type": "そうざい製造業",
      "address": "二本松市上川崎字上種田９９",
      "lat": 37.608611183,
      "lng": 140.48926788,
      "geocoding_level": 8,
      "phone": "0243-52-2340",
      "license_no": "2-157",
      "license_date": null,
      "expire_date": null
    },
    {
      "name": "山栄食品株式会社福島工場",
      "name_kana": "",
      "business_type": "冷凍食品製造業",
      "address": "二本松市上川崎字上種田９９",
      "lat": 37.608611183,
      "lng": 140.48926788,
      "geocoding_level": 8,
      "phone": "0243-52-2340",
      "license_no": "2-156",
      "license_date": null,
      "expire_date": null
    },
    {
      "name": "玉家玉振堂",
      "name_kana": "",
      "business_type": "菓子製造業",
      "address": "二本松市郭内１丁目６３－３",
      "lat": 37.599328275,
      "lng": 140.44245857500002,
      "geocoding_level": 8,
      "phone": "0243-22-3003",
      "license_no": "2-158",
      "license_date": null,
      "expire_date": null
    },
    {
      "name": "大藤食品",
      "name_kana": "",
      "business_type": "みそ又はしょうゆ製造業",
      "address": "二本松市下川崎字大中地４５",
      "lat": 37.584783,
      "lng": 140.431199,
      "geocoding_level": 2,
      "phone": "0243-52-2932",
      "license_no": "2-93",
      "license_date": null,
      "expire_date": null
    },
    {
      "name": "中島食品",
      "name_kana": "",
      "business_type": "みそ又はしょうゆ製造業",
      "address": "二本松市下川崎字中島９",
      "lat": 37.623879648,
      "lng": 140.511773591,
      "geocoding_level": 8,
      "phone": "0243-52-2920",
      "license_no": "2-94",
      "license_date": null,
      "expire_date": null
    },
    {
      "name": "みやぎ野",
      "name_kana": "",
      "business_type": "飲食店営業",
      "address": "二本松市本町２丁目１５０－４",
      "lat": 37.590894853,
      "lng": 140.4387086,
      "geocoding_level": 8,
      "phone": "024-323-6170",
      "license_no": "2-193",
      "license_date": null,
      "expire_date": null
    },
    {
      "name": "デニーズ二本松店",
      "name_kana": "",
      "business_type": "飲食店営業",
      "address": "二本松市大壇２－１",
      "lat": 37.588141376,
      "lng": 140.422568496,
      "geocoding_level": 8,
      "phone": "080-3459-2597",
      "license_no": "2-268",
      "license_date": null,
      "expire_date": null
    },
    {
      "name": "アール・グレイ",
      "name_kana": "",
      "business_type": "飲食店営業",
      "address": "二本松市本町２丁目１６４　ビュー・ビット２ＦＥ号",
      "lat": 37.590577192,
      "lng": 140.43773627,
      "geocoding_level": 8,
      "phone": "",
      "license_no": "2-197",
      "license_date": null,
      "expire_date": null
    },
    {
      "name": "あぶくま高原遊雲の里ファーム",
      "name_kana": "",
      "business_type": "そうざい製造業",
      "address": "二本松市太田字布沢２８２",
      "lat": 37.596915559,
      "lng": 140.551768582,
      "geocoding_level": 8,
      "phone": "0243-47-3434",
      "license_no": "2-168",
      "license_date": null,
      "expire_date": null
    },
    {
      "name": "スナックとわ",
      "name_kana": "",
      "business_type": "飲食店営業",
      "address": "二本松市本町２丁目１０４",
      "lat": 37.591087179000006,
      "lng": 140.438255713,
      "geocoding_level": 8,
      "phone": "0243-22-5519",
      "license_no": "2-198",
      "license_date": null,
      "expire_date": null
    },
    {
      "name": "やまのパン屋・しゃっぽ",
      "name_kana": "",
      "business_type": "飲食店営業",
      "address": "二本松市馬場平１４６－１４",
      "lat": 37.575070238,
      "lng": 140.351649468,
      "geocoding_level": 8,
      "phone": "0243-24-2888",
      "license_no": "2-169",
      "license_date": null,
      "expire_date": null
    },
    {
      "name": "やまのパン屋・しゃっぽ",
      "name_kana": "",
      "business_type": "菓子製造業",
      "address": "二本松市馬場平１４６－１４",
      "lat": 37.575070238,
      "lng": 140.351649468,
      "geocoding_level": 8,
      "phone": "0243-24-2888",
      "license_no": "2-170",
      "license_date": null,
      "expire_date": null
    },
    {
      "name": "エーム３５０５",
      "name_kana": "",
      "business_type": "飲食店営業",
      "address": "二本松市住吉１００（枡記念病院併設）",
      "lat": 37.554605,
      "lng": 140.405038,
      "geocoding_level": 3,
      "phone": "0243-22-3618",
      "license_no": "2-176",
      "license_date": null,
      "expire_date": null
    },
    {
      "name": "川崎屋",
      "name_kana": "",
      "business_type": "飲食店営業",
      "address": "二本松市針道字町５６",
      "lat": 37.600316729,
      "lng": 140.578011214,
      "geocoding_level": 8,
      "phone": "0243-46-2503",
      "license_no": "2-98",
      "license_date": null,
      "expire_date": null
    },
    {
      "name": "ＩＣＨＩＩ’ＳロシナンテＭＡＲＫＥＴ二本松店",
      "name_kana": "",
      "business_type": "飲食店営業",
      "address": "二本松市油井字鶴巻５０－３",
      "lat": 37.603857376,
      "lng": 140.44544532,
      "geocoding_level": 8,
      "phone": "0243-22-6456",
      "license_no": "2-141",
      "license_date": null,
      "expire_date": null
    },
    {
      "name": "ＩＣＨＩＩ’ＳロシナンテＭＡＲＫＥＴ二本松店",
      "name_kana": "",
      "business_type": "魚介類販売業",
      "address": "二本松市油井字鶴巻５０－３",
      "lat": 37.603857376,
      "lng": 140.44544532,
      "geocoding_level": 8,
      "phone": "0243-22-6456",
      "license_no": "2-142",
      "license_date": null,
      "expire_date": null
    },
    {
      "name": "ＩＣＨＩＩ’ＳロシナンテＭＡＲＫＥＴ二本松店",
      "name_kana": "",
      "business_type": "食肉販売業",
      "address": "二本松市油井字鶴巻５０－３",
      "lat": 37.603857376,
      "lng": 140.44544532,
      "geocoding_level": 8,
      "phone": "0243-22-6456",
      "license_no": "2-143",
      "license_date": null,
      "expire_date": null
    },
    {
      "name": "エビスサーキット東サロン",
      "name_kana": "",
      "business_type": "飲食店営業",
      "address": "二本松市沢松倉１",
      "lat": 37.640296,
      "lng": 140.369403,
      "geocoding_level": 3,
      "phone": "",
      "license_no": "2-157",
      "license_date": null,
      "expire_date": null
    },
    {
      "name": "二本松バイパスどさん子",
      "name_kana": "",
      "business_type": "飲食店営業",
      "address": "二本松市向作田３８－１",
      "lat": 37.583821741,
      "lng": 140.439829637,
      "geocoding_level": 8,
      "phone": "0243-23-7017",
      "license_no": "2-179",
      "license_date": null,
      "expire_date": null
    },
    {
      "name": "ＢＡＮＡＮＡ－ＢＡＲ",
      "name_kana": "",
      "business_type": "飲食店営業",
      "address": "二本松市本町２丁目９７－２",
      "lat": 37.590872496,
      "lng": 140.438118651,
      "geocoding_level": 8,
      "phone": "",
      "license_no": "2-296",
      "license_date": null,
      "expire_date": null
    },
    {
      "name": "優樹の森　ななかまど",
      "name_kana": "",
      "business_type": "飲食店営業",
      "address": "二本松市大関１２３－２１",
      "lat": 37.631253771,
      "lng": 140.347587981,
      "geocoding_level": 8,
      "phone": "0243-24-3039",
      "license_no": "2-144",
      "license_date": null,
      "expire_date": null
    },
    {
      "name": "こばやし",
      "name_kana": "",
      "business_type": "飲食店営業",
      "address": "二本松市根崎１丁目６８－４",
      "lat": 37.599074531,
      "lng": 140.446749958,
      "geocoding_level": 8,
      "phone": "0243-22-0054",
      "license_no": "2-297",
      "license_date": null,
      "expire_date": null
    },
    {
      "name": "こばやし",
      "name_kana": "",
      "business_type": "魚介類販売業",
      "address": "二本松市根崎１丁目６８－４",
      "lat": 37.599074531,
      "lng": 140.446749958,
      "geocoding_level": 8,
      "phone": "0243-22-0054",
      "license_no": "2-298",
      "license_date": null,
      "expire_date": null
    },
    {
      "name": "無想庵",
      "name_kana": "",
      "business_type": "飲食店営業",
      "address": "二本松市馬場平１００－２",
      "lat": 37.582212853,
      "lng": 140.351271071,
      "geocoding_level": 8,
      "phone": "0243-24-2461",
      "license_no": "2-392",
      "license_date": null,
      "expire_date": null
    },
    {
      "name": "ル・シエル",
      "name_kana": "",
      "business_type": "飲食店営業",
      "address": "二本松市西勝田字杉内３２８",
      "lat": 37.584783,
      "lng": 140.431199,
      "geocoding_level": 2,
      "phone": "0243-55-2416",
      "license_no": "2-200",
      "license_date": null,
      "expire_date": null
    },
    {
      "name": "二本松観光センター　隊士館",
      "name_kana": "",
      "business_type": "飲食店営業",
      "address": "二本松市成田町１丁目５２８",
      "lat": 37.592101,
      "lng": 140.419414,
      "geocoding_level": 3,
      "phone": "0243-22-0123",
      "license_no": "2-182",
      "license_date": null,
      "expire_date": null
    },
    {
      "name": "めん太郎二本松店",
      "name_kana": "",
      "business_type": "飲食店営業",
      "address": "二本松市中里３２５",
      "lat": 37.577112,
      "lng": 140.424164,
      "geocoding_level": 3,
      "phone": "070-1455-9032",
      "license_no": "2-183",
      "license_date": null,
      "expire_date": null
    },
    {
      "name": "風花",
      "name_kana": "",
      "business_type": "飲食店営業",
      "address": "二本松市大関４３８－７",
      "lat": 37.621327814,
      "lng": 140.360322533,
      "geocoding_level": 8,
      "phone": "0243-24-2965",
      "license_no": "2-201",
      "license_date": null,
      "expire_date": null
    },
    {
      "name": "サファリレストラン",
      "name_kana": "",
      "business_type": "飲食店営業",
      "address": "二本松市沢松倉１番地",
      "lat": 37.640296,
      "lng": 140.369403,
      "geocoding_level": 3,
      "phone": "0243-24-2336",
      "license_no": "2-145",
      "license_date": null,
      "expire_date": null
    },
    {
      "name": "倉さんとうふ　ビックゾー",
      "name_kana": "",
      "business_type": "豆腐製造業",
      "address": "二本松市針道字西ノ内１４８－１",
      "lat": 37.601442135,
      "lng": 140.574482622,
      "geocoding_level": 8,
      "phone": "0243-46-3305",
      "license_no": "2-100",
      "license_date": null,
      "expire_date": null
    },
    {
      "name": "セブンイレブン福島東和町店",
      "name_kana": "",
      "business_type": "飲食店営業",
      "address": "二本松市太田字下田８４－１",
      "lat": 37.567717985,
      "lng": 140.577949491,
      "geocoding_level": 8,
      "phone": "0243-46-2517",
      "license_no": "2-202",
      "license_date": null,
      "expire_date": null
    },
    {
      "name": "キッチンふくろう",
      "name_kana": "",
      "business_type": "飲食店営業",
      "address": "二本松市馬場平１０６－４２",
      "lat": 37.584521748,
      "lng": 140.349944797,
      "geocoding_level": 8,
      "phone": "0243-24-2272",
      "license_no": "2-180",
      "license_date": null,
      "expire_date": null
    },
    {
      "name": "ファームランドヤマロク",
      "name_kana": "",
      "business_type": "魚介類販売業",
      "address": "二本松市油井字福岡４３４",
      "lat": 37.584783,
      "lng": 140.431199,
      "geocoding_level": 2,
      "phone": "0243-62-8069",
      "license_no": "2-181",
      "license_date": null,
      "expire_date": null
    },
    {
      "name": "工房あのね",
      "name_kana": "",
      "business_type": "菓子製造業",
      "address": "二本松市太田字若宮５９－１",
      "lat": 37.592282099,
      "lng": 140.53770354,
      "geocoding_level": 8,
      "phone": "0243-47-3737",
      "license_no": "2-184",
      "license_date": null,
      "expire_date": null
    },
    {
      "name": "株式会社国際漢方研究所",
      "name_kana": "",
      "business_type": "清涼飲料水製造業",
      "address": "二本松市太田字寺沢２１番地１",
      "lat": 37.601108425,
      "lng": 140.51825616300002,
      "geocoding_level": 8,
      "phone": "0243-61-7011",
      "license_no": "2-203",
      "license_date": null,
      "expire_date": null
    },
    {
      "name": "株式会社国際漢方研究所",
      "name_kana": "",
      "business_type": "密封包装食品製造業",
      "address": "二本松市太田字寺沢２１番地１",
      "lat": 37.601108425,
      "lng": 140.51825616300002,
      "geocoding_level": 8,
      "phone": "0243-61-7011",
      "license_no": "2-185",
      "license_date": null,
      "expire_date": null
    },
    {
      "name": "飲み食い里　門前",
      "name_kana": "",
      "business_type": "飲食店営業",
      "address": "二本松市本町２丁目１５２－３",
      "lat": 37.590736695,
      "lng": 140.438167239,
      "geocoding_level": 8,
      "phone": "0243-23-8818",
      "license_no": "2-318",
      "license_date": null,
      "expire_date": null
    },
    {
      "name": "ＪＡ斎場あだたら",
      "name_kana": "",
      "business_type": "飲食店営業",
      "address": "二本松市杉田駄子内５６番地４",
      "lat": 37.569703,
      "lng": 140.4216,
      "geocoding_level": 3,
      "phone": "0243-22-1210",
      "license_no": "2-211",
      "license_date": null,
      "expire_date": null
    },
    {
      "name": "ライオン菓子（株）二本松工場",
      "name_kana": "",
      "business_type": "飲食店営業",
      "address": "二本松市安達ケ原１丁目３００",
      "lat": 37.584139696,
      "lng": 140.460916695,
      "geocoding_level": 8,
      "phone": "0243-23-1911",
      "license_no": "2-217",
      "license_date": null,
      "expire_date": null
    },
    {
      "name": "どんぐりハウス",
      "name_kana": "",
      "business_type": "菓子製造業",
      "address": "二本松市西新殿字宮ノ下８",
      "lat": 37.540381056,
      "lng": 140.571215372,
      "geocoding_level": 8,
      "phone": "0243-57-2440",
      "license_no": "2-101",
      "license_date": null,
      "expire_date": null
    },
    {
      "name": "二本松青年海外協力隊訓練所",
      "name_kana": "",
      "business_type": "飲食店営業",
      "address": "二本松市永田字長坂４－２",
      "lat": 37.584783,
      "lng": 140.431199,
      "geocoding_level": 2,
      "phone": "0243-61-1510",
      "license_no": "2-218",
      "license_date": null,
      "expire_date": null
    },
    {
      "name": "ローソン安達油井店",
      "name_kana": "",
      "business_type": "飲食店営業",
      "address": "二本松市油井字松葉山４０－７",
      "lat": 37.610636877,
      "lng": 140.471865601,
      "geocoding_level": 8,
      "phone": "0243-22-6790",
      "license_no": "2-220",
      "license_date": null,
      "expire_date": null
    },
    {
      "name": "手打ちそば家　あかま",
      "name_kana": "",
      "business_type": "飲食店営業",
      "address": "二本松市小浜字芳池２９－５",
      "lat": 37.556054436,
      "lng": 140.515686585,
      "geocoding_level": 8,
      "phone": "0243-55-2622",
      "license_no": "2-221",
      "license_date": null,
      "expire_date": null
    },
    {
      "name": "べる",
      "name_kana": "",
      "business_type": "飲食店営業",
      "address": "二本松市本町２丁目４６",
      "lat": 37.590463,
      "lng": 140.436135,
      "geocoding_level": 3,
      "phone": "0243-23-2299",
      "license_no": "2-223",
      "license_date": null,
      "expire_date": null
    },
    {
      "name": "カラオケまねきねこ二本松店",
      "name_kana": "",
      "business_type": "飲食店営業",
      "address": "二本松市槻木１１０番地の２",
      "lat": 37.576179774,
      "lng": 140.421642435,
      "geocoding_level": 8,
      "phone": "0243-23-3959",
      "license_no": "2-224",
      "license_date": null,
      "expire_date": null
    },
    {
      "name": "和料理と寿しの店　相生",
      "name_kana": "",
      "business_type": "飲食店営業",
      "address": "二本松市郭内１丁目１９５－１",
      "lat": 37.597087242,
      "lng": 140.436543844,
      "geocoding_level": 8,
      "phone": "0243-23-7021",
      "license_no": "2-225",
      "license_date": null,
      "expire_date": null
    },
    {
      "name": "大七酒造株式会社",
      "name_kana": "",
      "business_type": "飲食店営業",
      "address": "二本松市竹田１丁目６６",
      "lat": 37.597986,
      "lng": 140.444164,
      "geocoding_level": 3,
      "phone": "0243-23-0007",
      "license_no": "1-156",
      "license_date": null,
      "expire_date": null
    },
    {
      "name": "大七酒造株式会社",
      "name_kana": "",
      "business_type": "酒類製造業",
      "address": "二本松市竹田１丁目６６",
      "lat": 37.597986,
      "lng": 140.444164,
      "geocoding_level": 3,
      "phone": "0243-23-0007",
      "license_no": "2-271",
      "license_date": null,
      "expire_date": null
    },
    {
      "name": "上海点心大栄餃子房",
      "name_kana": "",
      "business_type": "飲食店営業",
      "address": "二本松市太田字下田２－３",
      "lat": 37.569873512,
      "lng": 140.577729321,
      "geocoding_level": 8,
      "phone": "0243-46-2999",
      "license_no": "2-161",
      "license_date": null,
      "expire_date": null
    },
    {
      "name": "空の庭",
      "name_kana": "",
      "business_type": "菓子製造業",
      "address": "二本松市岳温泉２丁目５６",
      "lat": 37.602176,
      "lng": 140.358478,
      "geocoding_level": 3,
      "phone": "0243-61-1837",
      "license_no": "2-192",
      "license_date": null,
      "expire_date": null
    },
    {
      "name": "空の庭",
      "name_kana": "",
      "business_type": "飲食店営業",
      "address": "二本松市岳温泉２丁目５６",
      "lat": 37.602176,
      "lng": 140.358478,
      "geocoding_level": 3,
      "phone": "0243-61-1837",
      "license_no": "2-155",
      "license_date": null,
      "expire_date": null
    },
    {
      "name": "空の庭",
      "name_kana": "",
      "business_type": "魚介類販売業",
      "address": "二本松市岳温泉２丁目５６",
      "lat": 37.602176,
      "lng": 140.358478,
      "geocoding_level": 3,
      "phone": "0243-61-1837",
      "license_no": "1-75",
      "license_date": null,
      "expire_date": null
    },
    {
      "name": "空の庭",
      "name_kana": "",
      "business_type": "食肉販売業",
      "address": "二本松市岳温泉２丁目５６",
      "lat": 37.602176,
      "lng": 140.358478,
      "geocoding_level": 3,
      "phone": "0243-61-1837",
      "license_no": "1-74",
      "license_date": null,
      "expire_date": null
    },
    {
      "name": "菊地果樹園",
      "name_kana": "",
      "business_type": "菓子製造業",
      "address": "二本松市東新殿字祈祷堂内６",
      "lat": 37.529364529,
      "lng": 140.594523626,
      "geocoding_level": 8,
      "phone": "0243-56-2205",
      "license_no": "2-188",
      "license_date": null,
      "expire_date": null
    },
    {
      "name": "菊地果樹園",
      "name_kana": "",
      "business_type": "漬物製造業",
      "address": "二本松市東新殿字祈祷堂内６",
      "lat": 37.529364529,
      "lng": 140.594523626,
      "geocoding_level": 8,
      "phone": "0243-56-2205",
      "license_no": "1-72",
      "license_date": null,
      "expire_date": null
    },
    {
      "name": "東和　季の子工房",
      "name_kana": "",
      "business_type": "飲食店営業",
      "address": "二本松市太田字一本松７",
      "lat": 37.557039882000005,
      "lng": 140.569608081,
      "geocoding_level": 8,
      "phone": "0243-46-2166",
      "license_no": "2-162",
      "license_date": null,
      "expire_date": null
    },
    {
      "name": "東和　季の子工房",
      "name_kana": "",
      "business_type": "菓子製造業",
      "address": "二本松市太田字一本松７",
      "lat": 37.557039882000005,
      "lng": 140.569608081,
      "geocoding_level": 8,
      "phone": "0243-46-2166",
      "license_no": "2-163",
      "license_date": null,
      "expire_date": null
    },
    {
      "name": "東和　季の子工房",
      "name_kana": "",
      "business_type": "密封包装食品製造業",
      "address": "二本松市太田字一本松７",
      "lat": 37.557039882000005,
      "lng": 140.569608081,
      "geocoding_level": 8,
      "phone": "0243-46-2166",
      "license_no": "2-189",
      "license_date": null,
      "expire_date": null
    },
    {
      "name": "ミニストップ二本松向原店",
      "name_kana": "",
      "business_type": "飲食店営業",
      "address": "二本松市向原９８－９",
      "lat": 37.584708244,
      "lng": 140.424571808,
      "geocoding_level": 8,
      "phone": "0243-23-7870",
      "license_no": "2-273",
      "license_date": null,
      "expire_date": null
    },
    {
      "name": "よろずや",
      "name_kana": "",
      "business_type": "飲食店営業",
      "address": "二本松市岳温泉１丁目１０７",
      "lat": 37.60605451,
      "lng": 140.35627980000004,
      "geocoding_level": 8,
      "phone": "0243-24-2645",
      "license_no": "2-274",
      "license_date": null,
      "expire_date": null
    },
    {
      "name": "かっぱ",
      "name_kana": "",
      "business_type": "飲食店営業",
      "address": "二本松市若宮１丁目３４２－３",
      "lat": 37.590766572,
      "lng": 140.42917317700002,
      "geocoding_level": 8,
      "phone": "0243-22-6868",
      "license_no": "2-275",
      "license_date": null,
      "expire_date": null
    },
    {
      "name": "くいもの　Ｂａｒ　ＴＥＮ",
      "name_kana": "",
      "business_type": "飲食店営業",
      "address": "二本松市本町２丁目２０１　田中ビル２Ｆ",
      "lat": 37.590342291,
      "lng": 140.435287703,
      "geocoding_level": 8,
      "phone": "0243-23-7717",
      "license_no": "2-276",
      "license_date": null,
      "expire_date": null
    },
    {
      "name": "パブ　アクセス",
      "name_kana": "",
      "business_type": "飲食店営業",
      "address": "二本松市本町２丁目２０１　田中ビル３Ｆ",
      "lat": 37.590342291,
      "lng": 140.435287703,
      "geocoding_level": 8,
      "phone": "0243-22-8036",
      "license_no": "2-277",
      "license_date": null,
      "expire_date": null
    },
    {
      "name": "多来福",
      "name_kana": "",
      "business_type": "飲食店営業",
      "address": "二本松市榎戸１丁目３９９",
      "lat": 37.59356600000001,
      "lng": 140.450063,
      "geocoding_level": 3,
      "phone": "0243-22-5767",
      "license_no": "2-278",
      "license_date": null,
      "expire_date": null
    },
    {
      "name": "うらまち末廣",
      "name_kana": "",
      "business_type": "飲食店営業",
      "address": "二本松市針道字戸ノ内２４",
      "lat": 37.584783,
      "lng": 140.431199,
      "geocoding_level": 2,
      "phone": "0243-46-2522",
      "license_no": "2-103",
      "license_date": null,
      "expire_date": null
    },
    {
      "name": "居酒屋　秀",
      "name_kana": "",
      "business_type": "飲食店営業",
      "address": "二本松市亀谷１丁目２５９－２",
      "lat": 37.591386324,
      "lng": 140.44053846,
      "geocoding_level": 8,
      "phone": "0243-23-5392",
      "license_no": "2-279",
      "license_date": null,
      "expire_date": null
    },
    {
      "name": "株式会社ホテル光雲閣　寿楽亭",
      "name_kana": "",
      "business_type": "飲食店営業",
      "address": "二本松市岳温泉１丁目８５",
      "lat": 37.607761705,
      "lng": 140.352477373,
      "geocoding_level": 8,
      "phone": "0243-24-2101",
      "license_no": "2-280",
      "license_date": null,
      "expire_date": null
    },
    {
      "name": "丸宗商店",
      "name_kana": "",
      "business_type": "飲食店営業",
      "address": "二本松市本町２丁目２５",
      "lat": 37.590734868,
      "lng": 140.434150462,
      "geocoding_level": 8,
      "phone": "0243-23-0064",
      "license_no": "2-281",
      "license_date": null,
      "expire_date": null
    },
    {
      "name": "丸宗商店",
      "name_kana": "",
      "business_type": "魚介類販売業",
      "address": "二本松市本町２丁目２５",
      "lat": 37.590734868,
      "lng": 140.434150462,
      "geocoding_level": 8,
      "phone": "0243-23-0064",
      "license_no": "2-282",
      "license_date": null,
      "expire_date": null
    },
    {
      "name": "道の駅　ふくしま東和",
      "name_kana": "",
      "business_type": "菓子製造業",
      "address": "二本松市太田字下田２－３",
      "lat": 37.569873512,
      "lng": 140.577729321,
      "geocoding_level": 8,
      "phone": "0243-46-2113",
      "license_no": "2-197",
      "license_date": null,
      "expire_date": null
    },
    {
      "name": "道の駅　ふくしま東和",
      "name_kana": "",
      "business_type": "ソース類製造業",
      "address": "二本松市太田字下田２－３",
      "lat": 37.569873512,
      "lng": 140.577729321,
      "geocoding_level": 8,
      "phone": "0243-46-2113",
      "license_no": "2-198",
      "license_date": null,
      "expire_date": null
    },
    {
      "name": "道の駅　ふくしま東和",
      "name_kana": "",
      "business_type": "飲食店営業",
      "address": "二本松市太田字下田２－３",
      "lat": 37.569873512,
      "lng": 140.577729321,
      "geocoding_level": 8,
      "phone": "0243-46-2113",
      "license_no": "2-226",
      "license_date": null,
      "expire_date": null
    },
    {
      "name": "道の駅　ふくしま東和",
      "name_kana": "",
      "business_type": "アイスクリーム類製造業",
      "address": "二本松市太田字下田２－３",
      "lat": 37.569873512,
      "lng": 140.577729321,
      "geocoding_level": 8,
      "phone": "0243-46-2113",
      "license_no": "2-172",
      "license_date": null,
      "expire_date": null
    },
    {
      "name": "道の駅　ふくしま東和",
      "name_kana": "",
      "business_type": "そうざい製造業",
      "address": "二本松市太田字下田２－３",
      "lat": 37.569873512,
      "lng": 140.577729321,
      "geocoding_level": 8,
      "phone": "0243-46-2113",
      "license_no": "2-173",
      "license_date": null,
      "expire_date": null
    },
    {
      "name": "道の駅　ふくしま東和",
      "name_kana": "",
      "business_type": "漬物製造業",
      "address": "二本松市太田字下田２－３",
      "lat": 37.569873512,
      "lng": 140.577729321,
      "geocoding_level": 8,
      "phone": "0243-46-2113",
      "license_no": "1-26",
      "license_date": null,
      "expire_date": null
    },
    {
      "name": "道の駅　ふくしま東和",
      "name_kana": "",
      "business_type": "密封包装食品製造業",
      "address": "二本松市太田字下田２－３",
      "lat": 37.569873512,
      "lng": 140.577729321,
      "geocoding_level": 8,
      "phone": "0243-46-2113",
      "license_no": "2-171",
      "license_date": null,
      "expire_date": null
    },
    {
      "name": "ココニィール",
      "name_kana": "",
      "business_type": "飲食店営業",
      "address": "二本松市本町１丁目２１８　ＩＴＯビル２Ｆ",
      "lat": 37.591966653,
      "lng": 140.43853872,
      "geocoding_level": 8,
      "phone": "0243-23-4822",
      "license_no": "2-319",
      "license_date": null,
      "expire_date": null
    },
    {
      "name": "勝野屋",
      "name_kana": "",
      "business_type": "菓子製造業",
      "address": "二本松市郭内１丁目１３５",
      "lat": 37.597354371,
      "lng": 140.441201679,
      "geocoding_level": 8,
      "phone": "0243-23-6082",
      "license_no": "2-393",
      "license_date": null,
      "expire_date": null
    },
    {
      "name": "花かんざし",
      "name_kana": "",
      "business_type": "飲食店営業",
      "address": "二本松市岳温泉１丁目１０４",
      "lat": 37.606230208,
      "lng": 140.355848088,
      "geocoding_level": 8,
      "phone": "0243-24-2119",
      "license_no": "2-174",
      "license_date": null,
      "expire_date": null
    },
    {
      "name": "花かんざし",
      "name_kana": "",
      "business_type": "飲食店営業",
      "address": "二本松市岳温泉１丁目１０４",
      "lat": 37.606230208,
      "lng": 140.355848088,
      "geocoding_level": 8,
      "phone": "0243-24-2119",
      "license_no": "2-175",
      "license_date": null,
      "expire_date": null
    },
    {
      "name": "ドトールコーヒーショップ二本松みどり書房店",
      "name_kana": "",
      "business_type": "飲食店営業",
      "address": "二本松市油井字福岡１３３－１",
      "lat": 37.614342385,
      "lng": 140.462275573,
      "geocoding_level": 8,
      "phone": "0243-22-8692",
      "license_no": "2-176",
      "license_date": null,
      "expire_date": null
    },
    {
      "name": "有限会社二本松製菓玉川屋",
      "name_kana": "",
      "business_type": "菓子製造業",
      "address": "二本松市若宮１丁目３５３",
      "lat": 37.593198,
      "lng": 140.427541,
      "geocoding_level": 3,
      "phone": "0243-22-0640",
      "license_no": "2-320",
      "license_date": null,
      "expire_date": null
    },
    {
      "name": "セブンイレブン二本松駅前店",
      "name_kana": "",
      "business_type": "飲食店営業",
      "address": "二本松市本町２丁目２３３－７",
      "lat": 37.589880346,
      "lng": 140.434612508,
      "geocoding_level": 8,
      "phone": "0243-22-0334",
      "license_no": "2-321",
      "license_date": null,
      "expire_date": null
    },
    {
      "name": "松印二本松青果水産",
      "name_kana": "",
      "business_type": "魚介類競り売り営業",
      "address": "二本松市中里６７－１",
      "lat": 37.578786321,
      "lng": 140.424404956,
      "geocoding_level": 8,
      "phone": "0243-23-3300",
      "license_no": "2-322",
      "license_date": null,
      "expire_date": null
    },
    {
      "name": "食事処いこい",
      "name_kana": "",
      "business_type": "飲食店営業",
      "address": "二本松市小浜字鳥居町５５－２",
      "lat": 37.560892336,
      "lng": 140.508463838,
      "geocoding_level": 8,
      "phone": "0243-55-3180",
      "license_no": "2-177",
      "license_date": null,
      "expire_date": null
    },
    {
      "name": "うなぎの半沢",
      "name_kana": "",
      "business_type": "飲食店営業",
      "address": "二本松市本町２丁目１８７",
      "lat": 37.590463,
      "lng": 140.436135,
      "geocoding_level": 3,
      "phone": "0243-22-0167",
      "license_no": "2-323",
      "license_date": null,
      "expire_date": null
    },
    {
      "name": "花月堂花屋",
      "name_kana": "",
      "business_type": "菓子製造業",
      "address": "二本松市竹田２丁目７－７",
      "lat": 37.60125422,
      "lng": 140.443481592,
      "geocoding_level": 8,
      "phone": "0243-22-0748",
      "license_no": "2-178",
      "license_date": null,
      "expire_date": null
    },
    {
      "name": "シャルマン",
      "name_kana": "",
      "business_type": "飲食店営業",
      "address": "二本松市本町２丁目１４２－１",
      "lat": 37.590914221,
      "lng": 140.43947392700002,
      "geocoding_level": 8,
      "phone": "0243-22-0891",
      "license_no": "2-324",
      "license_date": null,
      "expire_date": null
    },
    {
      "name": "有限会社岡田屋製麺工場",
      "name_kana": "",
      "business_type": "麺類製造業",
      "address": "二本松市若宮１丁目１９０",
      "lat": 37.591871435,
      "lng": 140.428892531,
      "geocoding_level": 8,
      "phone": "0243-22-0578",
      "license_no": "2-325",
      "license_date": null,
      "expire_date": null
    },
    {
      "name": "お台所ＳＨＡＮＴＩ",
      "name_kana": "",
      "business_type": "飲食店営業",
      "address": "二本松市松岡１３７",
      "lat": 37.591751297,
      "lng": 140.430823777,
      "geocoding_level": 8,
      "phone": "0243-22-7294",
      "license_no": "2-326",
      "license_date": null,
      "expire_date": null
    },
    {
      "name": "手づくり餅　餅工房　おがた",
      "name_kana": "",
      "business_type": "飲食店営業",
      "address": "二本松市米沢字小林５",
      "lat": 37.584783,
      "lng": 140.431199,
      "geocoding_level": 2,
      "phone": "0243-24-1552",
      "license_no": "2-179",
      "license_date": null,
      "expire_date": null
    },
    {
      "name": "手づくり餅　餅工房　おがた",
      "name_kana": "",
      "business_type": "菓子製造業",
      "address": "二本松市米沢字小林５",
      "lat": 37.584783,
      "lng": 140.431199,
      "geocoding_level": 2,
      "phone": "0243-24-1552",
      "license_no": "2-180",
      "license_date": null,
      "expire_date": null
    },
    {
      "name": "ＪＡ斎場ゆい",
      "name_kana": "",
      "business_type": "飲食店営業",
      "address": "二本松市油井字八軒町２４",
      "lat": 37.584783,
      "lng": 140.431199,
      "geocoding_level": 2,
      "phone": "0243-62-2771",
      "license_no": "2-157",
      "license_date": null,
      "expire_date": null
    },
    {
      "name": "旅館　大宗",
      "name_kana": "",
      "business_type": "飲食店営業",
      "address": "二本松市本町２丁目２３９",
      "lat": 37.590463,
      "lng": 140.436135,
      "geocoding_level": 3,
      "phone": "0243-23-0101",
      "license_no": "2-299",
      "license_date": null,
      "expire_date": null
    },
    {
      "name": "株式会社たなつものカンパニー",
      "name_kana": "",
      "business_type": "食用油脂製造業",
      "address": "二本松市安達ケ原５丁目２５４－１２",
      "lat": 37.588843669,
      "lng": 140.467732209,
      "geocoding_level": 8,
      "phone": "0243-62-2201",
      "license_no": "2-104",
      "license_date": null,
      "expire_date": null
    },
    {
      "name": "ホテルシャルム",
      "name_kana": "",
      "business_type": "飲食店営業",
      "address": "二本松市渋川字羽黒山３３",
      "lat": 37.636941331,
      "lng": 140.465462877,
      "geocoding_level": 8,
      "phone": "0243-54-2922",
      "license_no": "2-158",
      "license_date": null,
      "expire_date": null
    },
    {
      "name": "さがみメモリアル斎場二本松",
      "name_kana": "",
      "business_type": "飲食店営業",
      "address": "二本松市大壇１９７－２",
      "lat": 37.585579583,
      "lng": 140.422046748,
      "geocoding_level": 8,
      "phone": "0243-22-8194",
      "license_no": "2-300",
      "license_date": null,
      "expire_date": null
    },
    {
      "name": "ラポートあだち",
      "name_kana": "",
      "business_type": "飲食店営業",
      "address": "二本松市油井字濡石１６",
      "lat": 37.584783,
      "lng": 140.431199,
      "geocoding_level": 2,
      "phone": "0243-23-5250",
      "license_no": "2-159",
      "license_date": null,
      "expire_date": null
    },
    {
      "name": "酒菜・そば厨房　咲くら",
      "name_kana": "",
      "business_type": "飲食店営業",
      "address": "二本松市若宮２丁目２０１－２",
      "lat": 37.590087583,
      "lng": 140.428710164,
      "geocoding_level": 8,
      "phone": "0243-22-0962",
      "license_no": "2-301",
      "license_date": null,
      "expire_date": null
    },
    {
      "name": "山栄食品株式会社　福島第２工場",
      "name_kana": "",
      "business_type": "食品の冷凍又は冷蔵業",
      "address": "二本松市上川崎字上種田１１４",
      "lat": 37.607892138,
      "lng": 140.489316116,
      "geocoding_level": 8,
      "phone": "0243-52-2340",
      "license_no": "2-199",
      "license_date": null,
      "expire_date": null
    },
    {
      "name": "山栄食品株式会社　福島第２工場",
      "name_kana": "",
      "business_type": "食肉処理業",
      "address": "二本松市上川崎字上種田１１４",
      "lat": 37.607892138,
      "lng": 140.489316116,
      "geocoding_level": 8,
      "phone": "0243-52-2340",
      "license_no": "2-200",
      "license_date": null,
      "expire_date": null
    },
    {
      "name": "山栄食品株式会社　福島第２工場",
      "name_kana": "",
      "business_type": "そうざい製造業",
      "address": "二本松市上川崎字上種田１１４",
      "lat": 37.607892138,
      "lng": 140.489316116,
      "geocoding_level": 8,
      "phone": "0243-52-2340",
      "license_no": "1-170",
      "license_date": null,
      "expire_date": null
    },
    {
      "name": "メモリィ",
      "name_kana": "",
      "business_type": "飲食店営業",
      "address": "二本松市本町２丁目３３",
      "lat": 37.59038563,
      "lng": 140.434626019,
      "geocoding_level": 8,
      "phone": "0243-23-0153",
      "license_no": "2-302",
      "license_date": null,
      "expire_date": null
    },
    {
      "name": "焼酎ダイニング　ちゃらんぽらん",
      "name_kana": "",
      "business_type": "飲食店営業",
      "address": "二本松市郭内１丁目２５－２",
      "lat": 37.598300129,
      "lng": 140.439408326,
      "geocoding_level": 8,
      "phone": "0243-22-5524",
      "license_no": "2-303",
      "license_date": null,
      "expire_date": null
    },
    {
      "name": "スナック　美沙",
      "name_kana": "",
      "business_type": "飲食店営業",
      "address": "二本松市本町２丁目１８３",
      "lat": 37.590463,
      "lng": 140.436135,
      "geocoding_level": 3,
      "phone": "0243-23-7646",
      "license_no": "2-394",
      "license_date": null,
      "expire_date": null
    },
    {
      "name": "もりや食堂",
      "name_kana": "",
      "business_type": "飲食店営業",
      "address": "二本松市根崎１丁目１５８－３",
      "lat": 37.598955308,
      "lng": 140.450112127,
      "geocoding_level": 8,
      "phone": "0243-22-1786",
      "license_no": "2-304",
      "license_date": null,
      "expire_date": null
    },
    {
      "name": "和風スナック都（みや）",
      "name_kana": "",
      "business_type": "飲食店営業",
      "address": "二本松市本町２丁目１４３－４",
      "lat": 37.590970946,
      "lng": 140.439116625,
      "geocoding_level": 8,
      "phone": "0243-22-4886",
      "license_no": "2-305",
      "license_date": null,
      "expire_date": null
    },
    {
      "name": "しょうや",
      "name_kana": "",
      "business_type": "飲食店営業",
      "address": "二本松市若宮１丁目３８０",
      "lat": 37.591453551,
      "lng": 140.430620812,
      "geocoding_level": 8,
      "phone": "0243-22-3709",
      "license_no": "2-306",
      "license_date": null,
      "expire_date": null
    },
    {
      "name": "アーバンホテル",
      "name_kana": "",
      "business_type": "飲食店営業",
      "address": "二本松市本町２丁目５０番地",
      "lat": 37.590519377,
      "lng": 140.435345571,
      "geocoding_level": 8,
      "phone": "0243-22-8337",
      "license_no": "2-307",
      "license_date": null,
      "expire_date": null
    },
    {
      "name": "アーバンホテル",
      "name_kana": "",
      "business_type": "そうざい製造業",
      "address": "二本松市本町２丁目５０番地",
      "lat": 37.590519377,
      "lng": 140.435345571,
      "geocoding_level": 8,
      "phone": "0243-22-8337",
      "license_no": "2-327",
      "license_date": null,
      "expire_date": null
    },
    {
      "name": "青い鳥",
      "name_kana": "",
      "business_type": "飲食店営業",
      "address": "二本松市竹田１丁目１７",
      "lat": 37.597986,
      "lng": 140.444164,
      "geocoding_level": 3,
      "phone": "0243-23-4023",
      "license_no": "2-395",
      "license_date": null,
      "expire_date": null
    },
    {
      "name": "岩井屋",
      "name_kana": "",
      "business_type": "菓子製造業",
      "address": "二本松市下川崎字上平３３－１",
      "lat": 37.635476217,
      "lng": 140.483355912,
      "geocoding_level": 8,
      "phone": "0243-61-3100",
      "license_no": "2-160",
      "license_date": null,
      "expire_date": null
    },
    {
      "name": "鮨若",
      "name_kana": "",
      "business_type": "飲食店営業",
      "address": "二本松市若宮１丁目２７０",
      "lat": 37.591885831,
      "lng": 140.427251586,
      "geocoding_level": 8,
      "phone": "0243-22-2633",
      "license_no": "2-203",
      "license_date": null,
      "expire_date": null
    },
    {
      "name": "スナックみつこ",
      "name_kana": "",
      "business_type": "飲食店営業",
      "address": "二本松市本町２丁目９７",
      "lat": 37.590463,
      "lng": 140.436135,
      "geocoding_level": 3,
      "phone": "0243-23-4843",
      "license_no": "2-309",
      "license_date": null,
      "expire_date": null
    },
    {
      "name": "ふぅふぅ亭",
      "name_kana": "",
      "business_type": "飲食店営業",
      "address": "二本松市本町２丁目１４２－３０",
      "lat": 37.591017784,
      "lng": 140.439375245,
      "geocoding_level": 8,
      "phone": "0243-23-2853",
      "license_no": "2-210",
      "license_date": null,
      "expire_date": null
    },
    {
      "name": "（有）井上商店",
      "name_kana": "",
      "business_type": "菓子製造業",
      "address": "二本松市若宮２丁目１６４番地の１８",
      "lat": 37.58944,
      "lng": 140.427423,
      "geocoding_level": 3,
      "phone": "0243-23-5858",
      "license_no": "2-212",
      "license_date": null,
      "expire_date": null
    },
    {
      "name": "（有）井上商店",
      "name_kana": "",
      "business_type": "あん類製造業",
      "address": "二本松市若宮２丁目１６４番地の１８",
      "lat": 37.58944,
      "lng": 140.427423,
      "geocoding_level": 3,
      "phone": "0243-23-5858",
      "license_no": "2-214",
      "license_date": null,
      "expire_date": null
    },
    {
      "name": "（有）井上商店",
      "name_kana": "",
      "business_type": "飲食店営業",
      "address": "二本松市若宮２丁目１６４番地の１８",
      "lat": 37.58944,
      "lng": 140.427423,
      "geocoding_level": 3,
      "phone": "0243-23-5858",
      "license_no": "2-310",
      "license_date": null,
      "expire_date": null
    },
    {
      "name": "イタリアンダイニング　バッカナーレ",
      "name_kana": "",
      "business_type": "飲食店営業",
      "address": "二本松市本町２丁目１６７－５",
      "lat": 37.590279295,
      "lng": 140.437721932,
      "geocoding_level": 8,
      "phone": "0243-23-4563",
      "license_no": "2-220",
      "license_date": null,
      "expire_date": null
    },
    {
      "name": "エームＳＪ　１５８２",
      "name_kana": "",
      "business_type": "飲食店営業",
      "address": "二本松市高田１００番地",
      "lat": 37.580524621,
      "lng": 140.44523579,
      "geocoding_level": 8,
      "phone": "0243-22-9350",
      "license_no": "2-221",
      "license_date": null,
      "expire_date": null
    },
    {
      "name": "エームＳＪ　１５８２（寮）",
      "name_kana": "",
      "business_type": "飲食店営業",
      "address": "二本松市郭内２丁目２２１番地",
      "lat": 37.600708,
      "lng": 140.438165,
      "geocoding_level": 3,
      "phone": "0243-22-9350",
      "license_no": "2-222",
      "license_date": null,
      "expire_date": null
    },
    {
      "name": "エームＳＪ　３５３６",
      "name_kana": "",
      "business_type": "飲食店営業",
      "address": "二本松市上葉木坂２番地３　特別養護老人ホームうつくしの丘内",
      "lat": 37.616591505,
      "lng": 140.37661728900002,
      "geocoding_level": 8,
      "phone": "0243-61-1412",
      "license_no": "2-223",
      "license_date": null,
      "expire_date": null
    },
    {
      "name": "鏡が池碧山亭",
      "name_kana": "",
      "business_type": "飲食店営業",
      "address": "二本松市岳温泉２丁目１３番地",
      "lat": 37.602176,
      "lng": 140.358478,
      "geocoding_level": 3,
      "phone": "0243-24-2008",
      "license_no": "2-224",
      "license_date": null,
      "expire_date": null
    },
    {
      "name": "介護老人保健施設あだたら",
      "name_kana": "",
      "business_type": "飲食店営業",
      "address": "二本松市油井字戸ノ内２１－１",
      "lat": 37.614482658,
      "lng": 140.464025552,
      "geocoding_level": 8,
      "phone": "0243-22-9245",
      "license_no": "2-196",
      "license_date": null,
      "expire_date": null
    },
    {
      "name": "クラブ　キーボード",
      "name_kana": "",
      "business_type": "飲食店営業",
      "address": "二本松市本町２丁目９７－２",
      "lat": 37.590872496,
      "lng": 140.438118651,
      "geocoding_level": 8,
      "phone": "0243-22-9168",
      "license_no": "2-197",
      "license_date": null,
      "expire_date": null
    },
    {
      "name": "かわせ",
      "name_kana": "",
      "business_type": "飲食店営業",
      "address": "二本松市本町２丁目２０１田中ビル１Ｆ",
      "lat": 37.590342291,
      "lng": 140.435287703,
      "geocoding_level": 8,
      "phone": "0243-22-6233",
      "license_no": "2-198",
      "license_date": null,
      "expire_date": null
    },
    {
      "name": "かわせ",
      "name_kana": "",
      "business_type": "魚介類販売業",
      "address": "二本松市本町２丁目２０１田中ビル１Ｆ",
      "lat": 37.590342291,
      "lng": 140.435287703,
      "geocoding_level": 8,
      "phone": "0243-22-6233",
      "license_no": "1-26",
      "license_date": null,
      "expire_date": null
    },
    {
      "name": "イベント屋台",
      "name_kana": "",
      "business_type": "飲食店営業",
      "address": "二本松市安達ケ原４丁目１００番地",
      "lat": 37.595566862,
      "lng": 140.464582684,
      "geocoding_level": 8,
      "phone": "0243-22-7474",
      "license_no": "2-329",
      "license_date": null,
      "expire_date": null
    },
    {
      "name": "和風寿し居酒屋　ゆたか",
      "name_kana": "",
      "business_type": "飲食店営業",
      "address": "二本松市上竹１丁目３９５－１",
      "lat": 37.585305284,
      "lng": 140.44817325,
      "geocoding_level": 8,
      "phone": "0243-23-4056",
      "license_no": "2-230",
      "license_date": null,
      "expire_date": null
    },
    {
      "name": "ミンズヤード",
      "name_kana": "",
      "business_type": "飲食店営業",
      "address": "二本松市馬場平１２７－２",
      "lat": 37.577692366,
      "lng": 140.351251571,
      "geocoding_level": 8,
      "phone": "0243-24-3156",
      "license_no": "2-181",
      "license_date": null,
      "expire_date": null
    },
    {
      "name": "花恋",
      "name_kana": "",
      "business_type": "飲食店営業",
      "address": "二本松市本町２丁目１７７　２階Ｃ",
      "lat": 37.59045748900001,
      "lng": 140.436951013,
      "geocoding_level": 8,
      "phone": "0243-23-5925",
      "license_no": "2-203",
      "license_date": null,
      "expire_date": null
    },
    {
      "name": "海鮮炭焼　和味家",
      "name_kana": "",
      "business_type": "飲食店営業",
      "address": "二本松市若宮２丁目１５１番地１",
      "lat": 37.58944,
      "lng": 140.427423,
      "geocoding_level": 3,
      "phone": "0243-22-1456",
      "license_no": "2-206",
      "license_date": null,
      "expire_date": null
    },
    {
      "name": "ファミリィカフェ笑びぃ",
      "name_kana": "",
      "business_type": "飲食店営業",
      "address": "二本松市本町２丁目４３",
      "lat": 37.59066906,
      "lng": 140.434912933,
      "geocoding_level": 8,
      "phone": "0243-22-3922",
      "license_no": "2-208",
      "license_date": null,
      "expire_date": null
    },
    {
      "name": "なごみ",
      "name_kana": "",
      "business_type": "飲食店営業",
      "address": "二本松市渋川字大森越１２２",
      "lat": 37.611627581,
      "lng": 140.471990127,
      "geocoding_level": 8,
      "phone": "0243-23-4551",
      "license_no": "2-210",
      "license_date": null,
      "expire_date": null
    },
    {
      "name": "なごみ",
      "name_kana": "",
      "business_type": "飲食店営業",
      "address": "二本松市渋川字大森越１２２",
      "lat": 37.611627581,
      "lng": 140.471990127,
      "geocoding_level": 8,
      "phone": "0243-23-4551",
      "license_no": "1-180",
      "license_date": null,
      "expire_date": null
    },
    {
      "name": "あぐり工房　智恵子の里",
      "name_kana": "",
      "business_type": "菓子製造業",
      "address": "二本松市油井字川原１３７",
      "lat": 37.614783022,
      "lng": 140.45145119,
      "geocoding_level": 8,
      "phone": "0243-24-1207",
      "license_no": "2-212",
      "license_date": null,
      "expire_date": null
    },
    {
      "name": "あぐり工房　智恵子の里",
      "name_kana": "",
      "business_type": "みそ又はしょうゆ製造業",
      "address": "二本松市油井字川原１３７",
      "lat": 37.614783022,
      "lng": 140.45145119,
      "geocoding_level": 8,
      "phone": "0243-24-1207",
      "license_no": "2-213",
      "license_date": null,
      "expire_date": null
    },
    {
      "name": "あぐり工房　智恵子の里",
      "name_kana": "",
      "business_type": "そうざい製造業",
      "address": "二本松市油井字川原１３７",
      "lat": 37.614783022,
      "lng": 140.45145119,
      "geocoding_level": 8,
      "phone": "0243-24-1207",
      "license_no": "2-214",
      "license_date": null,
      "expire_date": null
    },
    {
      "name": "えみこりん",
      "name_kana": "",
      "business_type": "そうざい製造業",
      "address": "二本松市永田積内１０６－３",
      "lat": 37.597499348,
      "lng": 140.401077174,
      "geocoding_level": 8,
      "phone": "0243-23-2011",
      "license_no": "2-217",
      "license_date": null,
      "expire_date": null
    },
    {
      "name": "スナック舞",
      "name_kana": "",
      "business_type": "飲食店営業",
      "address": "二本松市本町２丁目１５２－２",
      "lat": 37.590751835,
      "lng": 140.438245056,
      "geocoding_level": 8,
      "phone": "0243-22-0191",
      "license_no": "2-330",
      "license_date": null,
      "expire_date": null
    },
    {
      "name": "手づくり餅　餅工房　おがた",
      "name_kana": "",
      "business_type": "飲食店営業",
      "address": "二本松市渋川字舟山１８０－３",
      "lat": 37.624224572,
      "lng": 140.480371295,
      "geocoding_level": 8,
      "phone": "0243-53-2267",
      "license_no": "2-218",
      "license_date": null,
      "expire_date": null
    },
    {
      "name": "みよし",
      "name_kana": "",
      "business_type": "飲食店営業",
      "address": "二本松市本町２丁目１９３",
      "lat": 37.590352868,
      "lng": 140.435865483,
      "geocoding_level": 8,
      "phone": "0243-22-1995",
      "license_no": "2-331",
      "license_date": null,
      "expire_date": null
    },
    {
      "name": "エビスサーキット南サロン前スナックコーナー",
      "name_kana": "",
      "business_type": "飲食店営業",
      "address": "二本松市沢松倉１　エビスサーキット南コース内",
      "lat": 37.640296,
      "lng": 140.369403,
      "geocoding_level": 3,
      "phone": "0243-24-2336",
      "license_no": "2-219",
      "license_date": null,
      "expire_date": null
    },
    {
      "name": "豆の木",
      "name_kana": "",
      "business_type": "飲食店営業",
      "address": "二本松市本町２丁目１８３－１",
      "lat": 37.590170172,
      "lng": 140.436644189,
      "geocoding_level": 8,
      "phone": "",
      "license_no": "2-311",
      "license_date": null,
      "expire_date": null
    },
    {
      "name": "まとばや菓子店",
      "name_kana": "",
      "business_type": "菓子製造業",
      "address": "二本松市針道字町３０",
      "lat": 37.600984931,
      "lng": 140.576736168,
      "geocoding_level": 8,
      "phone": "0243-46-2407",
      "license_no": "2-221",
      "license_date": null,
      "expire_date": null
    },
    {
      "name": "ミスタードーナツベイシア安達店",
      "name_kana": "",
      "business_type": "飲食店営業",
      "address": "二本松市油井字福岡１４０",
      "lat": 37.61331276,
      "lng": 140.462879481,
      "geocoding_level": 8,
      "phone": "0243-62-0455",
      "license_no": "2-234",
      "license_date": null,
      "expire_date": null
    },
    {
      "name": "ミスタードーナツベイシア安達店",
      "name_kana": "",
      "business_type": "菓子製造業",
      "address": "二本松市油井字福岡１４０",
      "lat": 37.61331276,
      "lng": 140.462879481,
      "geocoding_level": 8,
      "phone": "0243-62-0455",
      "license_no": "2-235",
      "license_date": null,
      "expire_date": null
    },
    {
      "name": "セブン－イレブン二本松安達ヶ原店",
      "name_kana": "",
      "business_type": "飲食店営業",
      "address": "二本松市安達ケ原４丁目２３７の１番地",
      "lat": 37.593072057,
      "lng": 140.463212513,
      "geocoding_level": 8,
      "phone": "0243-22-0671",
      "license_no": "2-240",
      "license_date": null,
      "expire_date": null
    },
    {
      "name": "セブンイレブン二本松高田橋店",
      "name_kana": "",
      "business_type": "飲食店営業",
      "address": "二本松市平石高田１丁目１３８－１",
      "lat": 37.582365719,
      "lng": 140.454809427,
      "geocoding_level": 8,
      "phone": "0243-22-6067",
      "license_no": "2-242",
      "license_date": null,
      "expire_date": null
    },
    {
      "name": "キッチン工房わたなべ",
      "name_kana": "",
      "business_type": "飲食店営業",
      "address": "二本松市油井字新田町３６",
      "lat": 37.61941175,
      "lng": 140.461366979,
      "geocoding_level": 8,
      "phone": "0243-53-2109",
      "license_no": "2-243",
      "license_date": null,
      "expire_date": null
    },
    {
      "name": "道の駅ふくしま東和　あぶくま館",
      "name_kana": "",
      "business_type": "麺類製造業",
      "address": "二本松市太田字下田２－３",
      "lat": 37.569873512,
      "lng": 140.577729321,
      "geocoding_level": 8,
      "phone": "0243-46-2113",
      "license_no": "2-245",
      "license_date": null,
      "expire_date": null
    },
    {
      "name": "空の庭　ＲＥＳＯＲＴ",
      "name_kana": "",
      "business_type": "飲食店営業",
      "address": "二本松市岳温泉１丁目１９７－２",
      "lat": 37.603950991,
      "lng": 140.355286964,
      "geocoding_level": 8,
      "phone": "0243-24-2306",
      "license_no": "2-247",
      "license_date": null,
      "expire_date": null
    },
    {
      "name": "Ｍａｍｅｋｉｃｈｉ’ｓ　Ｃｏｆｆｅｅ　＆　Ｄｏｎｕｔｓ",
      "name_kana": "",
      "business_type": "飲食店営業",
      "address": "二本松市馬場平１６１－２",
      "lat": 37.572992152,
      "lng": 140.351876826,
      "geocoding_level": 8,
      "phone": "0243-24-2800",
      "license_no": "2-166",
      "license_date": null,
      "expire_date": null
    },
    {
      "name": "Ｍａｍｅｋｉｃｈｉ’ｓ　Ｃｏｆｆｅｅ　＆　Ｄｏｎｕｔｓ",
      "name_kana": "",
      "business_type": "菓子製造業",
      "address": "二本松市馬場平１６１－２",
      "lat": 37.572992152,
      "lng": 140.351876826,
      "geocoding_level": 8,
      "phone": "0243-24-2800",
      "license_no": "2-167",
      "license_date": null,
      "expire_date": null
    },
    {
      "name": "チタチタ原家具店",
      "name_kana": "",
      "business_type": "飲食店営業",
      "address": "二本松市竹田１丁目１１５",
      "lat": 37.597977902,
      "lng": 140.443115975,
      "geocoding_level": 8,
      "phone": "0243-22-0609",
      "license_no": "2-248",
      "license_date": null,
      "expire_date": null
    },
    {
      "name": "みうらや",
      "name_kana": "",
      "business_type": "飲食店営業",
      "address": "二本松市岳温泉２丁目９－５",
      "lat": 37.606693345,
      "lng": 140.35857851,
      "geocoding_level": 8,
      "phone": "090-62244286",
      "license_no": "2-249",
      "license_date": null,
      "expire_date": null
    },
    {
      "name": "空桶家　吉祥",
      "name_kana": "",
      "business_type": "飲食店営業",
      "address": "二本松市岳温泉１丁目１３２",
      "lat": 37.605592977,
      "lng": 140.356056633,
      "geocoding_level": 8,
      "phone": "0243-24-3971",
      "license_no": "2-250",
      "license_date": null,
      "expire_date": null
    },
    {
      "name": "金澤商店",
      "name_kana": "",
      "business_type": "飲食店営業",
      "address": "二本松市杉田町１丁目９５",
      "lat": 37.562580067000006,
      "lng": 140.412294713,
      "geocoding_level": 8,
      "phone": "0243-22-0702",
      "license_no": "2-252",
      "license_date": null,
      "expire_date": null
    },
    {
      "name": "金澤商店",
      "name_kana": "",
      "business_type": "魚介類販売業",
      "address": "二本松市杉田町１丁目９５",
      "lat": 37.562580067000006,
      "lng": 140.412294713,
      "geocoding_level": 8,
      "phone": "0243-22-0702",
      "license_no": "2-253",
      "license_date": null,
      "expire_date": null
    },
    {
      "name": "風花",
      "name_kana": "",
      "business_type": "菓子製造業",
      "address": "二本松市大関４３８－７",
      "lat": 37.621327814,
      "lng": 140.360322533,
      "geocoding_level": 8,
      "phone": "0243-24-2965",
      "license_no": "2-257",
      "license_date": null,
      "expire_date": null
    },
    {
      "name": "Ｔｅａ　ｒｏｏｍ　未知しるべ",
      "name_kana": "",
      "business_type": "飲食店営業",
      "address": "二本松市松岡１４８",
      "lat": 37.591963809,
      "lng": 140.431732075,
      "geocoding_level": 8,
      "phone": "0243-22-5605",
      "license_no": "2-225",
      "license_date": null,
      "expire_date": null
    },
    {
      "name": "支那そば　やまき",
      "name_kana": "",
      "business_type": "飲食店営業",
      "address": "二本松市若宮１丁目３３４－６",
      "lat": 37.590939362,
      "lng": 140.428646665,
      "geocoding_level": 8,
      "phone": "0243-23-9588",
      "license_no": "2-258",
      "license_date": null,
      "expire_date": null
    },
    {
      "name": "支那そば　やまき",
      "name_kana": "",
      "business_type": "麺類製造業",
      "address": "二本松市若宮１丁目３３４－６",
      "lat": 37.590939362,
      "lng": 140.428646665,
      "geocoding_level": 8,
      "phone": "0243-23-9588",
      "license_no": "2-284",
      "license_date": null,
      "expire_date": null
    },
    {
      "name": "支那そば　やまき",
      "name_kana": "",
      "business_type": "そうざい製造業",
      "address": "二本松市若宮１丁目３３４－６",
      "lat": 37.590939362,
      "lng": 140.428646665,
      "geocoding_level": 8,
      "phone": "0243-23-9588",
      "license_no": "1-50",
      "license_date": null,
      "expire_date": null
    },
    {
      "name": "スナックことり",
      "name_kana": "",
      "business_type": "飲食店営業",
      "address": "二本松市本町２丁目９９－１",
      "lat": 37.591190362,
      "lng": 140.438082271,
      "geocoding_level": 8,
      "phone": "0243-23-5008",
      "license_no": "2-248",
      "license_date": null,
      "expire_date": null
    },
    {
      "name": "食事処もめん亭",
      "name_kana": "",
      "business_type": "飲食店営業",
      "address": "二本松市下川崎字上平３３－１",
      "lat": 37.635476217,
      "lng": 140.483355912,
      "geocoding_level": 8,
      "phone": "0243-61-3100",
      "license_no": "2-260",
      "license_date": null,
      "expire_date": null
    },
    {
      "name": "ほうりん安達ヶ原　法要館　なごみの郷",
      "name_kana": "",
      "business_type": "飲食店営業",
      "address": "二本松市安達ケ原１丁目２１３",
      "lat": 37.587900895,
      "lng": 140.460223108,
      "geocoding_level": 8,
      "phone": "0243-42-1651",
      "license_no": "2-286",
      "license_date": null,
      "expire_date": null
    },
    {
      "name": "ホテルいずみ",
      "name_kana": "",
      "business_type": "飲食店営業",
      "address": "二本松市米沢字大稲場１番地１",
      "lat": 37.646168984,
      "lng": 140.46566655,
      "geocoding_level": 8,
      "phone": "0243-53-2717",
      "license_no": "2-227",
      "license_date": null,
      "expire_date": null
    },
    {
      "name": "有限会社大栄フーズ",
      "name_kana": "",
      "business_type": "食肉処理業",
      "address": "二本松市太田字猫清水７４番地",
      "lat": 37.584783,
      "lng": 140.431199,
      "geocoding_level": 2,
      "phone": "0243-46-3565",
      "license_no": "2-110",
      "license_date": null,
      "expire_date": null
    },
    {
      "name": "ラーメンショップ椿　二本松店",
      "name_kana": "",
      "business_type": "飲食店営業",
      "address": "二本松市渋川字舟山１０４－１",
      "lat": 37.629582339,
      "lng": 140.480897831,
      "geocoding_level": 8,
      "phone": "0243-54-2760",
      "license_no": "2-111",
      "license_date": null,
      "expire_date": null
    },
    {
      "name": "嶋や",
      "name_kana": "",
      "business_type": "飲食店営業",
      "address": "二本松市竹田１丁目７２番地",
      "lat": 37.599250899,
      "lng": 140.44401909,
      "geocoding_level": 8,
      "phone": "0243-22-6120",
      "license_no": "2-289",
      "license_date": null,
      "expire_date": null
    },
    {
      "name": "なごみの店",
      "name_kana": "",
      "business_type": "飲食店営業",
      "address": "二本松市沼ケ作２３６－１",
      "lat": 37.571410179,
      "lng": 140.479143583,
      "geocoding_level": 8,
      "phone": "0243-24-1087",
      "license_no": "2-229",
      "license_date": null,
      "expire_date": null
    },
    {
      "name": "浦井　健司",
      "name_kana": "",
      "business_type": "飲食店営業",
      "address": "二本松市中里１３３－７６",
      "lat": 37.576503206,
      "lng": 140.422387301,
      "geocoding_level": 8,
      "phone": "",
      "license_no": "2-291",
      "license_date": null,
      "expire_date": null
    },