{
  "meta": {
    "updated": 1783906731,
    "sources": [
      {
        "source": "長野県食品営業許可施設",
        "license": "要確認"
      },
      {
        "source": "厚生労働省 食品衛生申請等システム（オープンデータ）",
        "license": "公共データ利用規約（第1.0版, PDL1.0）"
      }
    ]
  },
  "data": [
    {
      "name": "ボン・プラン",
      "name_kana": "",
      "business_type": "飲食店営業",
      "address": "木曽郡南木曽町読書３４３６－１３",
      "lat": 35.623253,
      "lng": 137.631433,
      "geocoding_level": 3,
      "phone": "",
      "license_no": "第08116980号",
      "license_date": "2019-05-31",
      "expire_date": "2026-05-31"
    },
    {
      "name": "ＭＡＵＫＡ　ＬＡＮＩ　ＧＯＡＴ　ＦＡＲＭ",
      "name_kana": "",
      "business_type": "乳製品製造業",
      "address": "木曽郡南木曽町吾妻４６５０－８７",
      "lat": 35.561715149,
      "lng": 137.667860735,
      "geocoding_level": 8,
      "phone": "",
      "license_no": "第08137588号",
      "license_date": "2019-07-26",
      "expire_date": "2026-05-31"
    },
    {
      "name": "わちのや",
      "name_kana": "",
      "business_type": "飲食店営業",
      "address": "木曽郡南木曽町吾妻２２００－１",
      "lat": 35.576541206,
      "lng": 137.595099626,
      "geocoding_level": 8,
      "phone": "",
      "license_no": "第08138171号",
      "license_date": "2020-10-19",
      "expire_date": "2027-05-31"
    },
    {
      "name": "大吉",
      "name_kana": "",
      "business_type": "飲食店営業",
      "address": "木曽郡南木曽町吾妻９０２―１",
      "lat": 35.579901778,
      "lng": 137.596142291,
      "geocoding_level": 8,
      "phone": "",
      "license_no": "第08011301号",
      "license_date": "2021-05-31",
      "expire_date": "2027-05-31"
    },
    {
      "name": "民宿　まるや",
      "name_kana": "",
      "business_type": "飲食店営業",
      "address": "木曽郡南木曽町吾妻１４７７",
      "lat": 35.563917072,
      "lng": 137.592262211,
      "geocoding_level": 8,
      "phone": "",
      "license_no": "第08131101号",
      "license_date": "2021-05-31",
      "expire_date": "2027-05-31"
    },
    {
      "name": "大間見屋",
      "name_kana": "",
      "business_type": "飲食店営業",
      "address": "木曽郡南木曽町読書３４６５",
      "lat": 35.623253,
      "lng": 137.631433,
      "geocoding_level": 3,
      "phone": "",
      "license_no": "第08121567号",
      "license_date": "2021-05-31",
      "expire_date": "2027-05-31"
    },
    {
      "name": "（株）高橋渓流",
      "name_kana": "",
      "business_type": "そうざい製造業",
      "address": "木曽郡南木曽町田立字木屋８４８－１",
      "lat": 35.601344,
      "lng": 137.543225,
      "geocoding_level": 3,
      "phone": "",
      "license_no": "第08117227号",
      "license_date": "2019-05-31",
      "expire_date": "2026-05-31"
    },
    {
      "name": "（株）高橋渓流",
      "name_kana": "",
      "business_type": "魚介類販売業",
      "address": "木曽郡南木曽町田立字木屋８４８－１",
      "lat": 35.601344,
      "lng": 137.543225,
      "geocoding_level": 3,
      "phone": "",
      "license_no": "第08117234号",
      "license_date": "2019-05-31",
      "expire_date": "2026-05-31"
    },
    {
      "name": "民宿ほていや",
      "name_kana": "",
      "business_type": "飲食店営業",
      "address": "木曽郡南木曽町読書１７１９",
      "lat": 35.647513941,
      "lng": 137.60555842,
      "geocoding_level": 8,
      "phone": "",
      "license_no": "第08011601号",
      "license_date": "2020-05-29",
      "expire_date": "2026-05-31"
    },
    {
      "name": "やまぎり工場",
      "name_kana": "",
      "business_type": "密封包装食品製造業",
      "address": "木曽郡南木曽町吾妻２１７９－１",
      "lat": 35.578488625,
      "lng": 137.596056465,
      "geocoding_level": 8,
      "phone": "",
      "license_no": "第08134415号",
      "license_date": "2025-05-30",
      "expire_date": "2031-05-31"
    },
    {
      "name": "好日珈琲",
      "name_kana": "",
      "business_type": "飲食店営業",
      "address": "木曽郡南木曽町吾妻８０５イ－２",
      "lat": 35.565104,
      "lng": 137.60396,
      "geocoding_level": 3,
      "phone": "",
      "license_no": "第08137549号",
      "license_date": "2025-05-30",
      "expire_date": "2030-05-31"
    },
    {
      "name": "吉村屋",
      "name_kana": "",
      "business_type": "飲食店営業",
      "address": "木曽郡南木曽町吾妻８６０―１",
      "lat": 35.578320618,
      "lng": 137.595694168,
      "geocoding_level": 8,
      "phone": "",
      "license_no": "第08102346号",
      "license_date": "2021-05-31",
      "expire_date": "2027-05-31"
    },
    {
      "name": "岩倉むらおこし組合",
      "name_kana": "",
      "business_type": "そうざい製造業",
      "address": "木曽郡南木曽町読書２１２７－１０",
      "lat": 35.639768267,
      "lng": 137.597102141,
      "geocoding_level": 8,
      "phone": "",
      "license_no": "第08138284号",
      "license_date": "2021-07-20",
      "expire_date": "2028-05-31"
    },
    {
      "name": "なぎそミツバツツジ祭り",
      "name_kana": "",
      "business_type": "飲食店営業",
      "address": "木曽郡南木曽町読書２９３６－１",
      "lat": 35.599610341,
      "lng": 137.606017617,
      "geocoding_level": 8,
      "phone": "",
      "license_no": "第08131052号",
      "license_date": "2024-05-31",
      "expire_date": "2029-05-31"
    },
    {
      "name": "なぎそミツバツツジ祭り",
      "name_kana": "",
      "business_type": "飲食店営業",
      "address": "木曽郡南木曽町読書２９３７－１９６",
      "lat": 35.60072304700001,
      "lng": 137.605219952,
      "geocoding_level": 8,
      "phone": "",
      "license_no": "第08131060号",
      "license_date": "2024-05-31",
      "expire_date": "2029-05-31"
    },
    {
      "name": "尾越トンネル大林組ＪＶ　日本フーズ",
      "name_kana": "",
      "business_type": "飲食店営業",
      "address": "木曽郡南木曽町吾妻尾越２３３３",
      "lat": 35.565104,
      "lng": 137.60396,
      "geocoding_level": 3,
      "phone": "",
      "license_no": "第08138341号",
      "license_date": "2021-10-22",
      "expire_date": "2028-05-31"
    },
    {
      "name": "日本フーズ食堂",
      "name_kana": "",
      "business_type": "飲食店営業",
      "address": "木曽郡南木曽町吾妻３６８９－1",
      "lat": 35.562152676,
      "lng": 137.630389732,
      "geocoding_level": 8,
      "phone": "",
      "license_no": "第08139347号",
      "license_date": "2023-08-30",
      "expire_date": "2030-05-31"
    },
    {
      "name": "中華そば　三殿社中",
      "name_kana": "",
      "business_type": "飲食店営業",
      "address": "木曽郡南木曽町吾妻９８６－４",
      "lat": 35.575502163,
      "lng": 137.593942368,
      "geocoding_level": 8,
      "phone": "",
      "license_no": "第08138619号",
      "license_date": "2022-06-16",
      "expire_date": "2029-05-31"
    },
    {
      "name": "中華そば　三殿社中",
      "name_kana": "",
      "business_type": "麺類製造業",
      "address": "木曽郡南木曽町吾妻９８６－４",
      "lat": 35.575502163,
      "lng": 137.593942368,
      "geocoding_level": 8,
      "phone": "",
      "license_no": "第08138626号",
      "license_date": "2022-06-16",
      "expire_date": "2029-05-31"
    },
    {
      "name": "セブンイレブン南木曽町店",
      "name_kana": "",
      "business_type": "飲食店営業",
      "address": "木曽郡南木曽町読書３６７１－２",
      "lat": 35.603877824,
      "lng": 137.608443631,
      "geocoding_level": 8,
      "phone": "",
      "license_no": "第08138641号",
      "license_date": "2022-07-13",
      "expire_date": "2028-05-31"
    },
    {
      "name": "おぐら",
      "name_kana": "",
      "business_type": "飲食店営業",
      "address": "木曽郡南木曽町読書３６４０",
      "lat": 35.623253,
      "lng": 137.631433,
      "geocoding_level": 3,
      "phone": "",
      "license_no": "第08010660号",
      "license_date": "2022-05-31",
      "expire_date": "2028-05-31"
    },
    {
      "name": "高麗園",
      "name_kana": "",
      "business_type": "飲食店営業",
      "address": "木曽郡南木曽町読書３９４１",
      "lat": 35.607141826,
      "lng": 137.611419408,
      "geocoding_level": 8,
      "phone": "",
      "license_no": "第08100159号",
      "license_date": "2022-05-31",
      "expire_date": "2028-05-31"
    },
    {
      "name": "こおしん塚",
      "name_kana": "",
      "business_type": "飲食店営業",
      "address": "木曽郡南木曽町吾妻１７７５",
      "lat": 35.565104,
      "lng": 137.60396,
      "geocoding_level": 3,
      "phone": "",
      "license_no": "第08126315号",
      "license_date": "2022-05-31",
      "expire_date": "2028-05-31"
    },
    {
      "name": "白木屋",
      "name_kana": "",
      "business_type": "飲食店営業",
      "address": "木曽郡南木曽町吾妻２２０８",
      "lat": 35.576096724,
      "lng": 137.594683105,
      "geocoding_level": 8,
      "phone": "",
      "license_no": "第08135741号",
      "license_date": "2022-05-31",
      "expire_date": "2028-05-31"
    },
    {
      "name": "おもて",
      "name_kana": "",
      "business_type": "飲食店営業",
      "address": "木曽郡南木曽町吾妻２１９１－３",
      "lat": 35.565104,
      "lng": 137.60396,
      "geocoding_level": 3,
      "phone": "",
      "license_no": "第08135766号",
      "license_date": "2022-05-31",
      "expire_date": "2028-05-31"
    },
    {
      "name": "山川ファーム",
      "name_kana": "",
      "business_type": "飲食店営業",
      "address": "木曽郡南木曽町読書３９７４－３",
      "lat": 35.608300241,
      "lng": 137.609630567,
      "geocoding_level": 8,
      "phone": "",
      "license_no": "第08135920号",
      "license_date": "2022-05-31",
      "expire_date": "2028-05-31"
    },
    {
      "name": "山川ファーム",
      "name_kana": "",
      "business_type": "飲食店営業",
      "address": "木曽郡南木曽町県下一円",
      "lat": 35.603787,
      "lng": 137.608936,
      "geocoding_level": 2,
      "phone": "",
      "license_no": "第08137467号",
      "license_date": "2025-05-30",
      "expire_date": "2030-05-31"
    },
    {
      "name": "山川ファーム",
      "name_kana": "",
      "business_type": "食用油脂製造業",
      "address": "木曽郡南木曽町読書３９７４－３",
      "lat": 35.608300241,
      "lng": 137.609630567,
      "geocoding_level": 8,
      "phone": "",
      "license_no": "第08137008号",
      "license_date": "2025-05-30",
      "expire_date": "2031-05-31"
    },
    {
      "name": "しんや",
      "name_kana": "",
      "business_type": "飲食店営業",
      "address": "木曽郡南木曽町吾妻８００－４",
      "lat": 35.565104,
      "lng": 137.60396,
      "geocoding_level": 3,
      "phone": "",
      "license_no": "第08121318号",
      "license_date": "2022-05-31",
      "expire_date": "2027-05-31"
    },
    {
      "name": "岩倉村おこし組合",
      "name_kana": "",
      "business_type": "みそ又はしょうゆ製造業",
      "address": "木曽郡南木曽町読書２１２７―１０",
      "lat": 35.639768267,
      "lng": 137.597102141,
      "geocoding_level": 8,
      "phone": "",
      "license_no": "第08114245号",
      "license_date": "2022-05-31",
      "expire_date": "2028-05-31"
    },
    {
      "name": "手打ちそば　徳",
      "name_kana": "",
      "business_type": "飲食店営業",
      "address": "木曽郡南木曽町吾妻４４２０－１",
      "lat": 35.560481083,
      "lng": 137.652724653,
      "geocoding_level": 8,
      "phone": "",
      "license_no": "第08138793号",
      "license_date": "2022-10-14",
      "expire_date": "2029-05-31"
    },
    {
      "name": "俵屋　里久",
      "name_kana": "",
      "business_type": "飲食店営業",
      "address": "木曽郡南木曽町吾妻２１８１－１",
      "lat": 35.578218177,
      "lng": 137.595737143,
      "geocoding_level": 8,
      "phone": "",
      "license_no": "第08121752号",
      "license_date": "2023-05-31",
      "expire_date": "2029-05-31"
    },
    {
      "name": "蝶家",
      "name_kana": "",
      "business_type": "飲食店営業",
      "address": "木曽郡南木曽町吾妻２２８５－１",
      "lat": 35.560594271,
      "lng": 137.622545416,
      "geocoding_level": 8,
      "phone": "",
      "license_no": "第08121866号",
      "license_date": "2023-05-31",
      "expire_date": "2029-05-31"
    },
    {
      "name": "峠の茶屋",
      "name_kana": "",
      "business_type": "飲食店営業",
      "address": "木曽郡南木曽町吾妻１６４６－１６",
      "lat": 35.565104,
      "lng": 137.60396,
      "geocoding_level": 3,
      "phone": "",
      "license_no": "第08136696号",
      "license_date": "2023-05-31",
      "expire_date": "2029-05-31"
    },
    {
      "name": "工芸街通り祭　蘭桧笠の家",
      "name_kana": "",
      "business_type": "飲食店営業",
      "address": "木曽郡南木曽町吾妻３９００番地",
      "lat": 35.565104,
      "lng": 137.60396,
      "geocoding_level": 3,
      "phone": "",
      "license_no": "第08134696号",
      "license_date": "2023-05-31",
      "expire_date": "2028-05-31"
    },
    {
      "name": "ふくすけ",
      "name_kana": "",
      "business_type": "飲食店営業",
      "address": "木曽郡南木曽町読書３４６６－１",
      "lat": 35.599081657000006,
      "lng": 137.607994501,
      "geocoding_level": 8,
      "phone": "",
      "license_no": "第08136568号",
      "license_date": "2023-05-31",
      "expire_date": "2029-05-31"
    },
    {
      "name": "木ノ花屋",
      "name_kana": "",
      "business_type": "飲食店営業",
      "address": "木曽郡南木曽町吾妻２１７７",
      "lat": 35.57805651900001,
      "lng": 137.595932288,
      "geocoding_level": 8,
      "phone": "",
      "license_no": "第08121721号",
      "license_date": "2023-05-31",
      "expire_date": "2029-05-31"
    },
    {
      "name": "Cafe yew",
      "name_kana": "",
      "business_type": "飲食店営業",
      "address": "木曽郡南木曽町吾妻２３００番地",
      "lat": 35.560295972,
      "lng": 137.62145473,
      "geocoding_level": 8,
      "phone": "",
      "license_no": "第08136238号",
      "license_date": "2023-05-31",
      "expire_date": "2029-05-31"
    },
    {
      "name": "cafe　yew",
      "name_kana": "",
      "business_type": "飲食店営業",
      "address": "木曽郡南木曽町吾妻２３００番地",
      "lat": 35.560295972,
      "lng": 137.62145473,
      "geocoding_level": 8,
      "phone": "",
      "license_no": "第08139895号",
      "license_date": "2024-09-25",
      "expire_date": "2030-05-31"
    },
    {
      "name": "特別養護老人ホーム　木曽あすなろ荘",
      "name_kana": "",
      "business_type": "飲食店営業",
      "address": "木曽郡南木曽町田立１５０－１",
      "lat": 35.589109822,
      "lng": 137.55944671,
      "geocoding_level": 8,
      "phone": "",
      "license_no": "第08136511号",
      "license_date": "2023-05-31",
      "expire_date": "2029-05-31"
    },
    {
      "name": "つたむらや酒造",
      "name_kana": "",
      "business_type": "酒類製造業",
      "address": "木曽郡南木曽町吾妻１４８１－５",
      "lat": 35.563493076,
      "lng": 137.592129643,
      "geocoding_level": 8,
      "phone": "",
      "license_no": "第08132688号",
      "license_date": "2023-05-31",
      "expire_date": "2029-05-31"
    },
    {
      "name": "カフェこころ",
      "name_kana": "",
      "business_type": "飲食店営業",
      "address": "木曽郡南木曽町読書３６４３－７",
      "lat": 35.602597478,
      "lng": 137.608667663,
      "geocoding_level": 8,
      "phone": "",
      "license_no": "第08139265号",
      "license_date": "2023-08-08",
      "expire_date": "2030-05-31"
    },
    {
      "name": "アサイ",
      "name_kana": "",
      "business_type": "飲食店営業",
      "address": "木曽郡南木曽町",
      "lat": 35.603787,
      "lng": 137.608936,
      "geocoding_level": 2,
      "phone": "",
      "license_no": "第08140125号",
      "license_date": "2025-06-05",
      "expire_date": "2031-05-31"
    },
    {
      "name": "こづちや",
      "name_kana": "",
      "business_type": "飲食店営業",
      "address": "木曽郡南木曽町吾妻２１７９－１",
      "lat": 35.578488625,
      "lng": 137.596056465,
      "geocoding_level": 8,
      "phone": "",
      "license_no": "第08139540号",
      "license_date": "2023-12-12",
      "expire_date": "2030-05-31"
    },
    {
      "name": "TAOYA木曽路　2F厨房",
      "name_kana": "",
      "business_type": "飲食店営業",
      "address": "木曽郡南木曽町吾妻２２７８",
      "lat": 35.565104,
      "lng": 137.60396,
      "geocoding_level": 3,
      "phone": "",
      "license_no": "第08137054号",
      "license_date": "2025-05-30",
      "expire_date": "2031-05-31"
    },
    {
      "name": "お宿　すずめ",
      "name_kana": "",
      "business_type": "飲食店営業",
      "address": "木曽郡南木曽町読書２３６９―８",
      "lat": 35.64139583,
      "lng": 137.595443045,
      "geocoding_level": 8,
      "phone": "",
      "license_no": "第08011148号",
      "license_date": "2022-05-31",
      "expire_date": "2028-05-31"
    },
    {
      "name": "渓谷の宿　いち川",
      "name_kana": "",
      "business_type": "飲食店営業",
      "address": "木曽郡南木曽町読書１３８０－6",
      "lat": 35.653793075,
      "lng": 137.606468225,
      "geocoding_level": 8,
      "phone": "",
      "license_no": "第08118973号",
      "license_date": "2023-05-31",
      "expire_date": "2029-05-31"
    },
    {
      "name": "DEAR　DEER",
      "name_kana": "",
      "business_type": "飲食店営業",
      "address": "木曽郡南木曽町吾妻",
      "lat": 35.565104,
      "lng": 137.60396,
      "geocoding_level": 3,
      "phone": "",
      "license_no": "第08139824号",
      "license_date": "2024-06-25",
      "expire_date": "2030-05-31"
    },
    {
      "name": "音吉　新館",
      "name_kana": "",
      "business_type": "飲食店営業",
      "address": "木曽郡南木曽町吾妻１２２３－１",
      "lat": 35.57080517,
      "lng": 137.592833624,
      "geocoding_level": 8,
      "phone": "",
      "license_no": "第08120391号",
      "license_date": "2024-05-31",
      "expire_date": "2031-05-31"
    },
    {
      "name": "御食事処　音吉",
      "name_kana": "",
      "business_type": "飲食店営業",
      "address": "木曽郡南木曽町吾妻１２２３―１",
      "lat": 35.57080517,
      "lng": 137.592833624,
      "geocoding_level": 8,
      "phone": "",
      "license_no": "第08109052号",
      "license_date": "2025-05-30",
      "expire_date": "2031-05-31"
    },
    {
      "name": "桃介亭",
      "name_kana": "",
      "business_type": "飲食店営業",
      "address": "木曽郡南木曽町読書２９４１－７",
      "lat": 35.599102521,
      "lng": 137.605308022,
      "geocoding_level": 8,
      "phone": "",
      "license_no": "第08136601号",
      "license_date": "2024-05-31",
      "expire_date": "2030-05-31"
    },
    {
      "name": "萬屋",
      "name_kana": "",
      "business_type": "飲食店営業",
      "address": "木曽郡南木曽町吾妻４５５４－１",
      "lat": 35.559193861,
      "lng": 137.656352769,
      "geocoding_level": 8,
      "phone": "",
      "license_no": "第08136632号",
      "license_date": "2024-05-31",
      "expire_date": "2030-05-31"
    },
    {
      "name": "あづまや",
      "name_kana": "",
      "business_type": "飲食店営業",
      "address": "木曽郡南木曽町読書３６４０－１",
      "lat": 35.602068051,
      "lng": 137.608543536,
      "geocoding_level": 8,
      "phone": "",
      "license_no": "第08139888号",
      "license_date": "2024-08-27",
      "expire_date": "2031-05-31"
    },
    {
      "name": "はんだ屋",
      "name_kana": "",
      "business_type": "飲食店営業",
      "address": "木曽郡南木曽町読書３９９２－１",
      "lat": 35.608471103,
      "lng": 137.611338746,
      "geocoding_level": 8,
      "phone": "",
      "license_no": "第08139945号",
      "license_date": "2024-11-13",
      "expire_date": "2031-05-31"
    },
    {
      "name": "はんだ屋",
      "name_kana": "",
      "business_type": "飲食店営業",
      "address": "木曽郡南木曽町",
      "lat": 35.603787,
      "lng": 137.608936,
      "geocoding_level": 2,
      "phone": "",
      "license_no": "第08140328号",
      "license_date": "2025-10-16",
      "expire_date": "2031-05-31"
    },
    {
      "name": "アトリエキッチン 　S．japan",
      "name_kana": "",
      "business_type": "そうざい製造業",
      "address": "木曽郡南木曽町読書４１８３－２",
      "lat": 35.60821353,
      "lng": 137.61167161,
      "geocoding_level": 8,
      "phone": "",
      "license_no": "第08139991号",
      "license_date": "2025-02-25",
      "expire_date": "2031-05-31"
    },
    {
      "name": "アトリエキッチン　Ｓ．japan",
      "name_kana": "",
      "business_type": "飲食店営業",
      "address": "木曽郡南木曽町読書４１８３－２",
      "lat": 35.60821353,
      "lng": 137.61167161,
      "geocoding_level": 8,
      "phone": "",
      "license_no": "第08140004号",
      "license_date": "2025-02-25",
      "expire_date": "2031-05-31"
    },
    {
      "name": "たこやき　なまら",
      "name_kana": "",
      "business_type": "飲食店営業",
      "address": "木曽郡南木曽町",
      "lat": 35.603787,
      "lng": 137.608936,
      "geocoding_level": 2,
      "phone": "",
      "license_no": "第08140011号",
      "license_date": "2025-03-07",
      "expire_date": "2030-05-31"
    },
    {
      "name": "恋野bakery",
      "name_kana": "",
      "business_type": "菓子製造業",
      "address": "木曽郡南木曽町吾妻８４４－３",
      "lat": 35.577484507,
      "lng": 137.59449846,
      "geocoding_level": 8,
      "phone": "",
      "license_no": "第08140029号",
      "license_date": "2025-03-26",
      "expire_date": "2031-05-31"
    },
    {
      "name": "恋野bakery",
      "name_kana": "",
      "business_type": "菓子製造業",
      "address": "木曽郡南木曽町吾妻８４４－３",
      "lat": 35.577484507,
      "lng": 137.59449846,
      "geocoding_level": 8,
      "phone": "",
      "license_no": "第08140036号",
      "license_date": "2025-03-26",
      "expire_date": "2031-05-31"
    },
    {
      "name": "雨　中山道",
      "name_kana": "",
      "business_type": "飲食店営業",
      "address": "木曽郡南木曽町読書３３５２",
      "lat": 35.623253,
      "lng": 137.631433,
      "geocoding_level": 3,
      "phone": "",
      "license_no": "第08140068号",
      "license_date": "2025-04-16",
      "expire_date": "2031-05-31"
    },
    {
      "name": "ピエロ",
      "name_kana": "",
      "business_type": "飲食店営業",
      "address": "木曽郡南木曽町読書３５９２－８",
      "lat": 35.623253,
      "lng": 137.631433,
      "geocoding_level": 3,
      "phone": "",
      "license_no": "第08116253号",
      "license_date": "2025-05-30",
      "expire_date": "2031-05-31"
    },
    {
      "name": "結い庵",
      "name_kana": "",
      "business_type": "飲食店営業",
      "address": "木曽郡南木曽町読書４８２８－１",
      "lat": 35.62053961,
      "lng": 137.630615171,
      "geocoding_level": 8,
      "phone": "",
      "license_no": "第08137531号",
      "license_date": "2025-05-30",
      "expire_date": "2030-05-31"
    },
    {
      "name": "神戸クラブ",
      "name_kana": "",
      "business_type": "飲食店営業",
      "address": "木曽郡南木曽町県下一円",
      "lat": 35.603787,
      "lng": 137.608936,
      "geocoding_level": 2,
      "phone": "",
      "license_no": "第08137710号",
      "license_date": "2025-05-30",
      "expire_date": "2030-05-31"
    },
    {
      "name": "Zenagi",
      "name_kana": "",
      "business_type": "飲食店営業",
      "address": "木曽郡南木曽町田立２０７、２２２、２２３－１",
      "lat": 35.591728548,
      "lng": 137.557179713,
      "geocoding_level": 8,
      "phone": "",
      "license_no": "第08137271号",
      "license_date": "2025-05-30",
      "expire_date": "2031-05-31"
    },
    {
      "name": "松代屋",
      "name_kana": "",
      "business_type": "飲食店営業",
      "address": "木曽郡南木曽町吾妻８０７",
      "lat": 35.57586599,
      "lng": 137.594663618,
      "geocoding_level": 8,
      "phone": "",
      "license_no": "第08103341号",
      "license_date": "2025-05-30",
      "expire_date": "2031-05-31"
    },
    {
      "name": "波奈屋　新館",
      "name_kana": "",
      "business_type": "飲食店営業",
      "address": "木曽郡南木曽町吾妻１８１２－３",
      "lat": 35.565390717,
      "lng": 137.593112963,
      "geocoding_level": 8,
      "phone": "",
      "license_no": "第08124314号",
      "license_date": "2025-05-30",
      "expire_date": "2031-05-31"
    },
    {
      "name": "金剛屋",
      "name_kana": "",
      "business_type": "飲食店営業",
      "address": "木曽郡南木曽町吾妻１７８５－３",
      "lat": 35.565069723,
      "lng": 137.59303836,
      "geocoding_level": 8,
      "phone": "",
      "license_no": "第08124271号",
      "license_date": "2025-05-30",
      "expire_date": "2031-05-31"
    },
    {
      "name": "蔦屋製菓舗",
      "name_kana": "",
      "business_type": "菓子製造業",
      "address": "木曽郡南木曽町読書３４３６ー２６",
      "lat": 35.597633418,
      "lng": 137.607434327,
      "geocoding_level": 8,
      "phone": "",
      "license_no": "第08000205号",
      "license_date": "2025-05-30",
      "expire_date": "2030-05-31"
    },
    {
      "name": "遠山菓子店",
      "name_kana": "",
      "business_type": "菓子製造業",
      "address": "木曽郡南木曽町読書４０２８―１",
      "lat": 35.609800655,
      "lng": 137.612137873,
      "geocoding_level": 8,
      "phone": "",
      "license_no": "第08110203号",
      "license_date": "2025-05-30",
      "expire_date": "2031-05-31"
    },
    {
      "name": "カフェ　いずみや",
      "name_kana": "",
      "business_type": "飲食店営業",
      "address": "木曽郡南木曽町読書３４６５－２",
      "lat": 35.598472091,
      "lng": 137.607907352,
      "geocoding_level": 8,
      "phone": "",
      "license_no": "第08136067号",
      "license_date": "2022-05-31",
      "expire_date": "2028-05-31"
    },
    {
      "name": "なぎのこ",
      "name_kana": "",
      "business_type": "飲食店営業",
      "address": "木曽郡南木曽町",
      "lat": 35.603787,
      "lng": 137.608936,
      "geocoding_level": 2,
      "phone": "",
      "license_no": "第08140374号",
      "license_date": "2025-10-31",
      "expire_date": "2031-05-31"
    },
    {
      "name": "やきそば　あっちゃん",
      "name_kana": "",
      "business_type": "飲食店営業",
      "address": "木曽郡南木曽町",
      "lat": 35.603787,
      "lng": 137.608936,
      "geocoding_level": 2,
      "phone": "",
      "license_no": "第08140381号",
      "license_date": "2025-10-31",
      "expire_date": "2031-05-31"
    },
    {
      "name": "木曽街道ビール",
      "name_kana": "",
      "business_type": "飲食店営業",
      "address": "木曽郡南木曽町",
      "lat": 35.603787,
      "lng": 137.608936,
      "geocoding_level": 2,
      "phone": "",
      "license_no": "第08140118号",
      "license_date": "2025-05-28",
      "expire_date": "2030-05-31"
    },
    {
      "name": "山下屋",
      "name_kana": "",
      "business_type": "飲食店営業",
      "address": "木曽郡南木曽町田立１３８３－１",
      "lat": 35.589877093,
      "lng": 137.551127912,
      "geocoding_level": 8,
      "phone": "",
      "license_no": "第08124022号",
      "license_date": "2022-05-31",
      "expire_date": "2029-05-31"
    },
    {
      "name": "山下屋",
      "name_kana": "",
      "business_type": "魚介類販売業",
      "address": "木曽郡南木曽町田立１３８３－１",
      "lat": 35.589877093,
      "lng": 137.551127912,
      "geocoding_level": 8,
      "phone": "",
      "license_no": "第08124030号",
      "license_date": "2025-05-30",
      "expire_date": "2031-05-31"
    },
    {
      "name": "わっこ",
      "name_kana": "",
      "business_type": "飲食店営業",
      "address": "木曽郡南木曽町",
      "lat": 35.603787,
      "lng": 137.608936,
      "geocoding_level": 2,
      "phone": "",
      "license_no": "第08140424号",
      "license_date": "2026-02-02",
      "expire_date": "2031-05-31"
    },
    {
      "name": "わっこ",
      "name_kana": "",
      "business_type": "飲食店営業",
      "address": "木曽郡南木曽町",
      "lat": 35.603787,
      "lng": 137.608936,
      "geocoding_level": 2,
      "phone": "",
      "license_no": "第08140431号",
      "license_date": "2026-02-02",
      "expire_date": "2031-05-31"
    },
    {
      "name": "TAOYA木曽路　ラウンジパントリー",
      "name_kana": "",
      "business_type": "飲食店営業",
      "address": "木曽郡南木曽町吾妻２２７８",
      "lat": 35.565104,
      "lng": 137.60396,
      "geocoding_level": 3,
      "phone": "",
      "license_no": "第08139614号",
      "license_date": "2024-03-26",
      "expire_date": "2030-05-31"
    },
    {
      "name": "ａｉａｉ　ＫＩＴＣＨＥＮ",
      "name_kana": "",
      "business_type": "飲食店営業",
      "address": "木曽郡南木曽町",
      "lat": 35.603787,
      "lng": 137.608936,
      "geocoding_level": 2,
      "phone": "",
      "license_no": "第08140488号",
      "license_date": "2026-03-06",
      "expire_date": "2031-05-31"
    },
    {
      "name": "中村屋",
      "name_kana": "",
      "business_type": "飲食店営業",
      "address": "木曽郡南木曽町吾妻２１８４－３",
      "lat": 35.577857982,
      "lng": 137.595656487,
      "geocoding_level": 8,
      "phone": "",
      "license_no": "第08140495号",
      "license_date": "2026-03-11",
      "expire_date": "2032-05-31"
    },
    {
      "name": "株式会社高橋渓流",
      "name_kana": "",
      "business_type": "飲食店営業",
      "address": "木曽郡南木曽町田立８４９－２",
      "lat": 35.60201443,
      "lng": 137.551700156,
      "geocoding_level": 8,
      "phone": "",
      "license_no": "第08121948号",
      "license_date": "2023-05-31",
      "expire_date": "2029-05-31"
    },
    {
      "name": "株式会社高橋渓流",
      "name_kana": "",
      "business_type": "魚介類販売業",
      "address": "木曽郡南木曽町田立８４９－２",
      "lat": 35.60201443,
      "lng": 137.551700156,
      "geocoding_level": 8,
      "phone": "",
      "license_no": "第08140538号",
      "license_date": "2026-04-22",
      "expire_date": "2032-05-31"
    },
    {
      "name": "株式会社高橋渓流",
      "name_kana": "",
      "business_type": "そうざい製造業",
      "address": "木曽郡南木曽町田立８４９－２",
      "lat": 35.60201443,
      "lng": 137.551700156,
      "geocoding_level": 8,
      "phone": "",
      "license_no": "第08140545号",
      "license_date": "2026-04-22",
      "expire_date": "2032-05-31"
    },
    {
      "name": "guesthouse waku",
      "name_kana": "",
      "business_type": "飲食店営業",
      "address": "木曽郡南木曽町読書４５１８",
      "lat": 35.612861493,
      "lng": 137.616323749,
      "geocoding_level": 8,
      "phone": "",
      "license_no": "第08140577号",
      "license_date": "2026-05-19",
      "expire_date": "2032-05-31"
    },
    {
      "name": "TAOYA木曽路　1Fレストラン",
      "name_kana": "",
      "business_type": "飲食店営業",
      "address": "木曽郡南木曽町吾妻２２７８",
      "lat": 35.565104,
      "lng": 137.60396,
      "geocoding_level": 3,
      "phone": "",
      "license_no": "第08137047号",
      "license_date": "2025-05-30",
      "expire_date": "2031-05-31"
    },
    {
      "name": "ボン・プラン",
      "name_kana": "",
      "business_type": "菓子製造業",
      "address": "木曽郡南木曽町読書３４３６－１３",
      "lat": 35.623253,
      "lng": 137.631433,
      "geocoding_level": 3,
      "phone": "",
      "license_no": "第08116997号",
      "license_date": "2026-05-29",
      "expire_date": "2033-05-31"
    },
    {
      "name": "サンショップイシカワ",
      "name_kana": "",
      "business_type": "飲食店営業",
      "address": "木曽郡南木曽町読書３５１２",
      "lat": 35.623253,
      "lng": 137.631433,
      "geocoding_level": 3,
      "phone": "",
      "license_no": "第08105787号",
      "license_date": "2026-05-29",
      "expire_date": "2032-05-31"
    },
    {
      "name": "サンショップイシカワ",
      "name_kana": "",
      "business_type": "魚介類販売業",
      "address": "木曽郡南木曽町読書３５１２",
      "lat": 35.623253,
      "lng": 137.631433,
      "geocoding_level": 3,
      "phone": "",
      "license_no": "第08105794号",
      "license_date": "2026-05-29",
      "expire_date": "2032-05-31"
    },
    {
      "name": "サンショップイシカワ",
      "name_kana": "",
      "business_type": "食肉販売業",
      "address": "木曽郡南木曽町読書３５１２",
      "lat": 35.623253,
      "lng": 137.631433,
      "geocoding_level": 3,
      "phone": "",
      "license_no": "第08105805号",
      "license_date": "2026-05-29",
      "expire_date": "2032-05-31"
    },
    {
      "name": "えびや",
      "name_kana": "",
      "business_type": "飲食店営業",
      "address": "木曽郡南木曽町吾妻２１７６―１",
      "lat": 35.577918685,
      "lng": 137.595922336,
      "geocoding_level": 8,
      "phone": "",
      "license_no": "第08010556号",
      "license_date": "2026-05-29",
      "expire_date": "2031-05-31"
    },
    {
      "name": "下嵯峨屋",
      "name_kana": "",
      "business_type": "飲食店営業",
      "address": "木曽郡南木曽町吾妻８０５ー１",
      "lat": 35.575413158,
      "lng": 137.594771779,
      "geocoding_level": 8,
      "phone": "",
      "license_no": "第08011010号",
      "license_date": "2026-05-29",
      "expire_date": "2032-05-31"
    },
    {
      "name": "鈴屋",
      "name_kana": "",
      "business_type": "飲食店営業",
      "address": "木曽郡南木曽町吾妻２１７０―１",
      "lat": 35.57744113,
      "lng": 137.595660631,
      "geocoding_level": 8,
      "phone": "",
      "license_no": "第08011155号",
      "license_date": "2026-05-29",
      "expire_date": "2032-05-31"
    },
    {
      "name": "はなや",
      "name_kana": "",
      "business_type": "飲食店営業",
      "address": "木曽郡南木曽町吾妻１８１１",
      "lat": 35.565214006,
      "lng": 137.592965361,
      "geocoding_level": 8,
      "phone": "",
      "license_no": "第08011487号",
      "license_date": "2026-05-29",
      "expire_date": "2032-05-31"
    },
    {
      "name": "やまぎり食堂",
      "name_kana": "",
      "business_type": "飲食店営業",
      "address": "木曽郡南木曽町吾妻２１７９ー１",
      "lat": 35.578488625,
      "lng": 137.596056465,
      "geocoding_level": 8,
      "phone": "",
      "license_no": "第08101397号",
      "license_date": "2026-05-29",
      "expire_date": "2032-05-31"
    },
    {
      "name": "（有）丸正金沢屋",
      "name_kana": "",
      "business_type": "飲食店営業",
      "address": "木曽郡南木曽町読書３４２８－１４",
      "lat": 35.597895439,
      "lng": 137.608038027,
      "geocoding_level": 8,
      "phone": "",
      "license_no": "第08105748号",
      "license_date": "2026-05-29",
      "expire_date": "2032-05-31"
    },
    {
      "name": "（有）丸正金沢屋",
      "name_kana": "",
      "business_type": "魚介類販売業",
      "address": "木曽郡南木曽町読書３４２８－１４",
      "lat": 35.597895439,
      "lng": 137.608038027,
      "geocoding_level": 8,
      "phone": "",
      "license_no": "第08105755号",
      "license_date": "2026-05-29",
      "expire_date": "2032-05-31"
    },
    {
      "name": "（有）丸正金沢屋",
      "name_kana": "",
      "business_type": "食肉販売業",
      "address": "木曽郡南木曽町読書３４２８－１４",
      "lat": 35.597895439,
      "lng": 137.608038027,
      "geocoding_level": 8,
      "phone": "",
      "license_no": "第08105762号",
      "license_date": "2026-05-29",
      "expire_date": "2032-05-31"
    },
    {
      "name": "藤乙旅館",
      "name_kana": "",
      "business_type": "飲食店営業",
      "address": "木曽郡南木曽町吾妻８５８―１",
      "lat": 35.578068927,
      "lng": 137.595600668,
      "geocoding_level": 8,
      "phone": "",
      "license_no": "第08106000号",
      "license_date": "2026-05-29",
      "expire_date": "2031-05-31"
    },
    {
      "name": "滝見温泉　滝見の家",
      "name_kana": "",
      "business_type": "飲食店営業",
      "address": "木曽郡南木曽町吾妻４６８９ー４４７",
      "lat": 35.565936332,
      "lng": 137.665008572,
      "geocoding_level": 8,
      "phone": "",
      "license_no": "第08115871号",
      "license_date": "2026-05-29",
      "expire_date": "2031-05-31"
    },
    {
      "name": "黒木飲食店",
      "name_kana": "",
      "business_type": "飲食店営業",
      "address": "木曽郡南木曽町読書３３７８－２２",
      "lat": 35.595756962,
      "lng": 137.606763314,
      "geocoding_level": 8,
      "phone": "",
      "license_no": "第08116488号",
      "license_date": "2026-05-29",
      "expire_date": "2031-05-31"
    },
    {
      "name": "ワカナ",
      "name_kana": "",
      "business_type": "飲食店営業",
      "address": "木曽郡南木曽町田立３５－１",
      "lat": 35.586742492000006,
      "lng": 137.56323738,
      "geocoding_level": 8,
      "phone": "",
      "license_no": "第08117387号",
      "license_date": "2026-05-29",
      "expire_date": "2032-05-31"
    },
    {
      "name": "ホテル　富貴の森",
      "name_kana": "",
      "business_type": "飲食店営業",
      "address": "木曽郡南木曽町吾妻４６４４－７",
      "lat": 35.567109245,
      "lng": 137.667110468,
      "geocoding_level": 8,
      "phone": "",
      "license_no": "第08118375号",
      "license_date": "2026-05-29",
      "expire_date": "2032-05-31"
    },
    {
      "name": "つたむらや",
      "name_kana": "",
      "business_type": "飲食店営業",
      "address": "木曽郡南木曽町吾妻１４７９－１",
      "lat": 35.563726359,
      "lng": 137.592210331,
      "geocoding_level": 8,
      "phone": "",
      "license_no": "第08130228号",
      "license_date": "2026-05-29",
      "expire_date": "2032-05-31"
    },
    {
      "name": "松原養魚場",
      "name_kana": "",
      "business_type": "魚介類販売業",
      "address": "木曽郡南木曽町田立１８２８－１",
      "lat": 35.608775931,
      "lng": 137.547415375,
      "geocoding_level": 8,
      "phone": "",
      "license_no": "第08132290号",
      "license_date": "2026-05-29",
      "expire_date": "2031-05-31"
    },
    {
      "name": "南木曽会館",
      "name_kana": "",
      "business_type": "飲食店営業",
      "address": "木曽郡南木曽町吾妻５２－４",
      "lat": 35.589678745,
      "lng": 137.596596251,
      "geocoding_level": 8,
      "phone": "",
      "license_no": "第08132511号",
      "license_date": "2026-05-29",
      "expire_date": "2031-05-31"
    },
    {
      "name": "なつやけ工房　Ｍｕｔｓｕ　ｍｕｔｓｕ",
      "name_kana": "",
      "business_type": "菓子製造業",
      "address": "木曽郡南木曽町吾妻４６５０－５３",
      "lat": 35.562053385,
      "lng": 137.66737674,
      "geocoding_level": 8,
      "phone": "",
      "license_no": "第08134881号",
      "license_date": "2026-05-29",
      "expire_date": "2032-05-31"
    },
    {
      "name": "山川ファーム",
      "name_kana": "",
      "business_type": "飲食店営業",
      "address": "木曽郡南木曽町読書３９７４－３",
      "lat": 35.608300241,
      "lng": 137.609630567,
      "geocoding_level": 8,
      "phone": "",
      "license_no": "第08135912号",
      "license_date": "2026-05-29",
      "expire_date": "2031-05-31"
    },
    {
      "name": "?△〇",
      "name_kana": "",
      "business_type": "そうざい製造業",
      "address": "木曽郡南木曽町田立２０７",
      "lat": 35.591728548,
      "lng": 137.557179713,
      "geocoding_level": 8,
      "phone": "",
      "license_no": "第08137983号",
      "license_date": "2026-05-29",
      "expire_date": "2032-05-31"
    },
    {
      "name": "?△〇",
      "name_kana": "",
      "business_type": "飲食店営業",
      "address": "木曽郡南木曽町田立２０７",
      "lat": 35.591728548,
      "lng": 137.557179713,
      "geocoding_level": 8,
      "phone": "",
      "license_no": "第08137991号",
      "license_date": "2026-05-29",
      "expire_date": "2032-05-31"
    },
    {
      "name": "岩倉むらおこし組合",
      "name_kana": "イワクラムラオコシクミアイ",
      "business_type": "㉕ そうざい製造業",
      "address": "長野県木曽郡南木曽町読書２１２７－１０",
      "lat": 35.627658,
      "lng": 137.596328,
      "geocoding_level": null,
      "phone": "0264-57-3082",
      "license_no": "08138284",
      "license_date": "2021-07-20",
      "expire_date": "2028-05-31"
    },
    {
      "name": "大江戸温泉ホテル木曽路",
      "name_kana": "オオエドオンセンホテルキソジ",
      "business_type": "⑫ 自動販売機による販売業（コップ式自動販売機（自動洗浄・屋内設置）及び営業許可の対象となる自動販売機を除く）",
      "address": "長野県木曽郡南木曽町吾妻2278",
      "lat": 35.561561,
      "lng": 137.6176,
      "geocoding_level": null,
      "phone": "",
      "license_no": "",
      "license_date": null,
      "expire_date": null
    },
    {
      "name": "木曽農業協同組合　南木曽営農資材センター",
      "name_kana": "キソノウギョウキョウドウクミアイ　ナギソエイノウシザイセンター",
      "business_type": "⑧ 米穀類販売業",
      "address": "長野県木曽郡南木曽町読書和合3645-24",
      "lat": 35.627658,
      "lng": 137.596328,
      "geocoding_level": null,
      "phone": "0264-57-2032",
      "license_no": "",
      "license_date": null,
      "expire_date": null
    },
    {
      "name": "木村養蜂",
      "name_kana": "キムラヨウホウ",
      "business_type": "㉔ その他の食料品製造・加工業",
      "address": "長野県木曽郡南木曽町田立１１５６－５",
      "lat": 35.593533,
      "lng": 137.550816,
      "geocoding_level": null,
      "phone": "0573-75-4750",
      "license_no": "",
      "license_date": null,
      "expire_date": null
    },
    {
      "name": "南木曽町立南木曽小学校",
      "name_kana": "ナギソチョウリツナギソショウガッコウ",
      "business_type": "㉖ 集団給食施設",
      "address": "長野県木曽郡南木曽町読書３７５７－２",
      "lat": 35.605581,
      "lng": 137.612339,
      "geocoding_level": null,
      "phone": "0264-57-2004",
      "license_no": "",
      "license_date": null,
      "expire_date": null
    },
    {
      "name": "南木曽町立　南木曽中学校",
      "name_kana": "ナギソチョウリツ　ナギソチュウガッコウ",
      "business_type": "㉖ 集団給食施設",
      "address": "長野県木曽郡南木曽町読書２９４２－２",
      "lat": 35.597874,
      "lng": 137.605438,
      "geocoding_level": null,
      "phone": "0264-57-2043",
      "license_no": "",
      "license_date": null,
      "expire_date": null
    },
    {
      "name": "南木曽町立　なぎそこども園",
      "name_kana": "ナギソチョウリツ　ナギソコドモエン",
      "business_type": "㉖ 集団給食施設",
      "address": "長野県木曽郡南木曽町読書３９１２－３７",
      "lat": 35.606371,
      "lng": 137.609375,
      "geocoding_level": null,
      "phone": "0264-57-2324",
      "license_no": "",
      "license_date": null,
      "expire_date": null
    },
    {
      "name": "南木曽町立　なぎそこども園　蘭園",
      "name_kana": "ナギソチョウリツ　ナギソコドモエン　アララギエン",
      "business_type": "㉖ 集団給食施設",
      "address": "長野県木曽郡南木曽町吾妻３５６５",
      "lat": 35.561348,
      "lng": 137.629599,
      "geocoding_level": null,
      "phone": "0264-58-2332",
      "license_no": "",
      "license_date": null,
      "expire_date": null
    },
    {
      "name": "南木曽町立　田立保育園",
      "name_kana": "ナギソチョウリツ　タダチホイクエン",
      "business_type": "㉖ 集団給食施設",
      "address": "長野県木曽郡南木曽町田立１３５５",
      "lat": 35.620127,
      "lng": 137.537363,
      "geocoding_level": null,
      "phone": "0573-75-2158",
      "license_no": "",
      "license_date": null,
      "expire_date": null
    },
    {
      "name": "なぎそミツバツツジ祭り",
      "name_kana": "ナギソミツバツツジマツリ",
      "business_type": "① 飲食店営業",
      "address": "長野県木曽郡南木曽町読書２９３６－１",
      "lat": 35.599358,
      "lng": 137.605813,
      "geocoding_level": null,
      "phone": "0264-57-2001",
      "license_no": "08131052",
      "license_date": "2024-05-31",
      "expire_date": "2029-05-31"
    },
    {
      "name": "なぎそミツバツツジ祭り",
      "name_kana": "ナギソミツバツツジマツリ",
      "business_type": "① 飲食店営業",
      "address": "長野県木曽郡南木曽町読書２９３７－１９６",
      "lat": 35.602758,
      "lng": 137.604224,
      "geocoding_level": null,
      "phone": "0264-57-2001",
      "license_no": "08131060",
      "license_date": "2024-05-31",
      "expire_date": "2029-05-31"
    },
    {
      "name": "尾越トンネル大林組ＪＶ　日本フーズ",
      "name_kana": "オゴシトンネルオオバヤシグミジェーブイ　ニホンフーズ",
      "business_type": "① 飲食店営業",
      "address": "長野県木曽郡南木曽町吾妻尾越２３３３",
      "lat": 35.559006,
      "lng": 137.622546,
      "geocoding_level": null,
      "phone": "",
      "license_no": "08138341",
      "license_date": "2021-10-22",
      "expire_date": "2028-05-31"
    },
    {
      "name": "つたむらや",
      "name_kana": "ツタムラヤ",
      "business_type": "㉔ その他の食料品製造・加工業",
      "address": "長野県木曽郡南木曽町吾妻８４５",
      "lat": 35.5366,
      "lng": 137.635675,
      "geocoding_level": null,
      "phone": "0264-57-3235",
      "license_no": "",
      "license_date": null,
      "expire_date": null
    },
    {
      "name": "蘭焙煎所",
      "name_kana": "アララギバイセンジョ",
      "business_type": "⑯ コーヒー製造・加工業（飲料の製造を除く。）",
      "address": "長野県木曽郡南木曽町吾妻3226-3",
      "lat": 35.559782,
      "lng": 137.626281,
      "geocoding_level": null,
      "phone": "",
      "license_no": "",
      "license_date": null,
      "expire_date": null
    },
    {
      "name": "植村養蜂園",
      "name_kana": "ウエムラヨウホウエン",
      "business_type": "㉔ その他の食料品製造・加工業",
      "address": "長野県木曽郡南木曽町読書６２７",
      "lat": 35.634613,
      "lng": 137.646975,
      "geocoding_level": null,
      "phone": "0264-57-3650",
      "license_no": "",
      "license_date": null,
      "expire_date": null
    },
    {
      "name": "南木曽デイサービスセンター",
      "name_kana": "ナギソデイサービスセンター",
      "business_type": "㉖ 集団給食施設",
      "address": "長野県木曽郡南木曽町田立１４３－１",
      "lat": 35.588923,
      "lng": 137.560657,
      "geocoding_level": null,
      "phone": "0573-75-5006",
      "license_no": "",
      "license_date": null,
      "expire_date": null
    },
    {
      "name": "MAUKA LANI GOAT FARM",
      "name_kana": "マウカラニゴートファーム",
      "business_type": "⑬ その他の食料・飲料販売業",
      "address": "長野県木曽郡南木曽町吾妻4650-87",
      "lat": 35.56287,
      "lng": 137.668541,
      "geocoding_level": null,
      "phone": "",
      "license_no": "",
      "license_date": null,
      "expire_date": null
    },
    {
      "name": "中華そば　三殿社中",
      "name_kana": "チュウカソバ　ミドノシャチュウ",
      "business_type": "① 飲食店営業",
      "address": "長野県木曽郡南木曽町吾妻９８６－４",
      "lat": 35.575708,
      "lng": 137.593943,
      "geocoding_level": null,
      "phone": "080-7838-3608",
      "license_no": "08138619",
      "license_date": "2022-06-16",
      "expire_date": "2029-05-31"
    },
    {
      "name": "中華そば　三殿社中",
      "name_kana": "チュウカソバ　ミドノシャチュウ",
      "business_type": "㉔ 麺類製造業",
      "address": "長野県木曽郡南木曽町吾妻９８６－４",
      "lat": 35.575708,
      "lng": 137.593943,
      "geocoding_level": null,
      "phone": "080-7838-3608",
      "license_no": "08138626",
      "license_date": "2022-06-16",
      "expire_date": "2029-05-31"
    },
    {
      "name": "有限会社　恵北損保",
      "name_kana": "ユウゲンガイシャ　ケイホクソンポ",
      "business_type": "⑰ 農産保存食料品製造・加工業",
      "address": "長野県木曽郡南木曽町",
      "lat": 35.603807,
      "lng": 137.608961,
      "geocoding_level": null,
      "phone": "",
      "license_no": "",
      "license_date": null,
      "expire_date": null
    },
    {
      "name": "セブンイレブン南木曽町店",
      "name_kana": "セブンイレブンナギソマチテン",
      "business_type": "① 飲食店営業",
      "address": "長野県木曽郡南木曽町読書３６７１－２",
      "lat": 35.603956,
      "lng": 137.608429,
      "geocoding_level": null,
      "phone": "0264-57-3811",
      "license_no": "08138641",
      "license_date": "2022-07-13",
      "expire_date": "2028-05-31"
    },
    {
      "name": "セブンイレブン南木曽町店",
      "name_kana": "セブンイレブンナギソマチテン",
      "business_type": "⑩ コンビニエンスストア",
      "address": "長野県木曽郡南木曽町読書３６７１－２",
      "lat": 35.603956,
      "lng": 137.608429,
      "geocoding_level": null,
      "phone": "0264-57-3811",
      "license_no": "",
      "license_date": null,
      "expire_date": null
    },
    {
      "name": "おぐら",
      "name_kana": "オグラ",
      "business_type": "① 飲食店営業",
      "address": "長野県木曽郡南木曽町読書３６４０",
      "lat": 35.602109,
      "lng": 137.608284,
      "geocoding_level": null,
      "phone": "0264572021",
      "license_no": "08010660",
      "license_date": "2022-05-31",
      "expire_date": "2028-05-31"
    },
    {
      "name": "高麗園",
      "name_kana": "コウライエン",
      "business_type": "① 飲食店営業",
      "address": "長野県木曽郡南木曽町読書３９４１",
      "lat": 35.607278,
      "lng": 137.611433,
      "geocoding_level": null,
      "phone": "0264572207",
      "license_no": "08100159",
      "license_date": "2022-05-31",
      "expire_date": "2028-05-31"
    },
    {
      "name": "こおしん塚",
      "name_kana": "コオシンヅカ",
      "business_type": "① 飲食店営業",
      "address": "長野県木曽郡南木曽町吾妻１７７５",
      "lat": 35.561717,
      "lng": 137.59258,
      "geocoding_level": null,
      "phone": "0264573029",
      "license_no": "08126315",
      "license_date": "2022-05-31",
      "expire_date": "2028-05-31"
    },
    {
      "name": "おもて",
      "name_kana": "オモテ",
      "business_type": "① 飲食店営業",
      "address": "長野県木曽郡南木曽町吾妻２１９１－３",
      "lat": 35.577241,
      "lng": 137.59531,
      "geocoding_level": null,
      "phone": "0264572682",
      "license_no": "08135766",
      "license_date": "2022-05-31",
      "expire_date": "2028-05-31"
    },
    {
      "name": "山川ファーム",
      "name_kana": "ヤマカワファーム",
      "business_type": "① 飲食店営業",
      "address": "長野県木曽郡南木曽町読書３９７４－３",
      "lat": 35.608042,
      "lng": 137.609535,
      "geocoding_level": null,
      "phone": "",
      "license_no": "08135920",
      "license_date": "2022-05-31",
      "expire_date": "2028-05-31"
    },
    {
      "name": "山川ファーム",
      "name_kana": "ヤマカワファーム",
      "business_type": "① 飲食店営業",
      "address": "長野県木曽郡南木曽町県下一円",
      "lat": 35.603807,
      "lng": 137.608961,
      "geocoding_level": null,
      "phone": "",
      "license_no": "08137467",
      "license_date": "2025-05-30",
      "expire_date": "2030-05-31"
    },
    {
      "name": "山川ファーム",
      "name_kana": "ヤマカワファーム",
      "business_type": "⑲ 食用油脂製造業",
      "address": "長野県木曽郡南木曽町読書３９７４－３",
      "lat": 35.608042,
      "lng": 137.609535,
      "geocoding_level": null,
      "phone": "",
      "license_no": "08137008",
      "license_date": "2025-05-30",
      "expire_date": "2031-05-31"
    },
    {
      "name": "しんや",
      "name_kana": "シンヤ",
      "business_type": "① 飲食店営業",
      "address": "長野県木曽郡南木曽町吾妻８００－４",
      "lat": 35.57463,
      "lng": 137.595313,
      "geocoding_level": null,
      "phone": "0264573221",
      "license_no": "08121318",
      "license_date": "2022-05-31",
      "expire_date": "2027-05-31"
    },
    {
      "name": "岩倉村おこし組合",
      "name_kana": "イワクラムラオコシクミアイ",
      "business_type": "⑳ みそ又はしょうゆ製造業",
      "address": "長野県木曽郡南木曽町読書２１２７―１０",
      "lat": 35.627658,
      "lng": 137.596328,
      "geocoding_level": null,
      "phone": "0264572380",
      "license_no": "08114245",
      "license_date": "2022-05-31",
      "expire_date": "2028-05-31"
    },
    {
      "name": "峠の茶屋",
      "name_kana": "トウゲノチャヤ",
      "business_type": "⑬ その他の食料・飲料販売業",
      "address": "長野県木曽郡南木曽町吾妻1646-16",
      "lat": 35.539181,
      "lng": 137.584845,
      "geocoding_level": null,
      "phone": "",
      "license_no": "",
      "license_date": null,
      "expire_date": null
    },
    {
      "name": "手打ちそば　徳",
      "name_kana": "テウチソバ　トク",
      "business_type": "① 飲食店営業",
      "address": "長野県木曽郡南木曽町吾妻４４２０－１",
      "lat": 35.560539,
      "lng": 137.65278,
      "geocoding_level": null,
      "phone": "090-9301-1635",
      "license_no": "08138793",
      "license_date": "2022-10-14",
      "expire_date": "2029-05-31"
    },
    {
      "name": "岩井屋",
      "name_kana": "イワイヤ",
      "business_type": "⑦ 野菜果物販売業",
      "address": "長野県木曽郡南木曽町吾妻２１７３－１",
      "lat": 35.577524,
      "lng": 137.595735,
      "geocoding_level": null,
      "phone": "0264-57-3008",
      "license_no": "",
      "license_date": null,
      "expire_date": null
    },
    {
      "name": "俵屋　里久",
      "name_kana": "タワラヤ　リキュウ",
      "business_type": "① 飲食店営業",
      "address": "長野県木曽郡南木曽町吾妻２１８１－１",
      "lat": 35.5366,
      "lng": 137.635675,
      "geocoding_level": null,
      "phone": "0264-57-2522",
      "license_no": "08121752",
      "license_date": "2023-05-31",
      "expire_date": "2029-05-31"
    },
    {
      "name": "蝶家",
      "name_kana": "チョウヤ",
      "business_type": "① 飲食店営業",
      "address": "長野県木曽郡南木曽町吾妻２２８５－１",
      "lat": 35.560617,
      "lng": 137.622533,
      "geocoding_level": null,
      "phone": "0264-58-2175",
      "license_no": "08121866",
      "license_date": "2023-05-31",
      "expire_date": "2029-05-31"
    },
    {
      "name": "峠の茶屋",
      "name_kana": "トウゲノチャヤ",
      "business_type": "① 飲食店営業",
      "address": "長野県木曽郡南木曽町吾妻１６４６－１６",
      "lat": 35.539167,
      "lng": 137.584826,
      "geocoding_level": null,
      "phone": "0573-69-2501",
      "license_no": "08136696",
      "license_date": "2023-05-31",
      "expire_date": "2029-05-31"
    },
    {
      "name": "工芸街通り祭　蘭桧笠の家",
      "name_kana": "コウゲイガイトウリマツリ　アララギヒノキカサノイエ",
      "business_type": "① 飲食店営業",
      "address": "長野県木曽郡南木曽町吾妻３９００番地",
      "lat": 35.557604,
      "lng": 137.633498,
      "geocoding_level": null,
      "phone": "0264-57-2001",
      "license_no": "08134696",
      "license_date": "2023-05-31",
      "expire_date": "2028-05-31"
    },
    {
      "name": "（株）高橋渓流",
      "name_kana": "カブシキガイシャ　タカハシケイリュウ",
      "business_type": "① 飲食店営業",
      "address": "長野県木曽郡南木曽町田立８４８－１",
      "lat": 35.602074,
      "lng": 137.551714,
      "geocoding_level": null,
      "phone": "0573-75-4404",
      "license_no": "08121948",
      "license_date": "2023-05-31",
      "expire_date": "2029-05-31"
    },
    {
      "name": "ふくすけ",
      "name_kana": "フクスケ",
      "business_type": "① 飲食店営業",
      "address": "長野県木曽郡南木曽町読書３４６６－１",
      "lat": 35.599136,
      "lng": 137.608026,
      "geocoding_level": null,
      "phone": "0264-57-2411",
      "license_no": "08136568",
      "license_date": "2023-05-31",
      "expire_date": "2029-05-31"
    },
    {
      "name": "木ノ花屋",
      "name_kana": "コノハナヤ",
      "business_type": "① 飲食店営業",
      "address": "長野県木曽郡南木曽町吾妻２１７７",
      "lat": 35.578199,
      "lng": 137.595992,
      "geocoding_level": null,
      "phone": "0264-57-3228",
      "license_no": "08121721",
      "license_date": "2023-05-31",
      "expire_date": "2029-05-31"
    },
    {
      "name": "Cafe yew",
      "name_kana": "カフェ　ユー",
      "business_type": "① 飲食店営業",
      "address": "長野県木曽郡南木曽町吾妻２３００番地",
      "lat": 35.560322,
      "lng": 137.621637,
      "geocoding_level": null,
      "phone": "0264-24-0779",
      "license_no": "08136238",
      "license_date": "2023-05-31",
      "expire_date": "2029-05-31"
    },
    {
      "name": "cafe　yew",
      "name_kana": "カフェ　ユー",
      "business_type": "① 飲食店営業",
      "address": "長野県木曽郡南木曽町吾妻２３００番地",
      "lat": 35.560322,
      "lng": 137.621637,
      "geocoding_level": null,
      "phone": "0264-24-0779",
      "license_no": "08139895",
      "license_date": "2024-09-25",
      "expire_date": "2030-05-31"
    },
    {
      "name": "特別養護老人ホーム　木曽あすなろ荘",
      "name_kana": "トクベツヨウゴロウジンホーム　キソアスナロソウ",
      "business_type": "① 飲食店営業",
      "address": "長野県木曽郡南木曽町田立１５０－１",
      "lat": 35.588916,
      "lng": 137.559336,
      "geocoding_level": null,
      "phone": "",
      "license_no": "08136511",
      "license_date": "2023-05-31",
      "expire_date": "2029-05-31"
    },
    {
      "name": "つたむらや酒造",
      "name_kana": "ツタムラヤシュゾウ",
      "business_type": "㉑ 酒類製造業",
      "address": "長野県木曽郡南木曽町吾妻１４８１－５",
      "lat": 35.56351,
      "lng": 137.592142,
      "geocoding_level": null,
      "phone": "0264-57-3235",
      "license_no": "08132688",
      "license_date": "2023-05-31",
      "expire_date": "2029-05-31"
    },
    {
      "name": "カフェこころ",
      "name_kana": "カフェココロ",
      "business_type": "① 飲食店営業",
      "address": "長野県木曽郡南木曽町読書３６４３－７",
      "lat": 35.602597,
      "lng": 137.608623,
      "geocoding_level": null,
      "phone": "0264-57-2525",
      "license_no": "08139265",
      "license_date": "2023-08-08",
      "expire_date": "2030-05-31"
    },
    {
      "name": "アサイ",
      "name_kana": "アサイ",
      "business_type": "① 飲食店営業",
      "address": "長野県木曽郡南木曽町",
      "lat": 35.603807,
      "lng": 137.608961,
      "geocoding_level": null,
      "phone": "",
      "license_no": "08140125",
      "license_date": "2025-06-05",
      "expire_date": "2031-05-31"
    },
    {
      "name": "こづちや",
      "name_kana": "コヅチヤ",
      "business_type": "① 飲食店営業",
      "address": "長野県木曽郡南木曽町吾妻２１７９－１",
      "lat": 35.578442,
      "lng": 137.596106,
      "geocoding_level": null,
      "phone": "0264-57-3175",
      "license_no": "08139540",
      "license_date": "2023-12-12",
      "expire_date": "2030-05-31"
    },
    {
      "name": "栃山明日香",
      "name_kana": "トチヤマアスカ",
      "business_type": "⑬ その他の食料・飲料販売業",
      "address": "長野県木曽郡南木曽町読書１３７",
      "lat": 35.647419,
      "lng": 137.656339,
      "geocoding_level": null,
      "phone": "",
      "license_no": "",
      "license_date": null,
      "expire_date": null
    },
    {
      "name": "Life stationゆめのう香",
      "name_kana": "ライフステーションユメノウカ",
      "business_type": "⑬ その他の食料・飲料販売業",
      "address": "長野県木曽郡南木曽町読書６２７",
      "lat": 35.634613,
      "lng": 137.646975,
      "geocoding_level": null,
      "phone": "",
      "license_no": "",
      "license_date": null,
      "expire_date": null
    },
    {
      "name": "田立製茶工場",
      "name_kana": "タダチセイチャコウジョウ",
      "business_type": "㉑ 製茶業",
      "address": "長野県木曽郡南木曽町田立１４２６－１",
      "lat": 35.589114,
      "lng": 137.548343,
      "geocoding_level": null,
      "phone": "0573-75-5080",
      "license_no": "",
      "license_date": null,
      "expire_date": null
    },
    {
      "name": "TAOYA木曽路　ラウンジパントリー",
      "name_kana": "タオヤキソジ　ラウンジパントリー",
      "business_type": "① 飲食店営業",
      "address": "長野県木曽郡南木曽町吾妻２２７８",
      "lat": 35.561699,
      "lng": 137.617556,
      "geocoding_level": null,
      "phone": "0264-58-1236",
      "license_no": "08139614",
      "license_date": "2024-03-26",
      "expire_date": "2030-05-31"
    },
    {
      "name": "TAOYA木曽路　2F厨房",
      "name_kana": "タオヤキソジ　ニエフチュウボウ",
      "business_type": "① 飲食店営業",
      "address": "長野県木曽郡南木曽町吾妻２２７８",
      "lat": 35.561561,
      "lng": 137.6176,
      "geocoding_level": null,
      "phone": "",
      "license_no": "08137054",
      "license_date": "2025-05-30",
      "expire_date": "2031-05-31"
    },
    {
      "name": "TAOYA木曽路　1Fレストラン",
      "name_kana": "タオヤキソジ　イチエフレストラン",
      "business_type": "① 飲食店営業",
      "address": "長野県木曽郡南木曽町吾妻２２７８",
      "lat": 35.561561,
      "lng": 137.6176,
      "geocoding_level": null,
      "phone": "",
      "license_no": "08137047",
      "license_date": "2025-05-30",
      "expire_date": "2031-05-31"
    },
    {
      "name": "お宿　すずめ",
      "name_kana": "オヤド　スズメ",
      "business_type": "① 飲食店営業",
      "address": "長野県木曽郡南木曽町読書２３６９―８",
      "lat": 35.641332,
      "lng": 137.595362,
      "geocoding_level": null,
      "phone": "0264-24-0996",
      "license_no": "08011148",
      "license_date": "2022-05-31",
      "expire_date": "2028-05-31"
    },
    {
      "name": "渓谷の宿　いち川",
      "name_kana": "ケイコクノヤド　イチカワ",
      "business_type": "① 飲食店営業",
      "address": "長野県木曽郡南木曽町読書１３８０－6",
      "lat": 35.653836,
      "lng": 137.606483,
      "geocoding_level": null,
      "phone": "0264-57-2655",
      "license_no": "08118973",
      "license_date": "2023-05-31",
      "expire_date": "2029-05-31"
    },
    {
      "name": "DEAR　DEER",
      "name_kana": "ディア　ディア",
      "business_type": "① 飲食店営業",
      "address": "長野県木曽郡南木曽町吾妻",
      "lat": 35.5366,
      "lng": 137.635675,
      "geocoding_level": null,
      "phone": "",
      "license_no": "08139824",
      "license_date": "2024-06-25",
      "expire_date": "2030-05-31"
    },
    {
      "name": "音吉　新館",
      "name_kana": "オトキチ　シンカン",
      "business_type": "① 飲食店営業",
      "address": "長野県木曽郡南木曽町吾妻１２２３－１",
      "lat": 35.570721,
      "lng": 137.592543,
      "geocoding_level": null,
      "phone": "0264573600",
      "license_no": "08120391",
      "license_date": "2024-05-31",
      "expire_date": "2031-05-31"
    },
    {
      "name": "御食事処　音吉",
      "name_kana": "オショクジドコロ　オトキチ",
      "business_type": "① 飲食店営業",
      "address": "長野県木曽郡南木曽町吾妻１２２３―１",
      "lat": 35.570721,
      "lng": 137.592543,
      "geocoding_level": null,
      "phone": "0264-57-3600",
      "license_no": "08109052",
      "license_date": "2025-05-30",
      "expire_date": "2031-05-31"
    },
    {
      "name": "桃介亭",
      "name_kana": "モモスケテイ",
      "business_type": "① 飲食店営業",
      "address": "長野県木曽郡南木曽町読書２９４１－７",
      "lat": 35.599368,
      "lng": 137.605807,
      "geocoding_level": null,
      "phone": "",
      "license_no": "08136601",
      "license_date": "2024-05-31",
      "expire_date": "2030-05-31"
    },
    {
      "name": "萬屋",
      "name_kana": "マンヤ",
      "business_type": "① 飲食店営業",
      "address": "長野県木曽郡南木曽町吾妻４５５４－１",
      "lat": 35.559177,
      "lng": 137.656372,
      "geocoding_level": null,
      "phone": "0264-24-0787",
      "license_no": "08136632",
      "license_date": "2024-05-31",
      "expire_date": "2030-05-31"
    },
    {
      "name": "あづまや",
      "name_kana": "アヅマヤ",
      "business_type": "① 飲食店営業",
      "address": "長野県木曽郡南木曽町読書３６４０－１",
      "lat": 35.602272,
      "lng": 137.608683,
      "geocoding_level": null,
      "phone": "090-2577-3235",
      "license_no": "08139888",
      "license_date": "2024-08-27",
      "expire_date": "2031-05-31"
    },
    {
      "name": "はんだ屋",
      "name_kana": "ハンダヤ",
      "business_type": "① 飲食店営業",
      "address": "長野県木曽郡南木曽町読書３９９２－１",
      "lat": 35.608433,
      "lng": 137.611372,
      "geocoding_level": null,
      "phone": "0264-57-2377",
      "license_no": "08139945",
      "license_date": "2024-11-13",
      "expire_date": "2031-05-31"
    },
    {
      "name": "はんだ屋",
      "name_kana": "ハンダヤ",
      "business_type": "① 飲食店営業",
      "address": "長野県木曽郡南木曽町",
      "lat": 35.603807,
      "lng": 137.608961,
      "geocoding_level": null,
      "phone": "0264-57-2377",
      "license_no": "08140328",
      "license_date": "2025-10-16",
      "expire_date": "2031-05-31"
    },
    {
      "name": "アトリエキッチン 　S．japan",
      "name_kana": "アトリエキッチン　エスジャパン",
      "business_type": "㉕ そうざい製造業",
      "address": "長野県木曽郡南木曽町読書４１８３－２",
      "lat": 35.608214,
      "lng": 137.611652,
      "geocoding_level": null,
      "phone": "0264-57-2363",
      "license_no": "08139991",
      "license_date": "2025-02-25",
      "expire_date": "2031-05-31"
    },
    {
      "name": "アトリエキッチン　Ｓ．japan",
      "name_kana": "アトリエキッチン　エスジャパン",
      "business_type": "① 飲食店営業",
      "address": "長野県木曽郡南木曽町読書４１８３－２",
      "lat": 35.608214,
      "lng": 137.611652,
      "geocoding_level": null,
      "phone": "0264-57-2363",
      "license_no": "08140004",
      "license_date": "2025-02-25",
      "expire_date": "2031-05-31"
    },
    {
      "name": "たこやき　なまら",
      "name_kana": "タコヤキ　ナマラ",
      "business_type": "① 飲食店営業",
      "address": "長野県木曽郡南木曽町",
      "lat": 35.603807,
      "lng": 137.608961,
      "geocoding_level": null,
      "phone": "",
      "license_no": "08140011",
      "license_date": "2025-03-07",
      "expire_date": "2030-05-31"
    },
    {
      "name": "恋野bakery",
      "name_kana": "コイノベーカリー",
      "business_type": "⑪ 菓子製造業",
      "address": "長野県木曽郡南木曽町吾妻８４４－３",
      "lat": 35.577475,
      "lng": 137.594489,
      "geocoding_level": null,
      "phone": "",
      "license_no": "08140029",
      "license_date": "2025-03-26",
      "expire_date": "2031-05-31"
    },
    {
      "name": "恋野bakery",
      "name_kana": "コイノベーカリー",
      "business_type": "⑪ 菓子製造業",
      "address": "長野県木曽郡南木曽町吾妻８４４－３",
      "lat": 35.577475,
      "lng": 137.594489,
      "geocoding_level": null,
      "phone": "",
      "license_no": "08140036",
      "license_date": "2025-03-26",
      "expire_date": "2031-05-31"
    },
    {
      "name": "雨　中山道",
      "name_kana": "アメ　ナカセンドウ",
      "business_type": "① 飲食店営業",
      "address": "長野県木曽郡南木曽町読書３３５２",
      "lat": 35.627658,
      "lng": 137.596328,
      "geocoding_level": null,
      "phone": "080-6808-5195",
      "license_no": "08140068",
      "license_date": "2025-04-16",
      "expire_date": "2031-05-31"
    },
    {
      "name": "木曽街道ビール",
      "name_kana": "キソカイドウビール",
      "business_type": "① 飲食店営業",
      "address": "長野県木曽郡南木曽町",
      "lat": 35.603807,
      "lng": 137.608961,
      "geocoding_level": null,
      "phone": "",
      "license_no": "08140118",
      "license_date": "2025-05-28",
      "expire_date": "2030-05-31"
    },
    {
      "name": "ピエロ",
      "name_kana": "ピエロ",
      "business_type": "① 飲食店営業",
      "address": "長野県木曽郡南木曽町読書３５９２－８",
      "lat": 35.600772,
      "lng": 137.607863,
      "geocoding_level": null,
      "phone": "0264-57-2093",
      "license_no": "08116253",
      "license_date": "2025-05-30",
      "expire_date": "2031-05-31"
    },
    {
      "name": "神戸クラブ",
      "name_kana": "ゴウドクラブ",
      "business_type": "① 飲食店営業",
      "address": "長野県木曽郡南木曽町県下一円",
      "lat": 35.603807,
      "lng": 137.608961,
      "geocoding_level": null,
      "phone": "",
      "license_no": "08137710",
      "license_date": "2025-05-30",
      "expire_date": "2030-05-31"
    },
    {
      "name": "Zenagi",
      "name_kana": "ゼナギ",
      "business_type": "① 飲食店営業",
      "address": "長野県木曽郡南木曽町田立２０７、２２２、２２３－１",
      "lat": 35.59178,
      "lng": 137.557145,
      "geocoding_level": null,
      "phone": "",
      "license_no": "08137271",
      "license_date": "2025-05-30",
      "expire_date": "2031-05-31"
    },
    {
      "name": "松代屋",
      "name_kana": "マツシロヤ",
      "business_type": "① 飲食店営業",
      "address": "長野県木曽郡南木曽町吾妻８０７",
      "lat": 35.5366,
      "lng": 137.635675,
      "geocoding_level": null,
      "phone": "0264-57-3022",
      "license_no": "08103341",
      "license_date": "2025-05-30",
      "expire_date": "2031-05-31"
    },
    {
      "name": "波奈屋　新館",
      "name_kana": "ハナヤ　シンカン",
      "business_type": "① 飲食店営業",
      "address": "長野県木曽郡南木曽町吾妻１８１２－３",
      "lat": 35.565326,
      "lng": 137.593208,
      "geocoding_level": null,
      "phone": "0264-57-3106",
      "license_no": "08124314",
      "license_date": "2025-05-30",
      "expire_date": "2031-05-31"
    },
    {
      "name": "金剛屋",
      "name_kana": "コンゴウヤ",
      "business_type": "① 飲食店営業",
      "address": "長野県木曽郡南木曽町吾妻１７８５－３",
      "lat": 35.565054,
      "lng": 137.593037,
      "geocoding_level": null,
      "phone": "0264-57-3116",
      "license_no": "08124271",
      "license_date": "2025-05-30",
      "expire_date": "2031-05-31"
    },
    {
      "name": "蔦屋製菓舗",
      "name_kana": "ツタヤセイカホ",
      "business_type": "⑪ 菓子製造業",
      "address": "長野県木曽郡南木曽町読書３４３６ー２６",
      "lat": 35.597603,
      "lng": 137.607408,
      "geocoding_level": null,
      "phone": "0264-57-2069",
      "license_no": "08000205",
      "license_date": "2025-05-30",
      "expire_date": "2030-05-31"
    },
    {
      "name": "遠山菓子店",
      "name_kana": "トオヤマカシテン",
      "business_type": "⑪ 菓子製造業",
      "address": "長野県木曽郡南木曽町読書４０２８―１",
      "lat": 35.609891,
      "lng": 137.61214,
      "geocoding_level": null,
      "phone": "0264-57-2209",
      "license_no": "08110203",
      "license_date": "2025-05-30",
      "expire_date": "2031-05-31"
    },
    {
      "name": "カフェ　いずみや",
      "name_kana": "カフェ　イズミヤ",
      "business_type": "① 飲食店営業",
      "address": "長野県木曽郡南木曽町読書３４６５－２",
      "lat": 35.598807,
      "lng": 137.608033,
      "geocoding_level": null,
      "phone": "0264-57-2482",
      "license_no": "08136067",
      "license_date": "2022-05-31",
      "expire_date": "2028-05-31"
    },
    {
      "name": "なぎのこ",
      "name_kana": "ナギノコ",
      "business_type": "① 飲食店営業",
      "address": "長野県木曽郡南木曽町",
      "lat": 35.603807,
      "lng": 137.608961,
      "geocoding_level": null,
      "phone": "",
      "license_no": "08140374",
      "license_date": "2025-10-31",
      "expire_date": "2031-05-31"
    },
    {
      "name": "やきそば　あっちゃん",
      "name_kana": "ヤキソバ　アッチャン",
      "business_type": "① 飲食店営業",
      "address": "長野県木曽郡南木曽町",
      "lat": 35.603807,
      "lng": 137.608961,
      "geocoding_level": null,
      "phone": "",
      "license_no": "08140381",
      "license_date": "2025-10-31",
      "expire_date": "2031-05-31"
    },
    {
      "name": "山下屋",
      "name_kana": "ヤマシタヤ",
      "business_type": "① 飲食店営業",
      "address": "長野県木曽郡南木曽町田立１３８３－１",
      "lat": 35.589856,
      "lng": 137.551124,
      "geocoding_level": null,
      "phone": "0573752200",
      "license_no": "08124022",
      "license_date": "2022-05-31",
      "expire_date": "2029-05-31"
    },
    {
      "name": "山下屋",
      "name_kana": "ヤマシタヤ",
      "business_type": "④ 魚介類販売業",
      "address": "長野県木曽郡南木曽町田立１３８３－１",
      "lat": 35.589856,
      "lng": 137.551124,
      "geocoding_level": null,
      "phone": "0573-75-2200",
      "license_no": "08124030",
      "license_date": "2025-05-30",
      "expire_date": "2031-05-31"
    },
    {
      "name": "ａｉａｉ　ＫＩＴＣＨＥＮ",
      "name_kana": "アイアイ　キッチン",
      "business_type": "① 飲食店営業",
      "address": "長野県木曽郡南木曽町",
      "lat": 35.603807,
      "lng": 137.608961,
      "geocoding_level": null,
      "phone": "",
      "license_no": "08140488",
      "license_date": "2026-03-06",
      "expire_date": "2031-05-31"
    },
    {
      "name": "中村屋",
      "name_kana": "ナカムラヤ",
      "business_type": "① 飲食店営業",
      "address": "長野県木曽郡南木曽町吾妻２１８４－３",
      "lat": 35.577843,
      "lng": 137.595684,
      "geocoding_level": null,
      "phone": "090-7911-1262",
      "license_no": "08140495",
      "license_date": "2026-03-11",
      "expire_date": "2032-05-31"
    }
  ]
}
