{
  "meta": {
    "updated": 1783906731,
    "sources": [
      {
        "source": "鹿児島県 鹿児島県食品営業許可施設一覧",
        "license": "Creative Commons Attribution 4.0 International"
      },
      {
        "source": "厚生労働省 食品衛生申請等システム（オープンデータ）",
        "license": "公共データ利用規約（第1.0版, PDL1.0）"
      }
    ]
  },
  "data": [
    {
      "name": "有限会社ニースカンパニー",
      "name_kana": "",
      "business_type": "飲食店営業（一般食堂・ﾚｽﾄﾗﾝ等）",
      "address": "姶良郡湧水町川西２６３",
      "lat": 32.008533,
      "lng": 130.726058,
      "geocoding_level": 3,
      "phone": "",
      "license_no": "第034-000020号",
      "license_date": null,
      "expire_date": "2028-04-30"
    },
    {
      "name": "境田　キミ子",
      "name_kana": "",
      "business_type": "飲食店営業（その他）",
      "address": "姶良郡湧水町川西７４８－１",
      "lat": 32.016259242,
      "lng": 130.738936655,
      "geocoding_level": 8,
      "phone": "",
      "license_no": "第034-000021号",
      "license_date": null,
      "expire_date": "2028-04-30"
    },
    {
      "name": "境田　キミ子",
      "name_kana": "",
      "business_type": "食肉販売業",
      "address": "姶良郡湧水町川西７４８－１",
      "lat": 32.016259242,
      "lng": 130.738936655,
      "geocoding_level": 8,
      "phone": "",
      "license_no": "第034-000022号",
      "license_date": null,
      "expire_date": "2028-04-30"
    },
    {
      "name": "境田　キミ子",
      "name_kana": "",
      "business_type": "魚介類販売業",
      "address": "姶良郡湧水町川西７４８－１",
      "lat": 32.016259242,
      "lng": 130.738936655,
      "geocoding_level": 8,
      "phone": "",
      "license_no": "第034-000023号",
      "license_date": null,
      "expire_date": "2028-04-30"
    },
    {
      "name": "山口　洋一",
      "name_kana": "",
      "business_type": "飲食店営業（一般食堂・ﾚｽﾄﾗﾝ等）",
      "address": "姶良郡湧水町川添１８７０",
      "lat": 31.981996,
      "lng": 130.762136,
      "geocoding_level": 3,
      "phone": "",
      "license_no": "第034-000024号",
      "license_date": null,
      "expire_date": "2028-04-30"
    },
    {
      "name": "大正観光株式会社",
      "name_kana": "",
      "business_type": "飲食店営業（一般食堂・ﾚｽﾄﾗﾝ等）",
      "address": "姶良郡湧水町米永１８１－２",
      "lat": 31.946255208,
      "lng": 130.71093872,
      "geocoding_level": 8,
      "phone": "",
      "license_no": "第034-000025号",
      "license_date": null,
      "expire_date": "2028-04-30"
    },
    {
      "name": "有限会社　いまむら",
      "name_kana": "",
      "business_type": "飲食店営業（その他）",
      "address": "姶良郡湧水町北方１２７９－１",
      "lat": 31.954088853,
      "lng": 130.711657616,
      "geocoding_level": 8,
      "phone": "",
      "license_no": "第034-000026号",
      "license_date": null,
      "expire_date": "2028-04-30"
    },
    {
      "name": "有限会社　いまむら",
      "name_kana": "",
      "business_type": "食肉販売業",
      "address": "姶良郡湧水町北方１２７９－１",
      "lat": 31.954088853,
      "lng": 130.711657616,
      "geocoding_level": 8,
      "phone": "",
      "license_no": "第034-000027号",
      "license_date": null,
      "expire_date": "2028-04-30"
    },
    {
      "name": "中村　裕二",
      "name_kana": "",
      "business_type": "飲食店営業（その他）",
      "address": "姶良郡湧水町木場１５３－１",
      "lat": 31.952203739000005,
      "lng": 130.723716349,
      "geocoding_level": 8,
      "phone": "",
      "license_no": "第034-000028号",
      "license_date": null,
      "expire_date": "2028-04-30"
    },
    {
      "name": "内海　順",
      "name_kana": "",
      "business_type": "飲食店営業（その他）",
      "address": "姶良郡湧水町木場３５４０－７ （鹿児島市を除く県内一円）",
      "lat": 31.939502663000003,
      "lng": 130.733846623,
      "geocoding_level": 8,
      "phone": "",
      "license_no": "第034-000029号",
      "license_date": null,
      "expire_date": "2027-04-30"
    },
    {
      "name": "有限会社　エミ企画",
      "name_kana": "",
      "business_type": "飲食店営業（その他）",
      "address": "姶良郡湧水町木場６７７",
      "lat": 31.934769,
      "lng": 130.760682,
      "geocoding_level": 3,
      "phone": "",
      "license_no": "第034-000030号",
      "license_date": null,
      "expire_date": "2027-04-30"
    },
    {
      "name": "園田　高弘",
      "name_kana": "",
      "business_type": "食肉販売業",
      "address": "姶良郡湧水町木場９０２",
      "lat": 31.934769,
      "lng": 130.760682,
      "geocoding_level": 3,
      "phone": "",
      "license_no": "第034-000031号",
      "license_date": null,
      "expire_date": "2028-04-30"
    },
    {
      "name": "立野　房代",
      "name_kana": "",
      "business_type": "そうざい製造業",
      "address": "姶良郡湧水町北方２５００－イ",
      "lat": 31.968087,
      "lng": 130.722394,
      "geocoding_level": 3,
      "phone": "",
      "license_no": "第034-000129号",
      "license_date": null,
      "expire_date": "2028-04-30"
    },
    {
      "name": "西迫　千鶴",
      "name_kana": "",
      "business_type": "菓子製造業",
      "address": "姶良郡湧水町田尾原３７７－３",
      "lat": 31.967091054,
      "lng": 130.69785317,
      "geocoding_level": 8,
      "phone": "",
      "license_no": "第034-000171号",
      "license_date": null,
      "expire_date": "2028-04-30"
    },
    {
      "name": "西迫　千鶴",
      "name_kana": "",
      "business_type": "そうざい製造業",
      "address": "姶良郡湧水町田尾原３７７－３",
      "lat": 31.967091054,
      "lng": 130.69785317,
      "geocoding_level": 8,
      "phone": "",
      "license_no": "第034-000177号",
      "license_date": null,
      "expire_date": "2028-04-30"
    },
    {
      "name": "立野　房代",
      "name_kana": "",
      "business_type": "菓子製造業",
      "address": "姶良郡湧水町北方２５００－イ",
      "lat": 31.968087,
      "lng": 130.722394,
      "geocoding_level": 3,
      "phone": "",
      "license_no": "第034-000186号",
      "license_date": null,
      "expire_date": "2028-07-31"
    },
    {
      "name": "上野　正子",
      "name_kana": "",
      "business_type": "そうざい製造業",
      "address": "姶良郡湧水町北方１５９７－１",
      "lat": 31.960158660000005,
      "lng": 130.704684599,
      "geocoding_level": 8,
      "phone": "",
      "license_no": "第034-000210号",
      "license_date": null,
      "expire_date": "2028-07-31"
    },
    {
      "name": "桑畑　来美",
      "name_kana": "",
      "business_type": "菓子製造業",
      "address": "姶良郡湧水町川添１９１５",
      "lat": 31.981996,
      "lng": 130.762136,
      "geocoding_level": 3,
      "phone": "",
      "license_no": "第034-000220号",
      "license_date": null,
      "expire_date": "2028-07-31"
    },
    {
      "name": "桑畑　来美",
      "name_kana": "",
      "business_type": "漬物製造業",
      "address": "姶良郡湧水町川添１９１５",
      "lat": 31.981996,
      "lng": 130.762136,
      "geocoding_level": 3,
      "phone": "",
      "license_no": "第034-000221号",
      "license_date": null,
      "expire_date": "2028-07-31"
    },
    {
      "name": "濵﨑　房子",
      "name_kana": "",
      "business_type": "漬物製造業",
      "address": "姶良郡湧水町幸田３２５",
      "lat": 31.935201335999995,
      "lng": 130.681399995,
      "geocoding_level": 8,
      "phone": "",
      "license_no": "第034-000222号",
      "license_date": null,
      "expire_date": "2028-07-31"
    },
    {
      "name": "竹野　愛",
      "name_kana": "",
      "business_type": "みそ又はしょうゆ製造業",
      "address": "姶良郡湧水町北方４７９－２",
      "lat": 31.957492313,
      "lng": 130.725198807,
      "geocoding_level": 8,
      "phone": "",
      "license_no": "第034-000250号",
      "license_date": null,
      "expire_date": "2028-07-31"
    },
    {
      "name": "西園　博",
      "name_kana": "",
      "business_type": "食肉販売業",
      "address": "姶良郡湧水町川西字神田５８２－１８",
      "lat": 32.008533,
      "lng": 130.726058,
      "geocoding_level": 3,
      "phone": "",
      "license_no": "第034-000259号",
      "license_date": null,
      "expire_date": "2028-07-31"
    },
    {
      "name": "竹中　真弓",
      "name_kana": "",
      "business_type": "魚介類販売業",
      "address": "姶良郡湧水町川添１０２８－２",
      "lat": 31.995896584000004,
      "lng": 130.756453854,
      "geocoding_level": 8,
      "phone": "",
      "license_no": "第034-000260号",
      "license_date": null,
      "expire_date": "2027-07-31"
    },
    {
      "name": "竹中　真弓",
      "name_kana": "",
      "business_type": "そうざい製造業",
      "address": "姶良郡湧水町川添１０２８－２",
      "lat": 31.995896584000004,
      "lng": 130.756453854,
      "geocoding_level": 8,
      "phone": "",
      "license_no": "第034-000261号",
      "license_date": null,
      "expire_date": "2027-07-31"
    },
    {
      "name": "馬場　タヅ子",
      "name_kana": "",
      "business_type": "飲食店営業（旅館）",
      "address": "姶良郡湧水町般若寺４２",
      "lat": 32.041894,
      "lng": 130.72254700000002,
      "geocoding_level": 3,
      "phone": "",
      "license_no": "第034-000264号",
      "license_date": null,
      "expire_date": "2028-07-31"
    },
    {
      "name": "松元　博子",
      "name_kana": "",
      "business_type": "飲食店営業（一般食堂・ﾚｽﾄﾗﾝ等）",
      "address": "姶良郡湧水町木場６３４３－１２ 霧島アート牧場地内",
      "lat": 31.936854385,
      "lng": 130.781009807,
      "geocoding_level": 8,
      "phone": "",
      "license_no": "第034-000359号",
      "license_date": null,
      "expire_date": "2028-07-31"
    },
    {
      "name": "新園　篤行",
      "name_kana": "",
      "business_type": "飲食店営業（その他）",
      "address": "姶良郡湧水町北方１８１８－３ （鹿児島市を除く県内一円）",
      "lat": 31.957588485999995,
      "lng": 130.7150711,
      "geocoding_level": 8,
      "phone": "",
      "license_no": "第034-000368号",
      "license_date": null,
      "expire_date": "2027-07-31"
    },
    {
      "name": "柿木　公貴",
      "name_kana": "",
      "business_type": "飲食店営業（一般食堂・ﾚｽﾄﾗﾝ等）",
      "address": "姶良郡湧水町木場２５０－１",
      "lat": 31.950537393,
      "lng": 130.718856297,
      "geocoding_level": 8,
      "phone": "",
      "license_no": "第034-000382号",
      "license_date": null,
      "expire_date": "2028-07-31"
    },
    {
      "name": "上水流　達郎",
      "name_kana": "",
      "business_type": "飲食店営業（その他）",
      "address": "姶良郡湧水町木場３２１３－６",
      "lat": 31.944439617,
      "lng": 130.739279877,
      "geocoding_level": 8,
      "phone": "",
      "license_no": "第034-000401号",
      "license_date": null,
      "expire_date": "2027-10-31"
    },
    {
      "name": "荒武　志歩",
      "name_kana": "",
      "business_type": "飲食店営業（その他）",
      "address": "姶良郡湧水町川西２２０５－５",
      "lat": 32.004038679,
      "lng": 130.74065143800001,
      "geocoding_level": 8,
      "phone": "",
      "license_no": "第034-000420号",
      "license_date": null,
      "expire_date": "2028-10-31"
    },
    {
      "name": "勝元　将真",
      "name_kana": "",
      "business_type": "飲食店営業（一般食堂・ﾚｽﾄﾗﾝ等）",
      "address": "姶良郡湧水町木場７５",
      "lat": 31.954358355,
      "lng": 130.719343995,
      "geocoding_level": 8,
      "phone": "",
      "license_no": "第034-000432号",
      "license_date": null,
      "expire_date": "2028-10-31"
    },
    {
      "name": "荒武　志歩",
      "name_kana": "",
      "business_type": "そうざい製造業",
      "address": "姶良郡湧水町川西２２０５－５",
      "lat": 32.004038679,
      "lng": 130.74065143800001,
      "geocoding_level": 8,
      "phone": "",
      "license_no": "第034-000461号",
      "license_date": null,
      "expire_date": "2028-10-31"
    },
    {
      "name": "神田　真由美",
      "name_kana": "",
      "business_type": "菓子製造業",
      "address": "姶良郡湧水町木場３４０１－１",
      "lat": 31.940454733,
      "lng": 130.746890608,
      "geocoding_level": 8,
      "phone": "",
      "license_no": "第034-000468号",
      "license_date": null,
      "expire_date": "2028-10-31"
    },
    {
      "name": "神田　真由美",
      "name_kana": "",
      "business_type": "そうざい製造業",
      "address": "姶良郡湧水町木場３４０１－１",
      "lat": 31.940454733,
      "lng": 130.746890608,
      "geocoding_level": 8,
      "phone": "",
      "license_no": "第034-000469号",
      "license_date": null,
      "expire_date": "2028-10-31"
    },
    {
      "name": "西ノ村　幸美",
      "name_kana": "",
      "business_type": "飲食店営業（その他）",
      "address": "姶良郡湧水町木場１９２１－３５",
      "lat": 31.947696255,
      "lng": 130.755853002,
      "geocoding_level": 8,
      "phone": "",
      "license_no": "第034-000656号",
      "license_date": null,
      "expire_date": "2029-01-31"
    },
    {
      "name": "西ノ村　幸美",
      "name_kana": "",
      "business_type": "乳製品製造業",
      "address": "姶良郡湧水町木場１９２１－３５",
      "lat": 31.947696255,
      "lng": 130.755853002,
      "geocoding_level": 8,
      "phone": "",
      "license_no": "第034-000657号",
      "license_date": null,
      "expire_date": "2029-01-31"
    },
    {
      "name": "株式会社　ちゃこ",
      "name_kana": "",
      "business_type": "食肉販売業",
      "address": "姶良郡湧水町稲葉崎１５０－４",
      "lat": 31.98132,
      "lng": 130.690471,
      "geocoding_level": 3,
      "phone": "",
      "license_no": "第032-000022号",
      "license_date": null,
      "expire_date": "2026-04-30"
    },
    {
      "name": "佐牟田　利一",
      "name_kana": "",
      "business_type": "飲食店営業（その他）",
      "address": "姶良郡湧水町幸田１７８３－４",
      "lat": 31.939888854,
      "lng": 130.674232759,
      "geocoding_level": 8,
      "phone": "",
      "license_no": "第034-000790号",
      "license_date": null,
      "expire_date": "2029-01-31"
    },
    {
      "name": "新園　篤行",
      "name_kana": "",
      "business_type": "飲食店営業（その他）",
      "address": "姶良郡湧水町北方１８１８－３",
      "lat": 31.957588485999995,
      "lng": 130.7150711,
      "geocoding_level": 8,
      "phone": "",
      "license_no": "第034-000791号",
      "license_date": null,
      "expire_date": "2029-01-31"
    },
    {
      "name": "新園　篤行",
      "name_kana": "",
      "business_type": "食肉販売業",
      "address": "姶良郡湧水町北方１８１８－３",
      "lat": 31.957588485999995,
      "lng": 130.7150711,
      "geocoding_level": 8,
      "phone": "",
      "license_no": "第034-000792号",
      "license_date": null,
      "expire_date": "2029-01-31"
    },
    {
      "name": "新園　篤行",
      "name_kana": "",
      "business_type": "魚介類販売業",
      "address": "姶良郡湧水町北方１８１８－３",
      "lat": 31.957588485999995,
      "lng": 130.7150711,
      "geocoding_level": 8,
      "phone": "",
      "license_no": "第034-000793号",
      "license_date": null,
      "expire_date": "2029-01-31"
    },
    {
      "name": "有限会社　ほかむら",
      "name_kana": "",
      "business_type": "菓子製造業",
      "address": "姶良郡湧水町恒次１８５４－４",
      "lat": 31.970138613000003,
      "lng": 130.685285839,
      "geocoding_level": 8,
      "phone": "",
      "license_no": "第034-000849号",
      "license_date": null,
      "expire_date": "2029-01-31"
    },
    {
      "name": "有限会社　ほかむら",
      "name_kana": "",
      "business_type": "そうざい製造業",
      "address": "姶良郡湧水町恒次１８５４－４",
      "lat": 31.970138613000003,
      "lng": 130.685285839,
      "geocoding_level": 8,
      "phone": "",
      "license_no": "第034-000850号",
      "license_date": null,
      "expire_date": "2029-01-31"
    },
    {
      "name": "山下　小百合",
      "name_kana": "",
      "business_type": "そうざい製造業",
      "address": "姶良郡湧水町木場踏切３５４１－１",
      "lat": 31.934769,
      "lng": 130.760682,
      "geocoding_level": 3,
      "phone": "",
      "license_no": "第034-000865号",
      "license_date": null,
      "expire_date": "2028-04-30"
    },
    {
      "name": "徳重　律代",
      "name_kana": "",
      "business_type": "菓子製造業",
      "address": "姶良郡湧水町北方８１１",
      "lat": 31.968087,
      "lng": 130.722394,
      "geocoding_level": 3,
      "phone": "",
      "license_no": "第034-000873号",
      "license_date": null,
      "expire_date": "2029-04-30"
    },
    {
      "name": "米山　和恵",
      "name_kana": "",
      "business_type": "飲食店営業（旅館）",
      "address": "姶良郡湧水町鶴丸３３５－８",
      "lat": 32.030100435,
      "lng": 130.743832972,
      "geocoding_level": 8,
      "phone": "",
      "license_no": "第031-000968号",
      "license_date": null,
      "expire_date": "2026-01-31"
    },
    {
      "name": "林　恵美子",
      "name_kana": "",
      "business_type": "飲食店営業（一般食堂・ﾚｽﾄﾗﾝ等）",
      "address": "姶良郡湧水町般若寺４１７",
      "lat": 32.041894,
      "lng": 130.72254700000002,
      "geocoding_level": 3,
      "phone": "",
      "license_no": "第031-001116号",
      "license_date": null,
      "expire_date": "2026-01-31"
    },
    {
      "name": "種子田　美穂子",
      "name_kana": "",
      "business_type": "菓子製造業",
      "address": "姶良郡湧水町川西１４４５－５",
      "lat": 32.005143529,
      "lng": 130.737191852,
      "geocoding_level": 8,
      "phone": "",
      "license_no": "第032-000786号",
      "license_date": null,
      "expire_date": "2026-01-31"
    },
    {
      "name": "荒木　三恵子",
      "name_kana": "",
      "business_type": "飲食店営業（その他）",
      "address": "姶良郡湧水町川西１２８０－３ （鹿児島市を除く県内一円）",
      "lat": 32.008383021,
      "lng": 130.737947762,
      "geocoding_level": 8,
      "phone": "",
      "license_no": "第032-000837号",
      "license_date": null,
      "expire_date": "2026-01-31"
    },
    {
      "name": "山本　貞一",
      "name_kana": "",
      "business_type": "飲食店営業（その他）",
      "address": "姶良郡湧水町木場１１９０ （鹿児島市を除く県内一円）",
      "lat": 31.934769,
      "lng": 130.760682,
      "geocoding_level": 3,
      "phone": "",
      "license_no": "第032-000842号",
      "license_date": null,
      "expire_date": "2026-01-31"
    },
    {
      "name": "酒匂　博文",
      "name_kana": "",
      "business_type": "飲食店営業（一般食堂・ﾚｽﾄﾗﾝ等）",
      "address": "姶良郡湧水町北方１２８１－２",
      "lat": 31.954599209,
      "lng": 130.711155257,
      "geocoding_level": 8,
      "phone": "",
      "license_no": "第032-000010号",
      "license_date": null,
      "expire_date": "2026-04-30"
    },
    {
      "name": "永田　雄一朗",
      "name_kana": "",
      "business_type": "菓子製造業",
      "address": "姶良郡湧水町木場２００",
      "lat": 31.952714905,
      "lng": 130.721244794,
      "geocoding_level": 8,
      "phone": "",
      "license_no": "第032-000028号",
      "license_date": null,
      "expire_date": "2026-04-30"
    },
    {
      "name": "栫　ひとみ",
      "name_kana": "",
      "business_type": "菓子製造業",
      "address": "姶良郡湧水町木場２５９４",
      "lat": 31.934769,
      "lng": 130.760682,
      "geocoding_level": 3,
      "phone": "",
      "license_no": "第032-000029号",
      "license_date": null,
      "expire_date": "2026-04-30"
    },
    {
      "name": "栫　ひとみ",
      "name_kana": "",
      "business_type": "そうざい製造業",
      "address": "姶良郡湧水町木場２５９４",
      "lat": 31.934769,
      "lng": 130.760682,
      "geocoding_level": 3,
      "phone": "",
      "license_no": "第032-000030号",
      "license_date": null,
      "expire_date": "2026-04-30"
    },
    {
      "name": "内倉　孝子",
      "name_kana": "",
      "business_type": "飲食店営業（仕出し屋・弁当屋）",
      "address": "姶良郡湧水町幸田１６９６－１６",
      "lat": 31.946282572,
      "lng": 130.666392033,
      "geocoding_level": 8,
      "phone": "",
      "license_no": "第032-000174号",
      "license_date": null,
      "expire_date": "2026-04-30"
    },
    {
      "name": "上村　克義",
      "name_kana": "",
      "business_type": "そうざい製造業",
      "address": "姶良郡湧水町恒次３２９－１５",
      "lat": 31.948388003000005,
      "lng": 130.69428546,
      "geocoding_level": 8,
      "phone": "",
      "license_no": "第032-000999号",
      "license_date": null,
      "expire_date": "2026-04-30"
    },
    {
      "name": "上村　ミヤ子",
      "name_kana": "",
      "business_type": "菓子製造業",
      "address": "姶良郡湧水町恒次３２９－１５",
      "lat": 31.948388003000005,
      "lng": 130.69428546,
      "geocoding_level": 8,
      "phone": "",
      "license_no": "第033-000018号",
      "license_date": null,
      "expire_date": "2026-04-30"
    },
    {
      "name": "鹿児島県酪農業協同組合",
      "name_kana": "",
      "business_type": "集乳業",
      "address": "姶良郡湧水町北方１７４９",
      "lat": 31.968087,
      "lng": 130.722394,
      "geocoding_level": 3,
      "phone": "",
      "license_no": "第032-000286号",
      "license_date": null,
      "expire_date": "2026-07-31"
    },
    {
      "name": "宗　啓子",
      "name_kana": "",
      "business_type": "飲食店営業（その他）",
      "address": "姶良郡湧水町木場５５２－３",
      "lat": 31.948186733000004,
      "lng": 130.72289006,
      "geocoding_level": 8,
      "phone": "",
      "license_no": "第032-000288号",
      "license_date": null,
      "expire_date": "2026-07-31"
    },
    {
      "name": "宗　啓子",
      "name_kana": "",
      "business_type": "そうざい製造業",
      "address": "姶良郡湧水町木場５５２－３",
      "lat": 31.948186733000004,
      "lng": 130.72289006,
      "geocoding_level": 8,
      "phone": "",
      "license_no": "第032-000289号",
      "license_date": null,
      "expire_date": "2026-07-31"
    },
    {
      "name": "桑畑　忠典",
      "name_kana": "",
      "business_type": "飲食店営業（その他）",
      "address": "姶良郡湧水町木場６８",
      "lat": 31.953077711,
      "lng": 130.719730875,
      "geocoding_level": 8,
      "phone": "",
      "license_no": "第032-000291号",
      "license_date": null,
      "expire_date": "2026-07-31"
    },
    {
      "name": "永田　健二朗",
      "name_kana": "",
      "business_type": "菓子製造業",
      "address": "姶良郡湧水町木場８０－２",
      "lat": 31.954155278,
      "lng": 130.720369115,
      "geocoding_level": 8,
      "phone": "",
      "license_no": "第032-000295号",
      "license_date": null,
      "expire_date": "2026-07-31"
    },
    {
      "name": "溝口　浩一",
      "name_kana": "",
      "business_type": "飲食店営業（その他）",
      "address": "姶良郡湧水町稲葉崎７８６ （鹿児島市を除く県内一円）",
      "lat": 31.98132,
      "lng": 130.690471,
      "geocoding_level": 3,
      "phone": "",
      "license_no": "第033-000258号",
      "license_date": null,
      "expire_date": "2026-07-31"
    },
    {
      "name": "具志頭　圭太",
      "name_kana": "",
      "business_type": "豆腐製造業",
      "address": "姶良郡湧水町中津川９３６－１",
      "lat": 32.017671051,
      "lng": 130.743959698,
      "geocoding_level": 8,
      "phone": "",
      "license_no": "第032-000533号",
      "license_date": null,
      "expire_date": "2026-10-31"
    },
    {
      "name": "有限会社鶴丸",
      "name_kana": "",
      "business_type": "魚介類販売業",
      "address": "姶良郡湧水町鶴丸６２２－５",
      "lat": 32.031044041,
      "lng": 130.748556798,
      "geocoding_level": 8,
      "phone": "",
      "license_no": "第032-000535号",
      "license_date": null,
      "expire_date": "2026-10-31"
    },
    {
      "name": "上野　正子",
      "name_kana": "",
      "business_type": "みそ製造業",
      "address": "姶良郡湧水町北方１５９７－１",
      "lat": 31.960158660000005,
      "lng": 130.704684599,
      "geocoding_level": 8,
      "phone": "",
      "license_no": "第032-000538号",
      "license_date": null,
      "expire_date": "2026-10-31"
    },
    {
      "name": "竹野　愛",
      "name_kana": "",
      "business_type": "飲食店営業（その他）",
      "address": "姶良郡湧水町北方４７９－２",
      "lat": 31.957492313,
      "lng": 130.725198807,
      "geocoding_level": 8,
      "phone": "",
      "license_no": "第032-000539号",
      "license_date": null,
      "expire_date": "2026-10-31"
    },
    {
      "name": "竹野　愛",
      "name_kana": "",
      "business_type": "菓子製造業",
      "address": "姶良郡湧水町北方４７９－２",
      "lat": 31.957492313,
      "lng": 130.725198807,
      "geocoding_level": 8,
      "phone": "",
      "license_no": "第032-000540号",
      "license_date": null,
      "expire_date": "2026-10-31"
    },
    {
      "name": "徳重　律代",
      "name_kana": "",
      "business_type": "飲食店営業（一般食堂・ﾚｽﾄﾗﾝ等）",
      "address": "姶良郡湧水町北方８１１",
      "lat": 31.968087,
      "lng": 130.722394,
      "geocoding_level": 3,
      "phone": "",
      "license_no": "第032-000541号",
      "license_date": null,
      "expire_date": "2026-10-31"
    },
    {
      "name": "野尻　恵子",
      "name_kana": "",
      "business_type": "飲食店営業（その他）",
      "address": "姶良郡湧水町中津川２０６",
      "lat": 32.015131,
      "lng": 130.759904,
      "geocoding_level": 3,
      "phone": "",
      "license_no": "第032-000792号",
      "license_date": null,
      "expire_date": "2027-01-31"
    },
    {
      "name": "今田　成人",
      "name_kana": "",
      "business_type": "飲食店営業（一般食堂・ﾚｽﾄﾗﾝ等）",
      "address": "姶良郡湧水町稲葉崎９８－２",
      "lat": 31.98132,
      "lng": 130.690471,
      "geocoding_level": 3,
      "phone": "",
      "license_no": "第032-000836号",
      "license_date": null,
      "expire_date": "2027-01-31"
    },
    {
      "name": "上水流　達郎",
      "name_kana": "",
      "business_type": "飲食店営業（一般食堂・ﾚｽﾄﾗﾝ等）",
      "address": "姶良郡湧水町木場２９８１－２７",
      "lat": 31.944800322,
      "lng": 130.726649978,
      "geocoding_level": 8,
      "phone": "",
      "license_no": "第032-000843号",
      "license_date": null,
      "expire_date": "2027-01-31"
    },
    {
      "name": "上水流　達郎",
      "name_kana": "",
      "business_type": "缶詰又は瓶詰食品製造業",
      "address": "姶良郡湧水町木場２９８１－２７",
      "lat": 31.944800322,
      "lng": 130.726649978,
      "geocoding_level": 8,
      "phone": "",
      "license_no": "第032-000844号",
      "license_date": null,
      "expire_date": "2027-01-31"
    },
    {
      "name": "瀬戸山　信一",
      "name_kana": "",
      "business_type": "飲食店営業（仕出し屋・弁当屋）",
      "address": "姶良郡湧水町木場４１４８－２",
      "lat": 31.925979192,
      "lng": 130.728372153,
      "geocoding_level": 8,
      "phone": "",
      "license_no": "第032-000845号",
      "license_date": null,
      "expire_date": "2027-01-31"
    },
    {
      "name": "瀬戸山　信一",
      "name_kana": "",
      "business_type": "そうざい製造業",
      "address": "姶良郡湧水町木場４１４８－２",
      "lat": 31.925979192,
      "lng": 130.728372153,
      "geocoding_level": 8,
      "phone": "",
      "license_no": "第032-000846号",
      "license_date": null,
      "expire_date": "2027-01-31"
    },
    {
      "name": "油谷　玄子",
      "name_kana": "",
      "business_type": "飲食店営業（一般食堂・ﾚｽﾄﾗﾝ等）",
      "address": "姶良郡湧水町木場７５３－３",
      "lat": 31.952044816,
      "lng": 130.723969746,
      "geocoding_level": 8,
      "phone": "",
      "license_no": "第032-000992号",
      "license_date": null,
      "expire_date": "2027-01-31"
    },
    {
      "name": "一般社団法人　霧島山麓湧水町観光協会",
      "name_kana": "",
      "business_type": "食肉製品製造業",
      "address": "姶良郡湧水町木場６３５７",
      "lat": 31.954899938,
      "lng": 130.780835879,
      "geocoding_level": 8,
      "phone": "",
      "license_no": "第033-000652号",
      "license_date": null,
      "expire_date": "2027-04-30"
    },
    {
      "name": "有限会社永野工務店",
      "name_kana": "",
      "business_type": "菓子製造業",
      "address": "姶良郡湧水町川添１４８９－１",
      "lat": 31.988016367999997,
      "lng": 130.749859556,
      "geocoding_level": 8,
      "phone": "",
      "license_no": "第032-001034号",
      "license_date": null,
      "expire_date": "2027-04-30"
    },
    {
      "name": "有限会社永野工務店",
      "name_kana": "",
      "business_type": "食品の冷凍又は冷蔵業",
      "address": "姶良郡湧水町川添１４８９－１",
      "lat": 31.988016367999997,
      "lng": 130.749859556,
      "geocoding_level": 8,
      "phone": "",
      "license_no": "第032-001035号",
      "license_date": null,
      "expire_date": "2027-04-30"
    },
    {
      "name": "日清医療食品株式会社",
      "name_kana": "",
      "business_type": "飲食店営業（一般食堂・ﾚｽﾄﾗﾝ等）",
      "address": "姶良郡湧水町北方１８５４",
      "lat": 31.957804219000003,
      "lng": 130.712654319,
      "geocoding_level": 8,
      "phone": "",
      "license_no": "第032-001037号",
      "license_date": null,
      "expire_date": "2027-04-30"
    },
    {
      "name": "日清医療食品株式会社",
      "name_kana": "",
      "business_type": "飲食店営業（一般食堂・ﾚｽﾄﾗﾝ等）",
      "address": "姶良郡湧水町米永２３８７",
      "lat": 31.925563771,
      "lng": 130.72057221,
      "geocoding_level": 8,
      "phone": "",
      "license_no": "第032-001038号",
      "license_date": null,
      "expire_date": "2027-04-30"
    },
    {
      "name": "弓掛　隆盛",
      "name_kana": "",
      "business_type": "飲食店営業（一般食堂・ﾚｽﾄﾗﾝ等）",
      "address": "姶良郡湧水町北方２３３３－２",
      "lat": 31.963103581,
      "lng": 130.722905458,
      "geocoding_level": 8,
      "phone": "",
      "license_no": "第032-001039号",
      "license_date": null,
      "expire_date": "2027-04-30"
    },
    {
      "name": "竹野　愛",
      "name_kana": "",
      "business_type": "飲食店営業（仕出し屋・弁当屋）",
      "address": "姶良郡湧水町米永２０８９－３",
      "lat": 31.925522413000003,
      "lng": 130.712704706,
      "geocoding_level": 8,
      "phone": "",
      "license_no": "第032-001069号",
      "license_date": null,
      "expire_date": "2027-04-30"
    },
    {
      "name": "竹野　愛",
      "name_kana": "",
      "business_type": "菓子製造業",
      "address": "姶良郡湧水町米永２０８９－３",
      "lat": 31.925522413000003,
      "lng": 130.712704706,
      "geocoding_level": 8,
      "phone": "",
      "license_no": "第032-001070号",
      "license_date": null,
      "expire_date": "2027-04-30"
    },
    {
      "name": "久木元　敬子",
      "name_kana": "",
      "business_type": "菓子製造業",
      "address": "姶良郡湧水町川西２２６０",
      "lat": 32.003505229,
      "lng": 130.738400226,
      "geocoding_level": 8,
      "phone": "",
      "license_no": "第033-000019号",
      "license_date": null,
      "expire_date": "2027-04-30"
    },
    {
      "name": "荒川　一恵",
      "name_kana": "",
      "business_type": "飲食店営業（仕出し屋・弁当屋）",
      "address": "姶良郡湧水町米永３８９－１",
      "lat": 31.949602927000004,
      "lng": 130.71456813100002,
      "geocoding_level": 8,
      "phone": "",
      "license_no": "第033-000208号",
      "license_date": null,
      "expire_date": "2027-07-31"
    },
    {
      "name": "内海　果彌",
      "name_kana": "",
      "business_type": "清涼飲料水製造業",
      "address": "姶良郡湧水町北方４７９－２",
      "lat": 31.957492313,
      "lng": 130.725198807,
      "geocoding_level": 8,
      "phone": "",
      "license_no": "第033-000523号",
      "license_date": null,
      "expire_date": "2028-01-31"
    },
    {
      "name": "永田　健二朗",
      "name_kana": "",
      "business_type": "飲食店営業（一般食堂・ﾚｽﾄﾗﾝ等）",
      "address": "姶良郡湧水町木場８０－２",
      "lat": 31.954155278,
      "lng": 130.720369115,
      "geocoding_level": 8,
      "phone": "",
      "license_no": "第033-000533号",
      "license_date": null,
      "expire_date": "2028-01-31"
    },
    {
      "name": "川原　啓子",
      "name_kana": "",
      "business_type": "菓子製造業",
      "address": "姶良郡湧水町川西１３６２－３",
      "lat": 32.008359929,
      "lng": 130.734671245,
      "geocoding_level": 8,
      "phone": "",
      "license_no": "第033-000564号",
      "license_date": null,
      "expire_date": "2028-01-31"
    },
    {
      "name": "特定非営利活動法人　就労支援センターつるまる",
      "name_kana": "",
      "business_type": "菓子製造業",
      "address": "姶良郡湧水町鶴丸６２２－５",
      "lat": 32.031044041,
      "lng": 130.748556798,
      "geocoding_level": 8,
      "phone": "",
      "license_no": "第033-000565号",
      "license_date": null,
      "expire_date": "2028-01-31"
    },
    {
      "name": "特定非営利活動法人　就労支援センターつるまる",
      "name_kana": "",
      "business_type": "みそ又はしょうゆ製造業",
      "address": "姶良郡湧水町鶴丸６２２－５",
      "lat": 32.031044041,
      "lng": 130.748556798,
      "geocoding_level": 8,
      "phone": "",
      "license_no": "第033-000566号",
      "license_date": null,
      "expire_date": "2028-01-31"
    },
    {
      "name": "藤井　裕子",
      "name_kana": "",
      "business_type": "みそ又はしょうゆ製造業",
      "address": "姶良郡湧水町川西８５５",
      "lat": 32.015917693,
      "lng": 130.739839992,
      "geocoding_level": 8,
      "phone": "",
      "license_no": "第033-000672号",
      "license_date": null,
      "expire_date": "2028-04-30"
    },
    {
      "name": "有限会社　ほかむら",
      "name_kana": "",
      "business_type": "飲食店営業（その他）",
      "address": "姶良郡湧水町恒次１８５４－４ （鹿児島市を除く県内一円）",
      "lat": 31.970138613000003,
      "lng": 130.685285839,
      "geocoding_level": 8,
      "phone": "",
      "license_no": "第033-000563号",
      "license_date": null,
      "expire_date": "2027-01-31"
    },
    {
      "name": "赤坂　勲",
      "name_kana": "",
      "business_type": "そうざい製造業",
      "address": "姶良郡湧水町川西８８－３",
      "lat": 32.023161355,
      "lng": 130.735168575,
      "geocoding_level": 8,
      "phone": "",
      "license_no": "第034-000926号",
      "license_date": null,
      "expire_date": "2029-04-30"
    },
    {
      "name": "ハーベストネクスト株式会社",
      "name_kana": "",
      "business_type": "飲食店営業（一般食堂・ﾚｽﾄﾗﾝ等）",
      "address": "姶良郡湧水町北方４８０－２",
      "lat": 31.957808651000004,
      "lng": 130.725016767,
      "geocoding_level": 8,
      "phone": "",
      "license_no": "第034-000947号",
      "license_date": null,
      "expire_date": "2029-04-30"
    },
    {
      "name": "特定非営利活動法人　鹿児島ＣＩ維新",
      "name_kana": "",
      "business_type": "飲食店営業（一般食堂・ﾚｽﾄﾗﾝ等）",
      "address": "姶良郡湧水町川西７８９",
      "lat": 32.012614923,
      "lng": 130.738396858,
      "geocoding_level": 8,
      "phone": "",
      "license_no": "第035-000007号",
      "license_date": null,
      "expire_date": "2029-04-30"
    },
    {
      "name": "合名会社能勢商店",
      "name_kana": "",
      "business_type": "飲食店営業（一般食堂・ﾚｽﾄﾗﾝ等）",
      "address": "姶良郡湧水町川西９３５",
      "lat": 32.008533,
      "lng": 130.726058,
      "geocoding_level": 3,
      "phone": "",
      "license_no": "第035-000008号",
      "license_date": null,
      "expire_date": "2029-04-30"
    },
    {
      "name": "田中　泰子",
      "name_kana": "",
      "business_type": "密封包装食品製造業",
      "address": "姶良郡湧水町鶴丸４６９",
      "lat": 32.031581,
      "lng": 130.749144,
      "geocoding_level": 3,
      "phone": "",
      "license_no": "第035-000009号",
      "license_date": null,
      "expire_date": "2029-04-30"
    },
    {
      "name": "伊藤　由佳子",
      "name_kana": "",
      "business_type": "菓子製造業",
      "address": "姶良郡湧水町米永３３",
      "lat": 31.930628000000002,
      "lng": 130.705091,
      "geocoding_level": 3,
      "phone": "",
      "license_no": "第035-000010号",
      "license_date": null,
      "expire_date": "2028-04-30"
    },
    {
      "name": "上野　正子",
      "name_kana": "",
      "business_type": "飲食店営業（その他）",
      "address": "姶良郡湧水町北方１５９７－１",
      "lat": 31.960158660000005,
      "lng": 130.704684599,
      "geocoding_level": 8,
      "phone": "",
      "license_no": "第035-000011号",
      "license_date": null,
      "expire_date": "2029-04-30"
    },
    {
      "name": "松元　のり子",
      "name_kana": "",
      "business_type": "そうざい製造業",
      "address": "姶良郡湧水町鶴丸７２０",
      "lat": 32.031581,
      "lng": 130.749144,
      "geocoding_level": 3,
      "phone": "",
      "license_no": "第035-000170号",
      "license_date": null,
      "expire_date": "2029-07-31"
    },
    {
      "name": "合同会社さきファーム",
      "name_kana": "",
      "business_type": "飲食店営業（その他）",
      "address": "姶良郡湧水町恒次３１２－１ （鹿児島市を除く県内一円）",
      "lat": 31.947352408,
      "lng": 130.694458582,
      "geocoding_level": 8,
      "phone": "",
      "license_no": "第035-000210号",
      "license_date": null,
      "expire_date": "2029-07-31"
    },
    {
      "name": "竹ノ上　洋輔",
      "name_kana": "",
      "business_type": "菓子製造業",
      "address": "姶良郡湧水町川西７２３－１１",
      "lat": 32.015829159,
      "lng": 130.73764512900001,
      "geocoding_level": 8,
      "phone": "",
      "license_no": "第035-000005号",
      "license_date": null,
      "expire_date": "2029-04-30"
    },
    {
      "name": "東　秀人",
      "name_kana": "",
      "business_type": "飲食店営業（その他）",
      "address": "姶良郡湧水町川西９１６（鹿児島市を除く鹿児島県内一円）",
      "lat": 32.008533,
      "lng": 130.726058,
      "geocoding_level": 3,
      "phone": "",
      "license_no": "第035-000245号",
      "license_date": null,
      "expire_date": "2028-07-31"
    },
    {
      "name": "山下　小百合",
      "name_kana": "",
      "business_type": "飲食店営業（その他）",
      "address": "姶良郡湧水町木場８２７－１ （鹿児島市を除く県内一円）",
      "lat": 31.951133755,
      "lng": 130.726578643,
      "geocoding_level": 8,
      "phone": "",
      "license_no": "第035-000314号",
      "license_date": null,
      "expire_date": "2028-07-31"
    },
    {
      "name": "山下　光春",
      "name_kana": "",
      "business_type": "飲食店営業（その他）",
      "address": "姶良郡湧水町木場８２７－１ （鹿児島市を除く県内一円）",
      "lat": 31.951133755,
      "lng": 130.726578643,
      "geocoding_level": 8,
      "phone": "",
      "license_no": "第034-000692号",
      "license_date": null,
      "expire_date": "2029-01-31"
    },
    {
      "name": "前田　安秀",
      "name_kana": "",
      "business_type": "漬物製造業",
      "address": "姶良郡湧水町鶴丸１２５１",
      "lat": 32.031581,
      "lng": 130.749144,
      "geocoding_level": 3,
      "phone": "",
      "license_no": "第035-000407号",
      "license_date": null,
      "expire_date": "2028-10-31"
    },
    {
      "name": "株式会社エーコープ鹿児島",
      "name_kana": "",
      "business_type": "飲食店営業（その他）",
      "address": "姶良郡湧水町中津川５８８－１",
      "lat": 32.014511961,
      "lng": 130.743974704,
      "geocoding_level": 8,
      "phone": "",
      "license_no": "第032-000529号",
      "license_date": null,
      "expire_date": "2026-10-31"
    },
    {
      "name": "株式会社エーコープ鹿児島",
      "name_kana": "",
      "business_type": "魚介類販売業",
      "address": "姶良郡湧水町中津川５８８－１",
      "lat": 32.014511961,
      "lng": 130.743974704,
      "geocoding_level": 8,
      "phone": "",
      "license_no": "第032-000532号",
      "license_date": null,
      "expire_date": "2026-10-31"
    },
    {
      "name": "株式会社エーコープ鹿児島",
      "name_kana": "",
      "business_type": "食肉販売業",
      "address": "姶良郡湧水町中津川５８８－１",
      "lat": 32.014511961,
      "lng": 130.743974704,
      "geocoding_level": 8,
      "phone": "",
      "license_no": "第032-000531号",
      "license_date": null,
      "expire_date": "2026-10-31"
    },
    {
      "name": "鶴留　由加利",
      "name_kana": "",
      "business_type": "飲食店営業（その他）",
      "address": "姶良郡湧水町北方１７５３－１",
      "lat": 31.955651140000004,
      "lng": 130.712366103,
      "geocoding_level": 8,
      "phone": "",
      "license_no": "第035-000454号",
      "license_date": null,
      "expire_date": "2029-10-31"
    },
    {
      "name": "鶴留　由加利",
      "name_kana": "",
      "business_type": "菓子製造業",
      "address": "姶良郡湧水町北方１７５３－１",
      "lat": 31.955651140000004,
      "lng": 130.712366103,
      "geocoding_level": 8,
      "phone": "",
      "license_no": "第035-000455号",
      "license_date": null,
      "expire_date": "2029-10-31"
    },
    {
      "name": "柏木　依吏子",
      "name_kana": "",
      "business_type": "菓子製造業",
      "address": "姶良郡湧水町川西７５８－９",
      "lat": 32.015005824,
      "lng": 130.738325689,
      "geocoding_level": 8,
      "phone": "",
      "license_no": "第035-000483号",
      "license_date": null,
      "expire_date": "2028-10-31"
    },
    {
      "name": "有限会社鶴丸",
      "name_kana": "",
      "business_type": "菓子製造業",
      "address": "姶良郡湧水町鶴丸６２０",
      "lat": 32.031581,
      "lng": 130.749144,
      "geocoding_level": 3,
      "phone": "",
      "license_no": "第035-000484号",
      "license_date": null,
      "expire_date": "2029-10-31"
    },
    {
      "name": "有限会社鶴丸",
      "name_kana": "",
      "business_type": "みそ又はしょうゆ製造業",
      "address": "姶良郡湧水町鶴丸６２０",
      "lat": 32.031581,
      "lng": 130.749144,
      "geocoding_level": 3,
      "phone": "",
      "license_no": "第035-000485号",
      "license_date": null,
      "expire_date": "2029-10-31"
    },
    {
      "name": "株式会社清泉社",
      "name_kana": "",
      "business_type": "魚介類販売業",
      "address": "姶良郡湧水町米永３３９６",
      "lat": 31.930628000000002,
      "lng": 130.705091,
      "geocoding_level": 3,
      "phone": "",
      "license_no": "第035-000487号",
      "license_date": null,
      "expire_date": "2029-10-31"
    },
    {
      "name": "大村　昇永",
      "name_kana": "",
      "business_type": "飲食店営業（その他）",
      "address": "姶良郡湧水町木場６１－２",
      "lat": 31.953039639000004,
      "lng": 130.719015997,
      "geocoding_level": 8,
      "phone": "",
      "license_no": "第035-000488号",
      "license_date": null,
      "expire_date": "2029-10-31"
    },
    {
      "name": "クリックセレクト株式会社",
      "name_kana": "",
      "business_type": "飲食店営業（一般食堂・ﾚｽﾄﾗﾝ等）",
      "address": "姶良郡湧水町米永１５８２－１",
      "lat": 31.93901624,
      "lng": 130.707607326,
      "geocoding_level": 8,
      "phone": "",
      "license_no": "第035-000623号",
      "license_date": null,
      "expire_date": "2029-10-31"
    },
    {
      "name": "福留　雪子",
      "name_kana": "",
      "business_type": "漬物製造業",
      "address": "姶良郡湧水町川西１４４７－１８",
      "lat": 32.006029819,
      "lng": 130.73651149900002,
      "geocoding_level": 8,
      "phone": "",
      "license_no": "第035-000799号",
      "license_date": null,
      "expire_date": "2029-01-31"
    },
    {
      "name": "福留　雪子",
      "name_kana": "",
      "business_type": "菓子製造業",
      "address": "姶良郡湧水町川西１４４７－１８",
      "lat": 32.006029819,
      "lng": 130.73651149900002,
      "geocoding_level": 8,
      "phone": "",
      "license_no": "第035-000822号",
      "license_date": null,
      "expire_date": "2029-01-31"
    },
    {
      "name": "山﨑友愛株式会社",
      "name_kana": "",
      "business_type": "そうざい製造業",
      "address": "姶良郡湧水町川西２０５－２",
      "lat": 32.024944771,
      "lng": 130.731662291,
      "geocoding_level": 8,
      "phone": "",
      "license_no": "第035-000823号",
      "license_date": null,
      "expire_date": "2030-01-31"
    },
    {
      "name": "東　とも子",
      "name_kana": "",
      "business_type": "飲食店営業（一般食堂・ﾚｽﾄﾗﾝ等）",
      "address": "姶良郡湧水町川西９１６",
      "lat": 32.008533,
      "lng": 130.726058,
      "geocoding_level": 3,
      "phone": "",
      "license_no": "第035-000824号",
      "license_date": null,
      "expire_date": "2030-01-31"
    },
    {
      "name": "有限会社　ホクシン",
      "name_kana": "",
      "business_type": "飲食店営業（一般食堂・ﾚｽﾄﾗﾝ等）",
      "address": "姶良郡湧水町田尾原３０７－７",
      "lat": 31.964388402,
      "lng": 130.695710778,
      "geocoding_level": 8,
      "phone": "",
      "license_no": "第035-000825号",
      "license_date": null,
      "expire_date": "2030-01-31"
    },
    {
      "name": "有限会社　ホクシン",
      "name_kana": "",
      "business_type": "食肉販売業",
      "address": "姶良郡湧水町田尾原３０７－７",
      "lat": 31.964388402,
      "lng": 130.695710778,
      "geocoding_level": 8,
      "phone": "",
      "license_no": "第035-000826号",
      "license_date": null,
      "expire_date": "2030-01-31"
    },
    {
      "name": "中原　凌",
      "name_kana": "",
      "business_type": "飲食店営業（その他）",
      "address": "姶良郡湧水町川西９３４－８",
      "lat": 32.011530996,
      "lng": 130.739095431,
      "geocoding_level": 8,
      "phone": "",
      "license_no": "第035-000890号",
      "license_date": null,
      "expire_date": "2030-01-31"
    },
    {
      "name": "福本　梨奈",
      "name_kana": "",
      "business_type": "菓子製造業",
      "address": "姶良郡湧水町幸田１７８３－４ （居酒屋よりみち）",
      "lat": 31.939888854,
      "lng": 130.674232759,
      "geocoding_level": 8,
      "phone": "",
      "license_no": "第035-000918号",
      "license_date": null,
      "expire_date": "2030-01-31"
    },
    {
      "name": "福本　梨奈",
      "name_kana": "",
      "business_type": "麺類製造業",
      "address": "姶良郡湧水町幸田１７８３－４ （居酒屋よりみち）",
      "lat": 31.939888854,
      "lng": 130.674232759,
      "geocoding_level": 8,
      "phone": "",
      "license_no": "第035-000919号",
      "license_date": null,
      "expire_date": "2030-01-31"
    },
    {
      "name": "アロス株式会社",
      "name_kana": "",
      "business_type": "密封包装食品製造業",
      "address": "姶良郡湧水町幸田１６５９－２",
      "lat": 31.942129749999996,
      "lng": 130.664747816,
      "geocoding_level": 8,
      "phone": "",
      "license_no": "第035-000945号",
      "license_date": null,
      "expire_date": "2030-04-30"
    },
    {
      "name": "株式会社清泉社",
      "name_kana": "",
      "business_type": "そうざい製造業",
      "address": "姶良郡湧水町米永３３９６",
      "lat": 31.930628000000002,
      "lng": 130.705091,
      "geocoding_level": 3,
      "phone": "",
      "license_no": "第035-000486号",
      "license_date": null,
      "expire_date": "2029-10-31"
    },
    {
      "name": "有限会社　鹿北製油",
      "name_kana": "",
      "business_type": "食用油脂製造業",
      "address": "姶良郡湧水町米永３１２２－１",
      "lat": 31.929087418000005,
      "lng": 130.696687284,
      "geocoding_level": 8,
      "phone": "",
      "license_no": "第032-000840号",
      "license_date": null,
      "expire_date": "2026-01-31"
    },
    {
      "name": "株式会社　ちゃこ",
      "name_kana": "",
      "business_type": "食肉処理業",
      "address": "姶良郡湧水町稲葉崎３０４",
      "lat": 31.98132,
      "lng": 130.690471,
      "geocoding_level": 3,
      "phone": "",
      "license_no": "第036-000007号",
      "license_date": null,
      "expire_date": "2029-04-30"
    },
    {
      "name": "赤坂　勲",
      "name_kana": "",
      "business_type": "飲食店営業（一般食堂・ﾚｽﾄﾗﾝ等）",
      "address": "姶良郡湧水町川西８８－３",
      "lat": 32.023161355,
      "lng": 130.735168575,
      "geocoding_level": 8,
      "phone": "",
      "license_no": "第036-000008号",
      "license_date": null,
      "expire_date": "2030-04-30"
    },
    {
      "name": "前田　律子",
      "name_kana": "",
      "business_type": "菓子製造業",
      "address": "姶良郡湧水町中津川１４０９－１",
      "lat": 32.025453614,
      "lng": 130.750270155,
      "geocoding_level": 8,
      "phone": "",
      "license_no": "第036-000009号",
      "license_date": null,
      "expire_date": "2029-04-30"
    },
    {
      "name": "合資会社　新園ストアー",
      "name_kana": "",
      "business_type": "飲食店営業（一般食堂・ﾚｽﾄﾗﾝ等）",
      "address": "姶良郡湧水町米永２９４１－１２",
      "lat": 31.924230446999996,
      "lng": 130.701476941,
      "geocoding_level": 8,
      "phone": "",
      "license_no": "第036-000010号",
      "license_date": null,
      "expire_date": "2030-04-30"
    },
    {
      "name": "萬納　かほ子",
      "name_kana": "",
      "business_type": "飲食店営業（その他）",
      "address": "姶良郡湧水町木場３０４－２",
      "lat": 31.950754033,
      "lng": 130.720567176,
      "geocoding_level": 8,
      "phone": "",
      "license_no": "第036-000011号",
      "license_date": null,
      "expire_date": "2030-04-30"
    },
    {
      "name": "山下　小百合",
      "name_kana": "",
      "business_type": "菓子製造業",
      "address": "姶良郡湧水町木場踏切３５４１－１",
      "lat": 31.934769,
      "lng": 130.760682,
      "geocoding_level": 3,
      "phone": "",
      "license_no": "第036-000012号",
      "license_date": null,
      "expire_date": "2029-04-30"
    },
    {
      "name": "一般社団法人　霧島山麓湧水町観光協会",
      "name_kana": "",
      "business_type": "飲食店営業（一般食堂・ﾚｽﾄﾗﾝ等）",
      "address": "姶良郡湧水町木場５８８",
      "lat": 31.949292884,
      "lng": 130.721803198,
      "geocoding_level": 8,
      "phone": "",
      "license_no": "第035-001021号",
      "license_date": null,
      "expire_date": "2030-04-30"
    },
    {
      "name": "荒木　和博",
      "name_kana": "",
      "business_type": "飲食店営業（その他）",
      "address": "姶良郡湧水町川西１５０３－３",
      "lat": 32.007333451,
      "lng": 130.738504523,
      "geocoding_level": 8,
      "phone": "",
      "license_no": "第036-000081号",
      "license_date": null,
      "expire_date": "2030-04-30"
    },
    {
      "name": "有限会社鶴丸",
      "name_kana": "",
      "business_type": "飲食店営業（旅館）",
      "address": "姶良郡湧水町鶴丸６２２－５",
      "lat": 32.031044041,
      "lng": 130.748556798,
      "geocoding_level": 8,
      "phone": "",
      "license_no": "第032-000534号",
      "license_date": null,
      "expire_date": "2026-10-31"
    },
    {
      "name": "山﨑友愛株式会社",
      "name_kana": "",
      "business_type": "飲食店営業（一般食堂・ﾚｽﾄﾗﾝ等）",
      "address": "姶良郡湧水町川西２０５－２",
      "lat": 32.024944771,
      "lng": 130.731662291,
      "geocoding_level": 8,
      "phone": "",
      "license_no": "第034-000258号",
      "license_date": null,
      "expire_date": "2028-07-31"
    },
    {
      "name": "福永　さつ子",
      "name_kana": "",
      "business_type": "飲食店営業（一般食堂・ﾚｽﾄﾗﾝ等）",
      "address": "姶良郡湧水町米永４５９－１",
      "lat": 31.949791202000004,
      "lng": 130.717535526,
      "geocoding_level": 8,
      "phone": "",
      "license_no": "第035-000456号",
      "license_date": null,
      "expire_date": "2029-10-31"
    },
    {
      "name": "亀澤　多美子",
      "name_kana": "",
      "business_type": "漬物製造業",
      "address": "姶良郡湧水町木場２３７２－１",
      "lat": 31.951052280000003,
      "lng": 130.739153074,
      "geocoding_level": 8,
      "phone": "",
      "license_no": "第036-000183号",
      "license_date": null,
      "expire_date": "2029-07-31"
    },
    {
      "name": "宗　啓子",
      "name_kana": "",
      "business_type": "漬物製造業",
      "address": "姶良郡湧水町木場５５２－３",
      "lat": 31.948186733000004,
      "lng": 130.72289006,
      "geocoding_level": 8,
      "phone": "",
      "license_no": "第036-000206号",
      "license_date": null,
      "expire_date": "2030-07-31"
    },
    {
      "name": "株式会社湧水フーズ",
      "name_kana": "",
      "business_type": "密封包装食品製造業",
      "address": "姶良郡湧水町米永７４－１",
      "lat": 31.947240696000005,
      "lng": 130.708746531,
      "geocoding_level": 8,
      "phone": "",
      "license_no": "第036-000221号",
      "license_date": null,
      "expire_date": "2030-07-31"
    },
    {
      "name": "松路　祝",
      "name_kana": "",
      "business_type": "漬物製造業",
      "address": "姶良郡湧水町川西１４５３－３",
      "lat": 32.006835354,
      "lng": 130.735768537,
      "geocoding_level": 8,
      "phone": "",
      "license_no": "第036-000222号",
      "license_date": null,
      "expire_date": "2029-07-31"
    },
    {
      "name": "北園　マリ子",
      "name_kana": "",
      "business_type": "漬物製造業",
      "address": "姶良郡湧水町恒次１３９８－２",
      "lat": 31.953146897,
      "lng": 130.686114874,
      "geocoding_level": 8,
      "phone": "",
      "license_no": "第036-000233号",
      "license_date": null,
      "expire_date": "2029-07-31"
    },
    {
      "name": "竹野　愛",
      "name_kana": "",
      "business_type": "漬物製造業",
      "address": "姶良郡湧水町北方４７９－２",
      "lat": 31.957492313,
      "lng": 130.725198807,
      "geocoding_level": 8,
      "phone": "",
      "license_no": "第036-000235号",
      "license_date": null,
      "expire_date": "2030-07-31"
    },
    {
      "name": "株式会社清泉社",
      "name_kana": "",
      "business_type": "飲食店営業（一般食堂・ﾚｽﾄﾗﾝ等）",
      "address": "姶良郡湧水町米永３３９６",
      "lat": 31.930628000000002,
      "lng": 130.705091,
      "geocoding_level": 3,
      "phone": "",
      "license_no": "第035-000951号",
      "license_date": null,
      "expire_date": "2030-04-30"
    },
    {
      "name": "宗像　浩子",
      "name_kana": "",
      "business_type": "そうざい製造業",
      "address": "姶良郡湧水町幸田１７８３－４",
      "lat": 31.939888854,
      "lng": 130.674232759,
      "geocoding_level": 8,
      "phone": "",
      "license_no": "第036-000277号",
      "license_date": null,
      "expire_date": "2030-07-31"
    },
    {
      "name": "久木元　幸基",
      "name_kana": "",
      "business_type": "飲食店営業（一般食堂・ﾚｽﾄﾗﾝ等）",
      "address": "姶良郡湧水町川添４５２",
      "lat": 31.981996,
      "lng": 130.762136,
      "geocoding_level": 3,
      "phone": "",
      "license_no": "第036-000278号",
      "license_date": null,
      "expire_date": "2029-07-31"
    },
    {
      "name": "神田　真由美",
      "name_kana": "",
      "business_type": "飲食店営業（その他）",
      "address": "姶良郡湧水町木場３４０１－１ （鹿児島市を除く県内一円）",
      "lat": 31.940454733,
      "lng": 130.746890608,
      "geocoding_level": 8,
      "phone": "",
      "license_no": "第035-000800号",
      "license_date": null,
      "expire_date": "2030-01-31"
    },
    {
      "name": "有限会社　ほかむら",
      "name_kana": "",
      "business_type": "みそ又はしょうゆ製造業",
      "address": "姶良郡湧水町恒次１８５４－４",
      "lat": 31.970138613000003,
      "lng": 130.685285839,
      "geocoding_level": 8,
      "phone": "",
      "license_no": "第036-000536号",
      "license_date": null,
      "expire_date": "2029-10-31"
    },
    {
      "name": "福島　盛幸",
      "name_kana": "",
      "business_type": "麺類製造業",
      "address": "姶良郡湧水町中津川１７８９－１１１",
      "lat": 32.01552734,
      "lng": 130.758897294,
      "geocoding_level": 8,
      "phone": "",
      "license_no": "第036-000537号",
      "license_date": null,
      "expire_date": "2030-10-31"
    },
    {
      "name": "神田　秀志",
      "name_kana": "",
      "business_type": "飲食店営業（一般食堂・ﾚｽﾄﾗﾝ等）",
      "address": "姶良郡湧水町木場５６３７－１",
      "lat": 31.935012555,
      "lng": 130.753745193,
      "geocoding_level": 8,
      "phone": "",
      "license_no": "第036-000538号",
      "license_date": null,
      "expire_date": "2030-10-31"
    },
    {
      "name": "菅原　義喜",
      "name_kana": "",
      "business_type": "飲食店営業（その他）",
      "address": "姶良郡湧水町川西９３４－８",
      "lat": 32.011530996,
      "lng": 130.739095431,
      "geocoding_level": 8,
      "phone": "",
      "license_no": "第036-000783号",
      "license_date": null,
      "expire_date": "2031-01-31"
    },
    {
      "name": "前田　律子",
      "name_kana": "",
      "business_type": "そうざい製造業",
      "address": "姶良郡湧水町中津川１４０９－１",
      "lat": 32.025453614,
      "lng": 130.750270155,
      "geocoding_level": 8,
      "phone": "",
      "license_no": "第036-000820号",
      "license_date": null,
      "expire_date": "2030-01-31"
    },
    {
      "name": "中原　凌",
      "name_kana": "",
      "business_type": "飲食店営業（その他）",
      "address": "姶良郡湧水町木場４１１７－１ （鹿児島市を除く鹿児島県内一円）",
      "lat": 31.924811047,
      "lng": 130.725663883,
      "geocoding_level": 8,
      "phone": "",
      "license_no": "第036-000821号",
      "license_date": null,
      "expire_date": "2030-01-31"
    },
    {
      "name": "三堂　勝義",
      "name_kana": "",
      "business_type": "麺類製造業",
      "address": "姶良郡湧水町木場８６３－３",
      "lat": 31.952406119000003,
      "lng": 130.727577467,
      "geocoding_level": 8,
      "phone": "",
      "license_no": "第036-000822号",
      "license_date": null,
      "expire_date": "2031-01-31"
    },
    {
      "name": "有限会社　尾方屋",
      "name_kana": "",
      "business_type": "飲食店営業（一般食堂・ﾚｽﾄﾗﾝ等）",
      "address": "姶良郡湧水町木場８６－５",
      "lat": 31.953899758000002,
      "lng": 130.719934082,
      "geocoding_level": 8,
      "phone": "",
      "license_no": "第036-000823号",
      "license_date": null,
      "expire_date": "2031-01-31"
    },
    {
      "name": "中原　凌",
      "name_kana": "",
      "business_type": "飲食店営業（その他）",
      "address": "姶良郡湧水町木場７５０－３",
      "lat": 31.951921602,
      "lng": 130.723823867,
      "geocoding_level": 8,
      "phone": "",
      "license_no": "第036-000819号",
      "license_date": null,
      "expire_date": "2030-01-31"
    },
    {
      "name": "上村　克義",
      "name_kana": "",
      "business_type": "飲食店営業（その他）",
      "address": "姶良郡湧水町恒次３２９－１５ （鹿児島市を除く鹿児島県内一円）",
      "lat": 31.948388003000005,
      "lng": 130.69428546,
      "geocoding_level": 8,
      "phone": "",
      "license_no": "第036-000964号",
      "license_date": null,
      "expire_date": "2030-04-30"
    },
    {
      "name": "中島　麻",
      "name_kana": "",
      "business_type": "みそ又はしょうゆ製造業",
      "address": "姶良郡湧水町北方４７９－２",
      "lat": 31.957492313,
      "lng": 130.725198807,
      "geocoding_level": 8,
      "phone": "",
      "license_no": "第036-000991号",
      "license_date": null,
      "expire_date": "2031-04-30"
    },
    {
      "name": "藤本　裕貴子",
      "name_kana": "",
      "business_type": "飲食店営業（その他）",
      "address": "姶良郡湧水町恒次５６－１ （鹿児島市を除く県内一円）",
      "lat": 31.949756617000002,
      "lng": 130.703555391,
      "geocoding_level": 8,
      "phone": "",
      "license_no": "第036-000994号",
      "license_date": null,
      "expire_date": "2031-04-30"
    },
    {
      "name": "有限会社　ほかむら",
      "name_kana": "",
      "business_type": "麺類製造業",
      "address": "姶良郡湧水町恒次１８５４－４",
      "lat": 31.970138613000003,
      "lng": 130.685285839,
      "geocoding_level": 8,
      "phone": "",
      "license_no": "第037-000011号",
      "license_date": null,
      "expire_date": "2030-04-30"
    },
    {
      "name": "福島　裕子",
      "name_kana": "",
      "business_type": "そうざい製造業",
      "address": "姶良郡湧水町川添１８８３－２",
      "lat": 31.987771449000004,
      "lng": 130.743516167,
      "geocoding_level": 8,
      "phone": "",
      "license_no": "第037-000013号",
      "license_date": null,
      "expire_date": "2030-04-30"
    },
    {
      "name": "有限会社　霧島製萌",
      "name_kana": "",
      "business_type": "麺類製造業",
      "address": "姶良郡湧水町北方２３３１－４０",
      "lat": 31.959193878,
      "lng": 130.72282809,
      "geocoding_level": 8,
      "phone": "",
      "license_no": "第037-000014号",
      "license_date": null,
      "expire_date": "2030-04-30"
    },
    {
      "name": "株式会社　清泉社",
      "name_kana": "",
      "business_type": "飲食店営業（一般食堂・ﾚｽﾄﾗﾝ等）",
      "address": "姶良郡湧水町木場６３４０",
      "lat": 31.934769,
      "lng": 130.760682,
      "geocoding_level": 3,
      "phone": "",
      "license_no": "第037-000004号",
      "license_date": null,
      "expire_date": "2031-04-30"
    },
    {
      "name": "砂尾　厚子",
      "name_kana": "",
      "business_type": "飲食店営業（その他）",
      "address": "姶良郡湧水町木場６８９",
      "lat": 31.934769,
      "lng": 130.760682,
      "geocoding_level": 3,
      "phone": "",
      "license_no": "第037-000015号",
      "license_date": null,
      "expire_date": "2030-04-30"
    },
    {
      "name": "上水流　達郎",
      "name_kana": "",
      "business_type": "飲食店営業（その他）",
      "address": "姶良郡湧水町木場２９８１－２７",
      "lat": 31.944800322,
      "lng": 130.726649978,
      "geocoding_level": 8,
      "phone": "",
      "license_no": "第037-000098号",
      "license_date": null,
      "expire_date": "2030-04-30"
    },
    {
      "name": "伊地知　和美",
      "name_kana": "",
      "business_type": "飲食店営業（その他）",
      "address": "姶良郡湧水町木場６６５－５",
      "lat": 31.951402583,
      "lng": 130.722584457,
      "geocoding_level": 8,
      "phone": "",
      "license_no": "第037-000173号",
      "license_date": null,
      "expire_date": "2031-07-31"
    },
    {
      "name": "伊地知　和美",
      "name_kana": "",
      "business_type": "飲食店営業（一般食堂・ﾚｽﾄﾗﾝ等）",
      "address": "姶良郡湧水町木場６６５－５",
      "lat": 31.951402583,
      "lng": 130.722584457,
      "geocoding_level": 8,
      "phone": "",
      "license_no": "第037-000174号",
      "license_date": null,
      "expire_date": "2031-07-31"
    },
    {
      "name": "神田　秀志",
      "name_kana": "",
      "business_type": "飲食店営業（その他）",
      "address": "姶良郡湧水町木場５６３７－１ （鹿児島市を除く県内一円）",
      "lat": 31.935012555,
      "lng": 130.753745193,
      "geocoding_level": 8,
      "phone": "",
      "license_no": "第037-000176号",
      "license_date": null,
      "expire_date": "2030-07-31"
    },
    {
      "name": "岩瀨　千尋",
      "name_kana": "",
      "business_type": "そうざい製造業",
      "address": "姶良郡湧水町幸田１７８３－４",
      "lat": 31.939888854,
      "lng": 130.674232759,
      "geocoding_level": 8,
      "phone": "",
      "license_no": "第037-000189号",
      "license_date": null,
      "expire_date": "2031-07-31"
    },
    {
      "name": "五反田　里子",
      "name_kana": "",
      "business_type": "菓子製造業",
      "address": "姶良郡湧水町幸田１７８９",
      "lat": 31.939295001,
      "lng": 130.67404315800002,
      "geocoding_level": 8,
      "phone": "",
      "license_no": "第037-000209号",
      "license_date": null,
      "expire_date": "2031-07-31"
    },
    {
      "name": "五反田　里子",
      "name_kana": "",
      "business_type": "そうざい製造業",
      "address": "姶良郡湧水町幸田１７８９",
      "lat": 31.939295001,
      "lng": 130.67404315800002,
      "geocoding_level": 8,
      "phone": "",
      "license_no": "第037-000210号",
      "license_date": null,
      "expire_date": "2031-07-31"
    },
    {
      "name": "上村　ミヤ子",
      "name_kana": "",
      "business_type": "麺類製造業",
      "address": "姶良郡湧水町恒次３２９－１５",
      "lat": 31.948388003000005,
      "lng": 130.69428546,
      "geocoding_level": 8,
      "phone": "",
      "license_no": "第037-000211号",
      "license_date": null,
      "expire_date": "2030-07-31"
    },
    {
      "name": "種子田　美穂子",
      "name_kana": "",
      "business_type": "みそ又はしょうゆ製造業",
      "address": "姶良郡湧水町川西１４４５－５",
      "lat": 32.005143529,
      "lng": 130.737191852,
      "geocoding_level": 8,
      "phone": "",
      "license_no": "第037-000212号",
      "license_date": null,
      "expire_date": "2030-07-31"
    },
    {
      "name": "新福　明",
      "name_kana": "",
      "business_type": "飲食店営業（一般食堂・ﾚｽﾄﾗﾝ等）",
      "address": "姶良郡湧水町木場６２１－２",
      "lat": 31.950636846000002,
      "lng": 130.721508213,
      "geocoding_level": 8,
      "phone": "",
      "license_no": "第037-000213号",
      "license_date": null,
      "expire_date": "2031-07-31"
    },
    {
      "name": "有限会社　尾方屋",
      "name_kana": "",
      "business_type": "そうざい製造業",
      "address": "姶良郡湧水町木場８６－５",
      "lat": 31.953899758000002,
      "lng": 130.719934082,
      "geocoding_level": 8,
      "phone": "",
      "license_no": "第037-000214号",
      "license_date": null,
      "expire_date": "2031-01-31"
    },
    {
      "name": "園田　高弘",
      "name_kana": "",
      "business_type": "飲食店営業（一般食堂・ﾚｽﾄﾗﾝ等）",
      "address": "姶良郡湧水町木場９０２",
      "lat": 31.934769,
      "lng": 130.760682,
      "geocoding_level": 3,
      "phone": "",
      "license_no": "第037-000215号",
      "license_date": null,
      "expire_date": "2031-07-31"
    },
    {
      "name": "合同会社ナカハラ",
      "name_kana": "",
      "business_type": "飲食店営業（一般食堂・ﾚｽﾄﾗﾝ等）",
      "address": "姶良郡湧水町川添１０３２－６",
      "lat": 31.997281002,
      "lng": 130.754956789,
      "geocoding_level": 8,
      "phone": "",
      "license_no": "第032-000832号",
      "license_date": null,
      "expire_date": "2027-01-31"
    },
    {
      "name": "村田　久雄",
      "name_kana": "",
      "business_type": "飲食店営業（旅館）",
      "address": "姶良郡湧水町川西１５５７－３",
      "lat": 32.007531093,
      "lng": 130.742671821,
      "geocoding_level": 8,
      "phone": "",
      "license_no": "第037-000294号",
      "license_date": null,
      "expire_date": "2031-07-31"
    },
    {
      "name": "久木元　幸基",
      "name_kana": "",
      "business_type": "飲食店営業（その他）",
      "address": "姶良郡湧水町川添４５２ （鹿児島市を除く県内一円）",
      "lat": 31.981996,
      "lng": 130.762136,
      "geocoding_level": 3,
      "phone": "",
      "license_no": "第037-000339号",
      "license_date": null,
      "expire_date": "2030-07-31"
    },
    {
      "name": "原田　めぐみ",
      "name_kana": "",
      "business_type": "菓子製造業",
      "address": "姶良郡湧水町般若寺１３９４－１",
      "lat": 32.02739396500001,
      "lng": 130.737364681,
      "geocoding_level": 8,
      "phone": "",
      "license_no": "第033-000367号",
      "license_date": null,
      "expire_date": "2027-10-31"
    },
    {
      "name": "原田　めぐみ",
      "name_kana": "",
      "business_type": "そうざい製造業",
      "address": "姶良郡湧水町般若寺１３９４－１",
      "lat": 32.02739396500001,
      "lng": 130.737364681,
      "geocoding_level": 8,
      "phone": "",
      "license_no": "第033-000368号",
      "license_date": null,
      "expire_date": "2027-10-31"
    },
    {
      "name": "小妻　聖奈",
      "name_kana": "",
      "business_type": "飲食店営業（その他）",
      "address": "姶良郡湧水町川西９３８－１２",
      "lat": 32.012635039,
      "lng": 130.738764369,
      "geocoding_level": 8,
      "phone": "",
      "license_no": "第037-000116号",
      "license_date": null,
      "expire_date": "2031-04-30"
    },
    {
      "name": "藤本　裕貴子",
      "name_kana": "",
      "business_type": "そうざい製造業",
      "address": "姶良郡湧水町北方４７９－４",
      "lat": 31.957584241000003,
      "lng": 130.725067894,
      "geocoding_level": 8,
      "phone": "",
      "license_no": "第036-000996号",
      "license_date": null,
      "expire_date": "2031-04-30"
    },
    {
      "name": "矢野　豪邦",
      "name_kana": "",
      "business_type": "飲食店営業（その他）",
      "address": "姶良郡湧水町川西１１２４－１",
      "lat": 32.010103808000004,
      "lng": 130.73966193,
      "geocoding_level": 8,
      "phone": "",
      "license_no": "第037-000457号",
      "license_date": null,
      "expire_date": "2030-10-31"
    },
    {
      "name": "竹中　勝雄",
      "name_kana": "",
      "business_type": "飲食店営業（一般食堂・ﾚｽﾄﾗﾝ等）",
      "address": "姶良郡湧水町川添２４３９－２７",
      "lat": 31.979615841000005,
      "lng": 130.77867195,
      "geocoding_level": 8,
      "phone": "",
      "license_no": "第037-000514号",
      "license_date": null,
      "expire_date": "2031-10-31"
    },
    {
      "name": "有限会社鶴丸",
      "name_kana": "",
      "business_type": "そうざい製造業",
      "address": "姶良郡湧水町鶴丸６２２－５",
      "lat": 32.031044041,
      "lng": 130.748556798,
      "geocoding_level": 8,
      "phone": "",
      "license_no": "第037-000515号",
      "license_date": null,
      "expire_date": "2031-10-31"
    },
    {
      "name": "駒走　さおり",
      "name_kana": "",
      "business_type": "飲食店営業（一般食堂・ﾚｽﾄﾗﾝ等）",
      "address": "姶良郡湧水町木場３８０８－４９",
      "lat": 31.935786523999997,
      "lng": 130.733456552,
      "geocoding_level": 8,
      "phone": "",
      "license_no": "第037-000516号",
      "license_date": null,
      "expire_date": "2031-10-31"
    },
    {
      "name": "小橋　徳教",
      "name_kana": "",
      "business_type": "飲食店営業（その他）",
      "address": "姶良郡湧水町般若寺４－１ （鹿児島市を除く鹿児島県内一円）",
      "lat": 32.034881106,
      "lng": 130.739184636,
      "geocoding_level": 8,
      "phone": "",
      "license_no": "第036-000416号",
      "license_date": null,
      "expire_date": "2030-07-31"
    },
    {
      "name": "今村　次良",
      "name_kana": "",
      "business_type": "飲食店営業（その他）",
      "address": "姶良郡湧水町木場４４２５－１ （鹿児島市を除く県内一円）",
      "lat": 31.923820490000004,
      "lng": 130.727455234,
      "geocoding_level": 8,
      "phone": "",
      "license_no": "第037-000602号",
      "license_date": null,
      "expire_date": "2030-10-31"
    },
    {
      "name": "神田　真由美",
      "name_kana": "",
      "business_type": "菓子製造業",
      "address": "姶良郡湧水町北方４７９－２ 湧水町農畜産物開発加工センター",
      "lat": 31.957492313,
      "lng": 130.725198807,
      "geocoding_level": 8,
      "phone": "",
      "license_no": "第037-000626号",
      "license_date": null,
      "expire_date": "2031-10-31"
    },
    {
      "name": "勝元　将真",
      "name_kana": "",
      "business_type": "飲食店営業（その他）",
      "address": "姶良郡湧水町木場５４－３ （鹿児島市を除く県内一円）",
      "lat": 31.953759619,
      "lng": 130.718251506,
      "geocoding_level": 8,
      "phone": "",
      "license_no": "第037-000639号",
      "license_date": null,
      "expire_date": "2030-10-31"
    },
    {
      "name": "駒走　さおり",
      "name_kana": "",
      "business_type": "菓子製造業",
      "address": "姶良郡湧水町木場３８０８－４９",
      "lat": 31.935786523999997,
      "lng": 130.733456552,
      "geocoding_level": 8,
      "phone": "",
      "license_no": "第037-000655号",
      "license_date": null,
      "expire_date": "2031-10-31"
    },
    {
      "name": "福岡　千穂",
      "name_kana": "",
      "business_type": "そうざい製造業",
      "address": "姶良郡湧水町木場１４３－２",
      "lat": 31.953343965000002,
      "lng": 130.723069833,
      "geocoding_level": 8,
      "phone": "",
      "license_no": "第037-000664号",
      "license_date": null,
      "expire_date": "2031-10-31"
    },
    {
      "name": "小橋　徳教",
      "name_kana": "",
      "business_type": "菓子製造業",
      "address": "姶良郡湧水町般若寺４－１",
      "lat": 32.034881106,
      "lng": 130.739184636,
      "geocoding_level": 8,
      "phone": "",
      "license_no": "第037-000665号",
      "license_date": null,
      "expire_date": "2030-10-31"
    },
    {
      "name": "猪俣　武",
      "name_kana": "",
      "business_type": "そうざい製造業",
      "address": "姶良郡湧水町川西１３６４－３",
      "lat": 32.008397204,
      "lng": 130.735327904,
      "geocoding_level": 8,
      "phone": "",
      "license_no": "第033-000358号",
      "license_date": null,
      "expire_date": "2027-10-31"
    },
    {
      "name": "猪俣　武",
      "name_kana": "",
      "business_type": "菓子製造業",
      "address": "姶良郡湧水町川西１３６４－３",
      "lat": 32.008397204,
      "lng": 130.735327904,
      "geocoding_level": 8,
      "phone": "",
      "license_no": "第037-000012号",
      "license_date": null,
      "expire_date": "2030-04-30"
    },
    {
      "name": "鶴留　宗太",
      "name_kana": "",
      "business_type": "飲食店営業（一般食堂・ﾚｽﾄﾗﾝ等）",
      "address": "姶良郡湧水町木場５５－４",
      "lat": 31.954364674,
      "lng": 130.718424827,
      "geocoding_level": 8,
      "phone": "",
      "license_no": "第037-000748号",
      "license_date": null,
      "expire_date": "2032-01-31"
    },
    {
      "name": "鶴留　宗太",
      "name_kana": "",
      "business_type": "食肉販売業",
      "address": "姶良郡湧水町木場５５－４",
      "lat": 31.954364674,
      "lng": 130.718424827,
      "geocoding_level": 8,
      "phone": "",
      "license_no": "第037-000749号",
      "license_date": null,
      "expire_date": "2032-01-31"
    },
    {
      "name": "荒木　國光",
      "name_kana": "",
      "business_type": "飲食店営業（一般食堂・ﾚｽﾄﾗﾝ等）",
      "address": "姶良郡湧水町川西１２８０－３",
      "lat": 32.008383021,
      "lng": 130.737947762,
      "geocoding_level": 8,
      "phone": "",
      "license_no": "第034-000019号",
      "license_date": null,
      "expire_date": "2028-04-30"
    },
    {
      "name": "渋江　公雄",
      "name_kana": "",
      "business_type": "菓子製造業",
      "address": "姶良郡湧水町川添１９４９－２",
      "lat": 31.985230834,
      "lng": 130.744918614,
      "geocoding_level": 8,
      "phone": "",
      "license_no": "第034-000262号",
      "license_date": null,
      "expire_date": "2028-07-31"
    },
    {
      "name": "渋江　公雄",
      "name_kana": "",
      "business_type": "そうざい製造業",
      "address": "姶良郡湧水町川添１９４９－２",
      "lat": 31.985230834,
      "lng": 130.744918614,
      "geocoding_level": 8,
      "phone": "",
      "license_no": "第034-000263号",
      "license_date": null,
      "expire_date": "2028-07-31"
    },
    {
      "name": "荒木　國光",
      "name_kana": "",
      "business_type": "飲食店営業（その他）",
      "address": "姶良郡湧水町川西１２８０－３ （鹿児島市を除く県内一円）",
      "lat": 32.008383021,
      "lng": 130.737947762,
      "geocoding_level": 8,
      "phone": "",
      "license_no": "第037-000831号",
      "license_date": null,
      "expire_date": "2031-01-31"
    },
    {
      "name": "HOWあいらの森ホスピタル売店",
      "name_kana": "ハウアイラノモリホスピタルバイテン",
      "business_type": "⑩ コンビニエンスストア",
      "address": "鹿児島県姶良郡湧水町北方1854",
      "lat": 31.958369,
      "lng": 130.712747,
      "geocoding_level": null,
      "phone": "0995558133",
      "license_no": "",
      "license_date": null,
      "expire_date": null
    },
    {
      "name": "ドラッグコスモス栗野店",
      "name_kana": "ドラッグコスモスクリノテン",
      "business_type": "⑪ 百貨店、総合スーパー",
      "address": "鹿児島県姶良郡湧水町米永５８５－２",
      "lat": 31.948446,
      "lng": 130.715856,
      "geocoding_level": null,
      "phone": "0995-54-1688",
      "license_no": "",
      "license_date": null,
      "expire_date": null
    },
    {
      "name": "湧水町総合交流センター",
      "name_kana": "ユウスイチョウソウゴウコウリュウセンター",
      "business_type": "③ 乳類販売業",
      "address": "鹿児島県姶良郡湧水町米永411-1",
      "lat": 31.950455,
      "lng": 130.714956,
      "geocoding_level": null,
      "phone": "0995558960",
      "license_no": "",
      "license_date": null,
      "expire_date": null
    },
    {
      "name": "ダイレックス栗野店",
      "name_kana": "ダイレックスクリノテン",
      "business_type": "⑪ 百貨店、総合スーパー",
      "address": "鹿児島県姶良郡湧水町米永391-1",
      "lat": 31.950083,
      "lng": 130.715969,
      "geocoding_level": null,
      "phone": "0995-54-1711",
      "license_no": "",
      "license_date": null,
      "expire_date": null
    }
  ]
}
