{
  "meta": {
    "updated": 1783906731,
    "sources": [
      {
        "source": "大分県 食品営業許可施設一覧",
        "license": "Creative Commons Attribution 4.0 International"
      },
      {
        "source": "厚生労働省 食品衛生申請等システム（オープンデータ）",
        "license": "公共データ利用規約（第1.0版, PDL1.0）"
      }
    ]
  },
  "data": [
    {
      "name": "竹田茶寮",
      "name_kana": "",
      "business_type": "飲食店営業",
      "address": "大分県竹田市竹田 2420",
      "lat": 32.96345,
      "lng": 131.39427,
      "geocoding_level": null,
      "phone": "",
      "license_no": "指令豊保第26-97号",
      "license_date": null,
      "expire_date": null
    },
    {
      "name": "佐藤酒造（株）",
      "name_kana": "",
      "business_type": "酒類製造業",
      "address": "大分県竹田市久住町久住 6197",
      "lat": 33.05579,
      "lng": 131.25232,
      "geocoding_level": null,
      "phone": "",
      "license_no": "指令豊保第9-53号",
      "license_date": null,
      "expire_date": null
    },
    {
      "name": "（有）姫野食品",
      "name_kana": "",
      "business_type": "漬物製造業",
      "address": "大分県竹田市竹田 2722-2",
      "lat": 32.97092,
      "lng": 131.40656,
      "geocoding_level": null,
      "phone": "",
      "license_no": "指令豊保第6-5号",
      "license_date": null,
      "expire_date": null
    },
    {
      "name": "有限会社　姫野食品",
      "name_kana": "",
      "business_type": "そうざい製造業",
      "address": "大分県竹田市竹田 2722-2",
      "lat": 32.97092,
      "lng": 131.40656,
      "geocoding_level": null,
      "phone": "",
      "license_no": "指令豊保第9-74号",
      "license_date": null,
      "expire_date": null
    },
    {
      "name": "羽田野商店精肉部",
      "name_kana": "",
      "business_type": "食肉販売業",
      "address": "大分県竹田市竹田町 127番地",
      "lat": 32.96729,
      "lng": 131.3943,
      "geocoding_level": null,
      "phone": "",
      "license_no": "指令豊保第11-57号",
      "license_date": null,
      "expire_date": null
    },
    {
      "name": "羽田野商店精肉部",
      "name_kana": "",
      "business_type": "飲食店営業",
      "address": "大分県竹田市竹田町 127番地",
      "lat": 32.96729,
      "lng": 131.3943,
      "geocoding_level": null,
      "phone": "",
      "license_no": "指令豊保第26-100号",
      "license_date": null,
      "expire_date": null
    },
    {
      "name": "喫茶ベルク",
      "name_kana": "",
      "business_type": "飲食店営業",
      "address": "大分県竹田市飛田川字田原 1878",
      "lat": 32.96628,
      "lng": 131.37666,
      "geocoding_level": null,
      "phone": "",
      "license_no": "指令豊保第11-19号",
      "license_date": null,
      "expire_date": null
    },
    {
      "name": "庄屋",
      "name_kana": "",
      "business_type": "飲食店営業",
      "address": "大分県竹田市竹田町 134",
      "lat": 32.96729,
      "lng": 131.3943,
      "geocoding_level": null,
      "phone": "",
      "license_no": "指令豊保第11-34号",
      "license_date": null,
      "expire_date": null
    },
    {
      "name": "開花堂",
      "name_kana": "",
      "business_type": "菓子製造業",
      "address": "大分県竹田市竹田町 456",
      "lat": 32.96697,
      "lng": 131.39229,
      "geocoding_level": null,
      "phone": "",
      "license_no": "指令豊保第12-43号",
      "license_date": null,
      "expire_date": null
    },
    {
      "name": "ホテルリバーサイド",
      "name_kana": "",
      "business_type": "飲食店営業",
      "address": "大分県竹田市竹田 291",
      "lat": 32.96688,
      "lng": 131.40685,
      "geocoding_level": null,
      "phone": "",
      "license_no": "指令豊保第9-81号",
      "license_date": null,
      "expire_date": null
    },
    {
      "name": "ホテルぷりん",
      "name_kana": "",
      "business_type": "飲食店営業",
      "address": "大分県竹田市大字会々字上鹿口 5260－4",
      "lat": 32.97651,
      "lng": 131.38312,
      "geocoding_level": null,
      "phone": "",
      "license_no": "指令豊保第9-80号",
      "license_date": null,
      "expire_date": null
    },
    {
      "name": "魚町友修（有）",
      "name_kana": "",
      "business_type": "飲食店営業",
      "address": "大分県竹田市竹田町 284番地",
      "lat": 32.9681,
      "lng": 131.39348,
      "geocoding_level": null,
      "phone": "",
      "license_no": "指令豊保第11-58号",
      "license_date": null,
      "expire_date": null
    },
    {
      "name": "竹田名水観光（有）",
      "name_kana": "",
      "business_type": "清涼飲料水製造業",
      "address": "大分県竹田市門田 8",
      "lat": 32.92501,
      "lng": 131.37134,
      "geocoding_level": null,
      "phone": "",
      "license_no": "指令豊保第26-106号",
      "license_date": null,
      "expire_date": null
    },
    {
      "name": "豊肥製餡協同組合",
      "name_kana": "",
      "business_type": "あん類製造業",
      "address": "大分県竹田市竹田 1881-1",
      "lat": 32.96954,
      "lng": 131.39259,
      "geocoding_level": null,
      "phone": "",
      "license_no": "指令豊保第26-103号",
      "license_date": null,
      "expire_date": null
    },
    {
      "name": "旭食品工業（株）大分工場",
      "name_kana": "",
      "business_type": "漬物製造業",
      "address": "大分県竹田市菅生 173-1",
      "lat": 32.95325,
      "lng": 131.28676,
      "geocoding_level": null,
      "phone": "",
      "license_no": "指令豊保第6-23号",
      "license_date": null,
      "expire_date": null
    },
    {
      "name": "竹田エノハ養魚組合",
      "name_kana": "",
      "business_type": "飲食店営業",
      "address": "大分県竹田市小川 47-2",
      "lat": 33.01228,
      "lng": 131.30696,
      "geocoding_level": null,
      "phone": "",
      "license_no": "指令豊保第26-78号",
      "license_date": null,
      "expire_date": null
    },
    {
      "name": "（有）川口自由堂",
      "name_kana": "",
      "business_type": "菓子製造業",
      "address": "大分県竹田市竹田 1886",
      "lat": 32.96954,
      "lng": 131.39259,
      "geocoding_level": null,
      "phone": "",
      "license_no": "指令豊保第26-102号",
      "license_date": null,
      "expire_date": null
    },
    {
      "name": "茶房だんだん",
      "name_kana": "",
      "business_type": "飲食店営業",
      "address": "大分県竹田市竹田町",
      "lat": 32.96828,
      "lng": 131.39287,
      "geocoding_level": null,
      "phone": "",
      "license_no": "指令豊保第26-18号",
      "license_date": null,
      "expire_date": null
    },
    {
      "name": "稲葉学園高等学校食品加工場",
      "name_kana": "",
      "business_type": "菓子製造業",
      "address": "大分県竹田市片ケ瀬 252",
      "lat": 32.96034,
      "lng": 131.40912,
      "geocoding_level": null,
      "phone": "",
      "license_no": "指令豊保第26-23号",
      "license_date": null,
      "expire_date": null
    },
    {
      "name": "竹葉",
      "name_kana": "",
      "business_type": "飲食店営業",
      "address": "大分県竹田市玉来 970-2",
      "lat": 32.95367,
      "lng": 131.38057,
      "geocoding_level": null,
      "phone": "",
      "license_no": "指令豊保第9-44号",
      "license_date": null,
      "expire_date": null
    },
    {
      "name": "グリーンヒルあんのん",
      "name_kana": "",
      "business_type": "飲食店営業",
      "address": "大分県竹田市大字玉来 659-8",
      "lat": 32.95496,
      "lng": 131.37746,
      "geocoding_level": null,
      "phone": "",
      "license_no": "指令豊保第12-2号",
      "license_date": null,
      "expire_date": null
    },
    {
      "name": "パルクラブ",
      "name_kana": "",
      "business_type": "食肉販売業",
      "address": "大分県竹田市久住町有氏 896-22",
      "lat": 33.08593,
      "lng": 131.29587,
      "geocoding_level": null,
      "phone": "",
      "license_no": "指令豊保第12-13号",
      "license_date": null,
      "expire_date": null
    },
    {
      "name": "かじか庵",
      "name_kana": "",
      "business_type": "飲食店営業",
      "address": "大分県竹田市直入町長湯 2961-2",
      "lat": 33.07447,
      "lng": 131.37514,
      "geocoding_level": null,
      "phone": "",
      "license_no": "指令豊保第12-42号",
      "license_date": null,
      "expire_date": null
    },
    {
      "name": "（資）松ちゃんストアー",
      "name_kana": "",
      "business_type": "魚介類販売業",
      "address": "大分県竹田市久住町久住 6248",
      "lat": 33.05579,
      "lng": 131.25232,
      "geocoding_level": null,
      "phone": "",
      "license_no": "指令豊保第12-58号",
      "license_date": null,
      "expire_date": null
    },
    {
      "name": "宿房　翡翠之庄",
      "name_kana": "",
      "business_type": "飲食店営業",
      "address": "大分県竹田市直入町長湯 8170-2",
      "lat": 33.07447,
      "lng": 131.37514,
      "geocoding_level": null,
      "phone": "",
      "license_no": "指令豊保第26-98号",
      "license_date": null,
      "expire_date": null
    },
    {
      "name": "くたみヶ丘宿房翡翠の庄",
      "name_kana": "",
      "business_type": "そうざい製造業",
      "address": "大分県竹田市直入町長湯 7443-1",
      "lat": 33.07447,
      "lng": 131.37514,
      "geocoding_level": null,
      "phone": "",
      "license_no": "指令豊保第11-35号",
      "license_date": null,
      "expire_date": null
    },
    {
      "name": "ニュー万福茶屋",
      "name_kana": "",
      "business_type": "飲食店営業",
      "address": "大分県竹田市穴井迫 庄屋 879-1",
      "lat": 32.94743,
      "lng": 131.35304,
      "geocoding_level": null,
      "phone": "",
      "license_no": "指令豊保第11-52号",
      "license_date": null,
      "expire_date": null
    },
    {
      "name": "レゾネイトクラブくじゅう",
      "name_kana": "",
      "business_type": "飲食店営業",
      "address": "大分県竹田市久住町有氏広内 1773",
      "lat": 33.08593,
      "lng": 131.29587,
      "geocoding_level": null,
      "phone": "",
      "license_no": "指令豊保第26-87号",
      "license_date": null,
      "expire_date": null
    },
    {
      "name": "上野屋旅館",
      "name_kana": "",
      "business_type": "飲食店営業",
      "address": "大分県竹田市直入町長湯 7961",
      "lat": 33.07447,
      "lng": 131.37514,
      "geocoding_level": null,
      "phone": "",
      "license_no": "指令豊保第9-5号",
      "license_date": null,
      "expire_date": null
    },
    {
      "name": "御宿　一竹",
      "name_kana": "",
      "business_type": "飲食店営業",
      "address": "大分県竹田市会々 2266番地の4",
      "lat": 32.97374,
      "lng": 131.39256,
      "geocoding_level": null,
      "phone": "",
      "license_no": "指令豊保第9-79号",
      "license_date": null,
      "expire_date": null
    },
    {
      "name": "姫野食品近戸工場",
      "name_kana": "",
      "business_type": "菓子製造業",
      "address": "大分県竹田市竹田愛宕谷 2722－4",
      "lat": 32.96449,
      "lng": 131.39592,
      "geocoding_level": null,
      "phone": "",
      "license_no": "指令豊保第9-56号",
      "license_date": null,
      "expire_date": null
    },
    {
      "name": "久住スポーツ研修センター",
      "name_kana": "",
      "business_type": "飲食店営業",
      "address": "大分県竹田市久住町栢木 604-1",
      "lat": 33.04084,
      "lng": 131.32968,
      "geocoding_level": null,
      "phone": "",
      "license_no": "指令豊保第11-2号",
      "license_date": null,
      "expire_date": null
    },
    {
      "name": "スターダスト",
      "name_kana": "",
      "business_type": "飲食店営業",
      "address": "大分県竹田市拝田原 161",
      "lat": 32.96241,
      "lng": 131.38164,
      "geocoding_level": null,
      "phone": "",
      "license_no": "指令豊保第11-18号",
      "license_date": null,
      "expire_date": null
    },
    {
      "name": "ホテル岩城屋",
      "name_kana": "",
      "business_type": "飲食店営業",
      "address": "大分県竹田市拝田原 161-3",
      "lat": 32.96241,
      "lng": 131.38164,
      "geocoding_level": null,
      "phone": "",
      "license_no": "指令豊保第12-16号",
      "license_date": null,
      "expire_date": null
    },
    {
      "name": "石窯ダイニングfuu",
      "name_kana": "",
      "business_type": "飲食店営業",
      "address": "大分県竹田市久住町大字有氏 896-22",
      "lat": 33.08593,
      "lng": 131.29587,
      "geocoding_level": null,
      "phone": "",
      "license_no": "指令豊保第11-56号",
      "license_date": null,
      "expire_date": null
    },
    {
      "name": "（有）川口自由堂",
      "name_kana": "",
      "business_type": "菓子製造業",
      "address": "大分県竹田市竹田町 545",
      "lat": 32.96933,
      "lng": 131.39229,
      "geocoding_level": null,
      "phone": "",
      "license_no": "指令豊保第26-101号",
      "license_date": null,
      "expire_date": null
    },
    {
      "name": "くじゅう水泉郷",
      "name_kana": "",
      "business_type": "酒類製造業",
      "address": "大分県竹田市久住町白丹 7575-1",
      "lat": 33.03118,
      "lng": 131.23845,
      "geocoding_level": null,
      "phone": "",
      "license_no": "指令豊保第26-7号",
      "license_date": null,
      "expire_date": null
    },
    {
      "name": "くじゅう水泉郷",
      "name_kana": "",
      "business_type": "飲食店営業",
      "address": "大分県竹田市久住町白丹 7575-1",
      "lat": 33.03118,
      "lng": 131.23845,
      "geocoding_level": null,
      "phone": "",
      "license_no": "指令豊保第26-8号",
      "license_date": null,
      "expire_date": null
    },
    {
      "name": "茶房　ひめ野",
      "name_kana": "",
      "business_type": "飲食店営業",
      "address": "大分県竹田市竹田 239",
      "lat": 32.96449,
      "lng": 131.39592,
      "geocoding_level": null,
      "phone": "",
      "license_no": "指令豊保第12-18号",
      "license_date": null,
      "expire_date": null
    },
    {
      "name": "山の湯　かずよ",
      "name_kana": "",
      "business_type": "飲食店営業",
      "address": "大分県竹田市直入町長湯字横枕 2405",
      "lat": 33.07447,
      "lng": 131.37514,
      "geocoding_level": null,
      "phone": "",
      "license_no": "指令豊保第11-21号",
      "license_date": null,
      "expire_date": null
    },
    {
      "name": "旅館「赤川荘」",
      "name_kana": "",
      "business_type": "飲食店営業",
      "address": "大分県竹田市久住町久住 4008－1",
      "lat": 33.05579,
      "lng": 131.25232,
      "geocoding_level": null,
      "phone": "",
      "license_no": "指令豊保第12-47号",
      "license_date": null,
      "expire_date": null
    },
    {
      "name": "水神之森　レストラン",
      "name_kana": "",
      "business_type": "飲食店営業",
      "address": "大分県竹田市直入町長湯 2907",
      "lat": 33.07447,
      "lng": 131.37514,
      "geocoding_level": null,
      "phone": "",
      "license_no": "指令豊保第9-1号",
      "license_date": null,
      "expire_date": null
    },
    {
      "name": "特別養護老人ホーム　久住荘",
      "name_kana": "",
      "business_type": "飲食店営業",
      "address": "大分県竹田市久住町久住 6485-1",
      "lat": 33.05579,
      "lng": 131.25232,
      "geocoding_level": null,
      "phone": "",
      "license_no": "指令豊保第11-19号",
      "license_date": null,
      "expire_date": null
    },
    {
      "name": "やきとり大将母家",
      "name_kana": "",
      "business_type": "飲食店営業",
      "address": "大分県竹田市竹田町 316",
      "lat": 32.96729,
      "lng": 131.3943,
      "geocoding_level": null,
      "phone": "",
      "license_no": "指令豊保第9-38号",
      "license_date": null,
      "expire_date": null
    },
    {
      "name": "（有）郷の湯旅館",
      "name_kana": "",
      "business_type": "飲食店営業",
      "address": "大分県竹田市直入町長湯 3538－2",
      "lat": 33.07447,
      "lng": 131.37514,
      "geocoding_level": null,
      "phone": "",
      "license_no": "指令豊保第9-55号",
      "license_date": null,
      "expire_date": null
    },
    {
      "name": "荻町まちおこし（有）　荻の里温泉",
      "name_kana": "",
      "business_type": "飲食店営業",
      "address": "大分県竹田市荻町新藤 1131",
      "lat": 32.93951,
      "lng": 131.29684,
      "geocoding_level": null,
      "phone": "",
      "license_no": "指令豊保第12-56号",
      "license_date": null,
      "expire_date": null
    },
    {
      "name": "竹田養鱒観光（株）命水苑",
      "name_kana": "",
      "business_type": "飲食店営業",
      "address": "大分県竹田市入田 20",
      "lat": 32.94323,
      "lng": 131.39871,
      "geocoding_level": null,
      "phone": "",
      "license_no": "指令豊保第11-15号",
      "license_date": null,
      "expire_date": null
    },
    {
      "name": "法華院温泉山荘",
      "name_kana": "",
      "business_type": "飲食店営業",
      "address": "大分県竹田市久住町有氏 1783",
      "lat": 33.08593,
      "lng": 131.29587,
      "geocoding_level": null,
      "phone": "",
      "license_no": "指令豊保第11-16号",
      "license_date": null,
      "expire_date": null
    },
    {
      "name": "有限会社 肉のまるまさ",
      "name_kana": "",
      "business_type": "食肉処理業",
      "address": "大分県竹田市久住町栢木 1492-3",
      "lat": 33.04084,
      "lng": 131.32968,
      "geocoding_level": null,
      "phone": "",
      "license_no": "指令豊保第11-32号",
      "license_date": null,
      "expire_date": null
    },
    {
      "name": "大久保病院食堂",
      "name_kana": "",
      "business_type": "飲食店営業",
      "address": "大分県竹田市久住町栢木 6026－2",
      "lat": 33.04084,
      "lng": 131.32968,
      "geocoding_level": null,
      "phone": "",
      "license_no": "指令豊保第9-35号",
      "license_date": null,
      "expire_date": null
    },
    {
      "name": "田舎食改革第一弾鳴呼隼",
      "name_kana": "",
      "business_type": "飲食店営業",
      "address": "大分県竹田市直入町長湯 7951-3",
      "lat": 33.07447,
      "lng": 131.37514,
      "geocoding_level": null,
      "phone": "",
      "license_no": "指令豊保第26-14号",
      "license_date": null,
      "expire_date": null
    },
    {
      "name": "ガンジーレストラン",
      "name_kana": "",
      "business_type": "飲食店営業",
      "address": "大分県竹田市久住町大字久住 4004－56",
      "lat": 33.05579,
      "lng": 131.25232,
      "geocoding_level": null,
      "phone": "",
      "license_no": "指令豊保第11-1号",
      "license_date": null,
      "expire_date": null
    },
    {
      "name": "ジョイフル大分竹田店",
      "name_kana": "",
      "business_type": "飲食店営業",
      "address": "大分県竹田市君ケ園下矢倉 977-1,978-2",
      "lat": 32.94707,
      "lng": 131.36255,
      "geocoding_level": null,
      "phone": "",
      "license_no": "指令豊保第11-34号",
      "license_date": null,
      "expire_date": null
    },
    {
      "name": "炭火処　野宴",
      "name_kana": "",
      "business_type": "飲食店営業",
      "address": "大分県竹田市久住町白丹 7571－23",
      "lat": 33.03118,
      "lng": 131.23845,
      "geocoding_level": null,
      "phone": "",
      "license_no": "指令豊保第11-2号",
      "license_date": null,
      "expire_date": null
    },
    {
      "name": "パルクラブ温泉館　大地の湯",
      "name_kana": "",
      "business_type": "飲食店営業",
      "address": "大分県竹田市久住町大字有氏字大久保 757番地",
      "lat": 33.08593,
      "lng": 131.29587,
      "geocoding_level": null,
      "phone": "",
      "license_no": "指令豊保第11-30号",
      "license_date": null,
      "expire_date": null
    },
    {
      "name": "やまなみ",
      "name_kana": "",
      "business_type": "漬物製造業",
      "address": "大分県竹田市飛田川 2683番地",
      "lat": 32.96628,
      "lng": 131.37666,
      "geocoding_level": null,
      "phone": "",
      "license_no": "指令豊保第18-1号",
      "license_date": null,
      "expire_date": null
    },
    {
      "name": "レゾネイトクラブくじゅう　日本料理「和心」",
      "name_kana": "",
      "business_type": "飲食店営業",
      "address": "大分県竹田市久住町有氏字広内 1773-25",
      "lat": 33.08593,
      "lng": 131.29587,
      "geocoding_level": null,
      "phone": "",
      "license_no": "指令豊保第12-1号",
      "license_date": null,
      "expire_date": null
    },
    {
      "name": "但馬屋老舗",
      "name_kana": "",
      "business_type": "菓子製造業",
      "address": "大分県竹田市大字竹田町 34番地",
      "lat": 32.96632,
      "lng": 131.39313,
      "geocoding_level": null,
      "phone": "",
      "license_no": "指令豊保第11-16号",
      "license_date": null,
      "expire_date": null
    },
    {
      "name": "有限会社　泉水スプリングス",
      "name_kana": "",
      "business_type": "清涼飲料水製造業",
      "address": "大分県竹田市大字門田 205",
      "lat": 32.92501,
      "lng": 131.37134,
      "geocoding_level": null,
      "phone": "",
      "license_no": "指令豊保第9-29号",
      "license_date": null,
      "expire_date": null
    },
    {
      "name": "竹田診療所　厨房",
      "name_kana": "",
      "business_type": "飲食店営業",
      "address": "大分県竹田市大字会々 3313-1",
      "lat": 32.97484,
      "lng": 131.38255,
      "geocoding_level": null,
      "phone": "",
      "license_no": "指令豊保第11-33号",
      "license_date": null,
      "expire_date": null
    },
    {
      "name": "株式会社藤野屋",
      "name_kana": "",
      "business_type": "食肉処理業",
      "address": "大分県竹田市大字菅生 953",
      "lat": 32.95325,
      "lng": 131.28676,
      "geocoding_level": null,
      "phone": "",
      "license_no": "指令豊保第9-47号",
      "license_date": null,
      "expire_date": null
    },
    {
      "name": "Ａコープみやこの店",
      "name_kana": "",
      "business_type": "魚介類販売業",
      "address": "大分県竹田市久住町大字栢木 6045－1",
      "lat": 33.04084,
      "lng": 131.32968,
      "geocoding_level": null,
      "phone": "",
      "license_no": "指令豊保第9-73号",
      "license_date": null,
      "expire_date": null
    },
    {
      "name": "久住ﾜｲﾅﾘｰ",
      "name_kana": "",
      "business_type": "酒類製造業",
      "address": "大分県竹田市久住町大字久住字平木 3990-1",
      "lat": 33.05579,
      "lng": 131.25232,
      "geocoding_level": null,
      "phone": "",
      "license_no": "指令豊保第11-54号",
      "license_date": null,
      "expire_date": null
    },
    {
      "name": "特別養護老人ﾎｰﾑ　久住荘ﾃﾞｲｻｰﾋﾞｽｾﾝﾀｰ",
      "name_kana": "",
      "business_type": "飲食店営業",
      "address": "大分県竹田市久住町大字久住 6485-1",
      "lat": 33.05579,
      "lng": 131.25232,
      "geocoding_level": null,
      "phone": "",
      "license_no": "指令豊保第26-70号",
      "license_date": null,
      "expire_date": null
    },
    {
      "name": "マルミヤストア　竹田店",
      "name_kana": "",
      "business_type": "食肉販売業",
      "address": "大分県竹田市大字拝田原 731番地",
      "lat": 32.9559,
      "lng": 131.37444,
      "geocoding_level": null,
      "phone": "",
      "license_no": "指令豊保第9-71号",
      "license_date": null,
      "expire_date": null
    },
    {
      "name": "株式会社マルミヤストア竹田店",
      "name_kana": "",
      "business_type": "飲食店営業",
      "address": "大分県竹田市拝田原 731番地",
      "lat": 32.9559,
      "lng": 131.37444,
      "geocoding_level": null,
      "phone": "",
      "license_no": "指令豊保第9-72号",
      "license_date": null,
      "expire_date": null
    },
    {
      "name": "長湯歴史温泉伝承館　天恵塾食堂",
      "name_kana": "",
      "business_type": "飲食店営業",
      "address": "大分県竹田市直入町大字長湯 3264-1",
      "lat": 33.07447,
      "lng": 131.37514,
      "geocoding_level": null,
      "phone": "",
      "license_no": "指令豊保第26-76号",
      "license_date": null,
      "expire_date": null
    },
    {
      "name": "シャーロット",
      "name_kana": "",
      "business_type": "アイスクリーム類製造業",
      "address": "大分県竹田市久住町久住 4050",
      "lat": 33.05579,
      "lng": 131.25232,
      "geocoding_level": null,
      "phone": "",
      "license_no": "指令豊保第26-68号",
      "license_date": null,
      "expire_date": null
    },
    {
      "name": "シャーロット",
      "name_kana": "",
      "business_type": "飲食店営業",
      "address": "大分県竹田市久住町久住 4050",
      "lat": 33.05579,
      "lng": 131.25232,
      "geocoding_level": null,
      "phone": "",
      "license_no": "指令豊保第26-67号",
      "license_date": null,
      "expire_date": null
    },
    {
      "name": "シャーロット",
      "name_kana": "",
      "business_type": "菓子製造業",
      "address": "大分県竹田市久住町久住 4050",
      "lat": 33.05579,
      "lng": 131.25232,
      "geocoding_level": null,
      "phone": "",
      "license_no": "指令豊保第26-69号",
      "license_date": null,
      "expire_date": null
    },
    {
      "name": "ＥＭ６２５９６",
      "name_kana": "",
      "business_type": "飲食店営業",
      "address": "大分県竹田市久住町栢木 574－34",
      "lat": 33.04084,
      "lng": 131.32968,
      "geocoding_level": null,
      "phone": "",
      "license_no": "指令豊保第11-3号",
      "license_date": null,
      "expire_date": null
    },
    {
      "name": "マルミヤストア　水産部",
      "name_kana": "",
      "business_type": "魚介類販売業",
      "address": "大分県竹田市大字拝田原 731番地",
      "lat": 32.9559,
      "lng": 131.37444,
      "geocoding_level": null,
      "phone": "",
      "license_no": "指令豊保第11-38号",
      "license_date": null,
      "expire_date": null
    },
    {
      "name": "マルミヤストア　水産部",
      "name_kana": "",
      "business_type": "飲食店営業",
      "address": "大分県竹田市大字拝田原 731番地",
      "lat": 32.9559,
      "lng": 131.37444,
      "geocoding_level": null,
      "phone": "",
      "license_no": "指令豊保第11-39号",
      "license_date": null,
      "expire_date": null
    },
    {
      "name": "久住ワイナリー　石窯工房",
      "name_kana": "",
      "business_type": "飲食店営業",
      "address": "大分県竹田市久住町大字久住 3990-1",
      "lat": 33.05579,
      "lng": 131.25232,
      "geocoding_level": null,
      "phone": "",
      "license_no": "指令豊保第11-49号",
      "license_date": null,
      "expire_date": null
    },
    {
      "name": "kips（キップス）",
      "name_kana": "",
      "business_type": "飲食店営業",
      "address": "大分県竹田市竹田町 590－2",
      "lat": 32.96889,
      "lng": 131.39186,
      "geocoding_level": null,
      "phone": "",
      "license_no": "指令豊保第11-43号",
      "license_date": null,
      "expire_date": null
    },
    {
      "name": "花びし",
      "name_kana": "",
      "business_type": "飲食店営業",
      "address": "大分県竹田市久住町久住 2339番地2",
      "lat": 33.05579,
      "lng": 131.25232,
      "geocoding_level": null,
      "phone": "",
      "license_no": "指令豊保第11-50号",
      "license_date": null,
      "expire_date": null
    },
    {
      "name": "らいす亭",
      "name_kana": "",
      "business_type": "飲食店営業",
      "address": "大分県竹田市拝田原 771－1",
      "lat": 32.95487,
      "lng": 131.37407,
      "geocoding_level": null,
      "phone": "",
      "license_no": "指令豊保第11-61号",
      "license_date": null,
      "expire_date": null
    },
    {
      "name": "竹田医師会病院",
      "name_kana": "",
      "business_type": "飲食店営業",
      "address": "大分県竹田市拝田原 448",
      "lat": 32.9559,
      "lng": 131.37444,
      "geocoding_level": null,
      "phone": "",
      "license_no": "指令豊保第26-42号",
      "license_date": null,
      "expire_date": null
    },
    {
      "name": "合資会社　松ちゃんストアー",
      "name_kana": "",
      "business_type": "食肉販売業",
      "address": "大分県竹田市久住町大字久住 6248番地",
      "lat": 33.05579,
      "lng": 131.25232,
      "geocoding_level": null,
      "phone": "",
      "license_no": "指令豊保第12-24号",
      "license_date": null,
      "expire_date": null
    },
    {
      "name": "ガニ湯本舗　天風庵",
      "name_kana": "",
      "business_type": "飲食店営業",
      "address": "大分県竹田市直入町大字長湯 7699番地1",
      "lat": 33.07447,
      "lng": 131.37514,
      "geocoding_level": null,
      "phone": "",
      "license_no": "指令豊保第12-25号",
      "license_date": null,
      "expire_date": null
    },
    {
      "name": "（有）エム・ナイン",
      "name_kana": "",
      "business_type": "清涼飲料水製造業",
      "address": "大分県竹田市荻町馬場 437番地1",
      "lat": 32.92836,
      "lng": 131.29213,
      "geocoding_level": null,
      "phone": "",
      "license_no": "指令豊保第11-40号",
      "license_date": null,
      "expire_date": null
    },
    {
      "name": "（株）ミートクレスト　竹田営業所",
      "name_kana": "",
      "business_type": "食肉販売業",
      "address": "大分県竹田市拝田原 776-3",
      "lat": 32.95487,
      "lng": 131.37407,
      "geocoding_level": null,
      "phone": "",
      "license_no": "指令豊保第12-44号",
      "license_date": null,
      "expire_date": null
    },
    {
      "name": "さふらんごはん",
      "name_kana": "",
      "business_type": "飲食店営業",
      "address": "大分県竹田市竹田 2105番地",
      "lat": 32.96629,
      "lng": 131.39178,
      "geocoding_level": null,
      "phone": "",
      "license_no": "指令豊保第12-41号",
      "license_date": null,
      "expire_date": null
    },
    {
      "name": "Ａコープみやこの店",
      "name_kana": "",
      "business_type": "食肉販売業",
      "address": "大分県竹田市久住町栢木 6045－1",
      "lat": 33.04084,
      "lng": 131.32968,
      "geocoding_level": null,
      "phone": "",
      "license_no": "指令豊保第12-46号",
      "license_date": null,
      "expire_date": null
    },
    {
      "name": "久住高原ゴルフ倶楽部レストラン",
      "name_kana": "",
      "business_type": "飲食店営業",
      "address": "大分県竹田市久住町白丹 3866",
      "lat": 33.03118,
      "lng": 131.23845,
      "geocoding_level": null,
      "phone": "",
      "license_no": "指令豊保第26-79号",
      "license_date": null,
      "expire_date": null
    },
    {
      "name": "しらゆり",
      "name_kana": "",
      "business_type": "菓子製造業",
      "address": "大分県竹田市大字平田 5782番地1",
      "lat": 32.98243,
      "lng": 131.3622,
      "geocoding_level": null,
      "phone": "",
      "license_no": "指令豊保第9-32号",
      "license_date": null,
      "expire_date": null
    },
    {
      "name": "しらゆり",
      "name_kana": "",
      "business_type": "そうざい製造業",
      "address": "大分県竹田市大字平田 5782番地1",
      "lat": 32.98243,
      "lng": 131.3622,
      "geocoding_level": null,
      "phone": "",
      "license_no": "指令豊保第9-33号",
      "license_date": null,
      "expire_date": null
    },
    {
      "name": "葡萄の木の下で",
      "name_kana": "",
      "business_type": "飲食店営業",
      "address": "大分県竹田市久住町大字有氏 896-22",
      "lat": 33.08593,
      "lng": 131.29587,
      "geocoding_level": null,
      "phone": "",
      "license_no": "指令豊保第26-80号",
      "license_date": null,
      "expire_date": null
    },
    {
      "name": "丸福",
      "name_kana": "",
      "business_type": "食肉処理業",
      "address": "大分県竹田市荻町西福寺 5571－4",
      "lat": 32.9113,
      "lng": 131.31589,
      "geocoding_level": null,
      "phone": "",
      "license_no": "指令豊保第11-23号",
      "license_date": null,
      "expire_date": null
    },
    {
      "name": "丸福",
      "name_kana": "",
      "business_type": "そうざい製造業",
      "address": "大分県竹田市荻町西福寺 5571－4",
      "lat": 32.9113,
      "lng": 131.31589,
      "geocoding_level": null,
      "phone": "",
      "license_no": "指令豊保第11-24号",
      "license_date": null,
      "expire_date": null
    },
    {
      "name": "道の駅　すごう丸福",
      "name_kana": "",
      "business_type": "飲食店営業",
      "address": "大分県竹田市大字菅生 989－1",
      "lat": 32.95325,
      "lng": 131.28676,
      "geocoding_level": null,
      "phone": "",
      "license_no": "指令豊保第11-9号",
      "license_date": null,
      "expire_date": null
    },
    {
      "name": "道の駅竹田",
      "name_kana": "",
      "business_type": "飲食店営業",
      "address": "大分県竹田市大字米納 663-1",
      "lat": 32.98509,
      "lng": 131.34377,
      "geocoding_level": null,
      "phone": "",
      "license_no": "指令豊保第11-25号",
      "license_date": null,
      "expire_date": null
    },
    {
      "name": "くじゅう高原ガンジー牧場",
      "name_kana": "",
      "business_type": "菓子製造業",
      "address": "大分県竹田市久住町大字久住 4004番地56",
      "lat": 33.05579,
      "lng": 131.25232,
      "geocoding_level": null,
      "phone": "",
      "license_no": "指令豊保第11-17号",
      "license_date": null,
      "expire_date": null
    },
    {
      "name": "くじゅう高原ガンジー牧場",
      "name_kana": "",
      "business_type": "飲食店営業",
      "address": "大分県竹田市久住町大字久住 4004-56",
      "lat": 33.05579,
      "lng": 131.25232,
      "geocoding_level": null,
      "phone": "",
      "license_no": "指令豊保第11-18号",
      "license_date": null,
      "expire_date": null
    },
    {
      "name": "楽や",
      "name_kana": "",
      "business_type": "飲食店営業",
      "address": "大分県竹田市久住町大字久住 4004番地56",
      "lat": 33.05579,
      "lng": 131.25232,
      "geocoding_level": null,
      "phone": "",
      "license_no": "指令豊保第11-4号",
      "license_date": null,
      "expire_date": null
    },
    {
      "name": "BBC長湯～林の中の小さな図書館～",
      "name_kana": "",
      "business_type": "飲食店営業",
      "address": "大分県竹田市直入町大字長湯 7788-2",
      "lat": 33.07447,
      "lng": 131.37514,
      "geocoding_level": null,
      "phone": "",
      "license_no": "指令豊保第11-26号",
      "license_date": null,
      "expire_date": null
    },
    {
      "name": "岡城天然温泉「月のしずく」",
      "name_kana": "",
      "business_type": "飲食店営業",
      "address": "大分県竹田市大字飛田川 3435番地20",
      "lat": 32.97226,
      "lng": 131.38237,
      "geocoding_level": null,
      "phone": "",
      "license_no": "指令豊保第11-42号",
      "license_date": null,
      "expire_date": null
    },
    {
      "name": "久住スポーツ研修センター",
      "name_kana": "",
      "business_type": "飲食店営業",
      "address": "大分県竹田市久住町大字栢木 607番地",
      "lat": 33.04084,
      "lng": 131.32968,
      "geocoding_level": null,
      "phone": "",
      "license_no": "指令豊保第11-43号",
      "license_date": null,
      "expire_date": null
    },
    {
      "name": "（株）　フレイン",
      "name_kana": "",
      "business_type": "魚介類販売業",
      "address": "大分県竹田市拝田原 745-1",
      "lat": 32.95672,
      "lng": 131.3763,
      "geocoding_level": null,
      "phone": "",
      "license_no": "指令豊保第11-38号",
      "license_date": null,
      "expire_date": null
    },
    {
      "name": "（株）　フレイン",
      "name_kana": "",
      "business_type": "食肉販売業",
      "address": "大分県竹田市拝田原 745-1",
      "lat": 32.95672,
      "lng": 131.3763,
      "geocoding_level": null,
      "phone": "",
      "license_no": "指令豊保第11-39号",
      "license_date": null,
      "expire_date": null
    },
    {
      "name": "（株）　フレイン",
      "name_kana": "",
      "business_type": "飲食店営業",
      "address": "大分県竹田市拝田原 745-1",
      "lat": 32.95672,
      "lng": 131.3763,
      "geocoding_level": null,
      "phone": "",
      "license_no": "指令豊保第11-40号",
      "license_date": null,
      "expire_date": null
    },
    {
      "name": "丸福",
      "name_kana": "",
      "business_type": "食肉製品製造業",
      "address": "大分県竹田市荻町西福寺 5571－4",
      "lat": 32.9113,
      "lng": 131.31589,
      "geocoding_level": null,
      "phone": "",
      "license_no": "指令豊保第11-60号",
      "license_date": null,
      "expire_date": null
    },
    {
      "name": "グランディオーゾ",
      "name_kana": "",
      "business_type": "飲食店営業",
      "address": "大分県竹田市久住町大字白丹 3812-1",
      "lat": 33.03118,
      "lng": 131.23845,
      "geocoding_level": null,
      "phone": "",
      "license_no": "指令豊保第11-61号",
      "license_date": null,
      "expire_date": null
    },
    {
      "name": "有限会社花びし",
      "name_kana": "",
      "business_type": "豆腐製造業",
      "address": "大分県竹田市久住町久住 2339-2",
      "lat": 33.05579,
      "lng": 131.25232,
      "geocoding_level": null,
      "phone": "",
      "license_no": "指令豊保第26-92号",
      "license_date": null,
      "expire_date": null
    },
    {
      "name": "魚町友修有限会社",
      "name_kana": "",
      "business_type": "かん・びん詰食品製造業",
      "address": "大分県竹田市竹田町 284番地",
      "lat": 32.9681,
      "lng": 131.39348,
      "geocoding_level": null,
      "phone": "",
      "license_no": "指令豊保第26-105号",
      "license_date": null,
      "expire_date": null
    },
    {
      "name": "有限会社　花びし",
      "name_kana": "",
      "business_type": "そうざい製造業",
      "address": "大分県竹田市久住町大字久住 2339-2",
      "lat": 33.05579,
      "lng": 131.25232,
      "geocoding_level": null,
      "phone": "",
      "license_no": "指令豊保第26-15号",
      "license_date": null,
      "expire_date": null
    },
    {
      "name": "ほたる",
      "name_kana": "",
      "business_type": "飲食店営業",
      "address": "大分県竹田市大字植木 897番地",
      "lat": 33.00288,
      "lng": 131.37204,
      "geocoding_level": null,
      "phone": "",
      "license_no": "指令豊保第26-34号",
      "license_date": null,
      "expire_date": null
    },
    {
      "name": "ほたる",
      "name_kana": "",
      "business_type": "菓子製造業",
      "address": "大分県竹田市大字植木 897番地",
      "lat": 33.00288,
      "lng": 131.37204,
      "geocoding_level": null,
      "phone": "",
      "license_no": "指令豊保第26-35号",
      "license_date": null,
      "expire_date": null
    },
    {
      "name": "医療法人雄仁会加藤病院・岡の苑",
      "name_kana": "",
      "business_type": "飲食店営業",
      "address": "大分県竹田市竹田 1855",
      "lat": 32.97054,
      "lng": 131.39229,
      "geocoding_level": null,
      "phone": "",
      "license_no": "指令豊保第12-48号",
      "license_date": null,
      "expire_date": null
    },
    {
      "name": "日清医療食品　こころの郷",
      "name_kana": "",
      "business_type": "飲食店営業",
      "address": "大分県竹田市大字飛田川 1618-23",
      "lat": 32.96497,
      "lng": 131.38443,
      "geocoding_level": null,
      "phone": "",
      "license_no": "指令豊保第12-61号",
      "license_date": null,
      "expire_date": null
    },
    {
      "name": "竹田丸福",
      "name_kana": "",
      "business_type": "飲食店営業",
      "address": "大分県竹田市大字竹田 550-6",
      "lat": 32.96449,
      "lng": 131.39592,
      "geocoding_level": null,
      "phone": "",
      "license_no": "指令豊保第11-8号",
      "license_date": null,
      "expire_date": null
    },
    {
      "name": "温泉交流館みつばちの湯",
      "name_kana": "",
      "business_type": "飲食店営業",
      "address": "大分県竹田市直入町大字長湯字代 3050番2",
      "lat": 33.07447,
      "lng": 131.37514,
      "geocoding_level": null,
      "phone": "",
      "license_no": "指令豊保第11-27号",
      "license_date": null,
      "expire_date": null
    },
    {
      "name": "企業組合あじさい加工所",
      "name_kana": "",
      "business_type": "菓子製造業",
      "address": "大分県竹田市大字刈小野 617番地1",
      "lat": 32.98956,
      "lng": 131.29062,
      "geocoding_level": null,
      "phone": "",
      "license_no": "指令豊保第11-28号",
      "license_date": null,
      "expire_date": null
    },
    {
      "name": "企業組合あじさい加工所",
      "name_kana": "",
      "business_type": "みそ又はしょうゆ製造業",
      "address": "大分県竹田市大字刈小野 617番地1",
      "lat": 32.98956,
      "lng": 131.29062,
      "geocoding_level": null,
      "phone": "",
      "license_no": "指令豊保第11-29号",
      "license_date": null,
      "expire_date": null
    },
    {
      "name": "ホテル　ウィンド",
      "name_kana": "",
      "business_type": "飲食店営業",
      "address": "大分県竹田市大字今 80番地1",
      "lat": 32.96369,
      "lng": 131.28412,
      "geocoding_level": null,
      "phone": "",
      "license_no": "指令豊保第12-3号",
      "license_date": null,
      "expire_date": null
    },
    {
      "name": "パルクラブ",
      "name_kana": "",
      "business_type": "食肉製品製造業",
      "address": "大分県竹田市久住町大字有氏 896－22",
      "lat": 33.08593,
      "lng": 131.29587,
      "geocoding_level": null,
      "phone": "",
      "license_no": "指令豊保第9-31号",
      "license_date": null,
      "expire_date": null
    },
    {
      "name": "グランディオーゾ",
      "name_kana": "",
      "business_type": "漬物製造業",
      "address": "大分県竹田市久住町大字白丹 3812-1",
      "lat": 33.03118,
      "lng": 131.23845,
      "geocoding_level": null,
      "phone": "",
      "license_no": "指令豊保第12-30号",
      "license_date": null,
      "expire_date": null
    },
    {
      "name": "百花白百合農産加工所",
      "name_kana": "",
      "business_type": "みそ又はしょうゆ製造業",
      "address": "大分県竹田市久住町大字栢木 4857番地",
      "lat": 33.04084,
      "lng": 131.32968,
      "geocoding_level": null,
      "phone": "",
      "license_no": "指令豊保第12-62号",
      "license_date": null,
      "expire_date": null
    },
    {
      "name": "花水月　丸福",
      "name_kana": "",
      "business_type": "飲食店営業",
      "address": "大分県竹田市大字会々 2250-1",
      "lat": 32.97156,
      "lng": 131.39145,
      "geocoding_level": null,
      "phone": "",
      "license_no": "指令豊保第4-98号",
      "license_date": null,
      "expire_date": null
    },
    {
      "name": "善米食堂",
      "name_kana": "",
      "business_type": "飲食店営業",
      "address": "大分県竹田市大字米納 659",
      "lat": 32.98509,
      "lng": 131.34377,
      "geocoding_level": null,
      "phone": "",
      "license_no": "指令豊保第12-63号",
      "license_date": null,
      "expire_date": null
    },
    {
      "name": "善米食堂",
      "name_kana": "",
      "business_type": "菓子製造業",
      "address": "大分県竹田市大字米納 659",
      "lat": 32.98509,
      "lng": 131.34377,
      "geocoding_level": null,
      "phone": "",
      "license_no": "指令豊保第12-64号",
      "license_date": null,
      "expire_date": null
    },
    {
      "name": "和らび",
      "name_kana": "",
      "business_type": "飲食店営業",
      "address": "大分県竹田市久住町大字久住 6134－1",
      "lat": 33.05579,
      "lng": 131.25232,
      "geocoding_level": null,
      "phone": "",
      "license_no": "指令豊保第12-65号",
      "license_date": null,
      "expire_date": null
    },
    {
      "name": "株式会社おづる湧水茶屋",
      "name_kana": "",
      "business_type": "飲食店営業",
      "address": "大分県竹田市直入町大字下田北 1385-5",
      "lat": 33.12559,
      "lng": 131.41295,
      "geocoding_level": null,
      "phone": "",
      "license_no": "指令豊保第9-11号",
      "license_date": null,
      "expire_date": null
    },
    {
      "name": "株式会社おづる湧水茶屋",
      "name_kana": "",
      "business_type": "菓子製造業",
      "address": "大分県竹田市直入町大字下田北 1385-5",
      "lat": 33.12559,
      "lng": 131.41295,
      "geocoding_level": null,
      "phone": "",
      "license_no": "指令豊保第9-12号",
      "license_date": null,
      "expire_date": null
    },
    {
      "name": "株式会社おづる湧水茶屋",
      "name_kana": "",
      "business_type": "豆腐製造業",
      "address": "大分県竹田市直入町大字下田北 1385-5",
      "lat": 33.12559,
      "lng": 131.41295,
      "geocoding_level": null,
      "phone": "",
      "license_no": "指令豊保第9-13号",
      "license_date": null,
      "expire_date": null
    },
    {
      "name": "(有)田部モータース",
      "name_kana": "",
      "business_type": "飲食店営業",
      "address": "大分県竹田市大字拝田原 230-1",
      "lat": 32.96036,
      "lng": 131.38116,
      "geocoding_level": null,
      "phone": "",
      "license_no": "指令豊保第9-14号",
      "license_date": null,
      "expire_date": null
    },
    {
      "name": "焼肉　陽はまたのぼる",
      "name_kana": "",
      "business_type": "飲食店営業",
      "address": "大分県竹田市竹田町 259-3",
      "lat": 32.96756,
      "lng": 131.39308,
      "geocoding_level": null,
      "phone": "",
      "license_no": "指令豊保第9-46号",
      "license_date": null,
      "expire_date": null
    },
    {
      "name": "フリューゲル久住",
      "name_kana": "",
      "business_type": "飲食店営業",
      "address": "大分県竹田市久住町大字栢木字高畦 6049-89",
      "lat": 33.04084,
      "lng": 131.32968,
      "geocoding_level": null,
      "phone": "",
      "license_no": "指令豊保第26-9号",
      "license_date": null,
      "expire_date": null
    },
    {
      "name": "フリューゲル久住",
      "name_kana": "",
      "business_type": "飲食店営業",
      "address": "大分県竹田市久住町大字栢木字高畦 6049-89",
      "lat": 33.04084,
      "lng": 131.32968,
      "geocoding_level": null,
      "phone": "",
      "license_no": "指令豊保第26-10号",
      "license_date": null,
      "expire_date": null
    },
    {
      "name": "郷　豆腐店",
      "name_kana": "",
      "business_type": "豆腐製造業",
      "address": "大分県竹田市直入町長湯 6859",
      "lat": 33.07447,
      "lng": 131.37514,
      "geocoding_level": null,
      "phone": "",
      "license_no": "指令豊保第9-63号",
      "license_date": null,
      "expire_date": null
    },
    {
      "name": "赤川温泉　スパージュ",
      "name_kana": "",
      "business_type": "菓子製造業",
      "address": "大分県竹田市久住町久住 4026－1",
      "lat": 33.05579,
      "lng": 131.25232,
      "geocoding_level": null,
      "phone": "",
      "license_no": "指令豊保第11-28号",
      "license_date": null,
      "expire_date": null
    },
    {
      "name": "はなちゃんのパン工房",
      "name_kana": "",
      "business_type": "菓子製造業",
      "address": "大分県竹田市久住町久住 3987",
      "lat": 33.05579,
      "lng": 131.25232,
      "geocoding_level": null,
      "phone": "",
      "license_no": "指令豊保第11-30号",
      "license_date": null,
      "expire_date": null
    },
    {
      "name": "味処天神丸福",
      "name_kana": "",
      "business_type": "飲食店営業",
      "address": "大分県竹田市大字飛田川 1638－1",
      "lat": 32.96497,
      "lng": 131.38443,
      "geocoding_level": null,
      "phone": "",
      "license_no": "指令豊保第11-29号",
      "license_date": null,
      "expire_date": null
    },
    {
      "name": "博愛会久住調理場",
      "name_kana": "",
      "business_type": "そうざい製造業",
      "address": "大分県竹田市久住町大字栢木字高畦 6062番1",
      "lat": 33.04084,
      "lng": 131.32968,
      "geocoding_level": null,
      "phone": "",
      "license_no": "指令豊保第26-85号",
      "license_date": null,
      "expire_date": null
    },
    {
      "name": "博愛会久住調理場",
      "name_kana": "",
      "business_type": "ソース類製造業",
      "address": "大分県竹田市久住町大字栢木字高畦 6062番1",
      "lat": 33.04084,
      "lng": 131.32968,
      "geocoding_level": null,
      "phone": "",
      "license_no": "指令豊保第26-84号",
      "license_date": null,
      "expire_date": null
    },
    {
      "name": "博愛会久住調理場",
      "name_kana": "",
      "business_type": "かん・びん詰食品製造業",
      "address": "大分県竹田市久住町大字栢木字高畦 6062番1",
      "lat": 33.04084,
      "lng": 131.32968,
      "geocoding_level": null,
      "phone": "",
      "license_no": "指令豊保第26-83号",
      "license_date": null,
      "expire_date": null
    },
    {
      "name": "博愛会久住調理場",
      "name_kana": "",
      "business_type": "飲食店営業",
      "address": "大分県竹田市久住町大字栢木字高畦 6062番1",
      "lat": 33.04084,
      "lng": 131.32968,
      "geocoding_level": null,
      "phone": "",
      "license_no": "指令豊保第26-82号",
      "license_date": null,
      "expire_date": null
    },
    {
      "name": "水の駅　おづる丸福",
      "name_kana": "",
      "business_type": "飲食店営業",
      "address": "大分県竹田市直入町大字下田北 1319－1",
      "lat": 33.12559,
      "lng": 131.41295,
      "geocoding_level": null,
      "phone": "",
      "license_no": "指令豊保第26-93号",
      "license_date": null,
      "expire_date": null
    },
    {
      "name": "郷　茶房",
      "name_kana": "",
      "business_type": "菓子製造業",
      "address": "大分県竹田市直入町長湯 6859番地",
      "lat": 33.07447,
      "lng": 131.37514,
      "geocoding_level": null,
      "phone": "",
      "license_no": "指令豊保第26-25号",
      "license_date": null,
      "expire_date": null
    },
    {
      "name": "Ｗｉｎ　ｗｉｔｈ　ｆａｍｉｌｙ株式会社",
      "name_kana": "",
      "business_type": "食肉処理業",
      "address": "大分県竹田市竹田町 262",
      "lat": 32.96741,
      "lng": 131.39359,
      "geocoding_level": null,
      "phone": "",
      "license_no": "指令豊保第11-56号",
      "license_date": null,
      "expire_date": null
    },
    {
      "name": "571　マルショク竹田本町店",
      "name_kana": "",
      "business_type": "食肉販売業",
      "address": "大分県竹田市本町 502－8",
      "lat": 32.97367,
      "lng": 131.39784,
      "geocoding_level": null,
      "phone": "",
      "license_no": "指令豊保第11-31号",
      "license_date": null,
      "expire_date": null
    },
    {
      "name": "572　サンリブ竹田",
      "name_kana": "",
      "business_type": "食肉販売業",
      "address": "大分県竹田市大字玉来 710",
      "lat": 32.95352,
      "lng": 131.37584,
      "geocoding_level": null,
      "phone": "",
      "license_no": "指令豊保第11-32号",
      "license_date": null,
      "expire_date": null
    },
    {
      "name": "長湯温泉　憩の宿",
      "name_kana": "",
      "business_type": "飲食店営業",
      "address": "大分県竹田市直入町大字長湯 8175番地3",
      "lat": 33.07447,
      "lng": 131.37514,
      "geocoding_level": null,
      "phone": "",
      "license_no": "指令豊保第11-51号",
      "license_date": null,
      "expire_date": null
    },
    {
      "name": "デリカ・ミート??野",
      "name_kana": "",
      "business_type": "冷凍食品製造業",
      "address": "大分県竹田市直入町大字長湯 8195－45",
      "lat": 33.07447,
      "lng": 131.37514,
      "geocoding_level": null,
      "phone": "",
      "license_no": "指令豊保第12-5号",
      "license_date": null,
      "expire_date": null
    },
    {
      "name": "肉まる弁当",
      "name_kana": "",
      "business_type": "飲食店営業",
      "address": "大分県竹田市直入町大字長湯 8195－38",
      "lat": 33.07447,
      "lng": 131.37514,
      "geocoding_level": null,
      "phone": "",
      "license_no": "指令豊保第12-4号",
      "license_date": null,
      "expire_date": null
    },
    {
      "name": "竹田市長湯おんせん市場",
      "name_kana": "",
      "business_type": "飲食店営業",
      "address": "大分県竹田市直入町大字長湯 7962番地1",
      "lat": 33.07447,
      "lng": 131.37514,
      "geocoding_level": null,
      "phone": "",
      "license_no": "指令豊保第12-12号",
      "license_date": null,
      "expire_date": null
    },
    {
      "name": "陽はまたのぼる　竹田本店",
      "name_kana": "",
      "business_type": "飲食店営業",
      "address": "大分県竹田市竹田町 259番地",
      "lat": 32.96756,
      "lng": 131.39308,
      "geocoding_level": null,
      "phone": "",
      "license_no": "指令豊保第12-14号",
      "license_date": null,
      "expire_date": null
    },
    {
      "name": "ホテルつちや",
      "name_kana": "",
      "business_type": "飲食店営業",
      "address": "大分県竹田市大字竹田 1998番地",
      "lat": 32.96711,
      "lng": 131.39574,
      "geocoding_level": null,
      "phone": "",
      "license_no": "指令豊保第12-11号",
      "license_date": null,
      "expire_date": null
    },
    {
      "name": "星ふる館",
      "name_kana": "",
      "business_type": "食肉販売業",
      "address": "大分県竹田市久住町大字久住 4050-2",
      "lat": 33.05579,
      "lng": 131.25232,
      "geocoding_level": null,
      "phone": "",
      "license_no": "指令豊保第12-34号",
      "license_date": null,
      "expire_date": null
    },
    {
      "name": "ムギクラビーンズ福ノ豆家",
      "name_kana": "",
      "business_type": "飲食店営業",
      "address": "大分県竹田市久住町大字久住 4050　（久住花公園内）",
      "lat": 33.05579,
      "lng": 131.25232,
      "geocoding_level": null,
      "phone": "",
      "license_no": "指令豊保第12-35号",
      "license_date": null,
      "expire_date": null
    },
    {
      "name": "三日月珈琲焙煎所　月鐘楼",
      "name_kana": "",
      "business_type": "飲食店営業",
      "address": "大分県竹田市竹田町 486－1",
      "lat": 32.9675,
      "lng": 131.39185,
      "geocoding_level": null,
      "phone": "",
      "license_no": "指令豊保第12-36号",
      "license_date": null,
      "expire_date": null
    },
    {
      "name": "ヤクト株式会社",
      "name_kana": "",
      "business_type": "食肉販売業",
      "address": "大分県竹田市大字挾田 1229番地1",
      "lat": 32.9852,
      "lng": 131.40413,
      "geocoding_level": null,
      "phone": "",
      "license_no": "指令豊保第9-49号",
      "license_date": null,
      "expire_date": null
    },
    {
      "name": "オーエムツーミート　竹田店",
      "name_kana": "",
      "business_type": "食肉販売業",
      "address": "大分県竹田市大字君ケ園 406番地1",
      "lat": 32.94707,
      "lng": 131.36255,
      "geocoding_level": null,
      "phone": "",
      "license_no": "指令豊保第9-66号",
      "license_date": null,
      "expire_date": null
    },
    {
      "name": "むすんでひらいて竹田店",
      "name_kana": "",
      "business_type": "飲食店営業",
      "address": "大分県竹田市大字君ケ園 406番地1",
      "lat": 32.94707,
      "lng": 131.36255,
      "geocoding_level": null,
      "phone": "",
      "license_no": "指令豊保第9-65号",
      "license_date": null,
      "expire_date": null
    },
    {
      "name": "ローソン竹田飛田川店",
      "name_kana": "",
      "business_type": "飲食店営業",
      "address": "大分県竹田市飛田川 1618－8",
      "lat": 32.96497,
      "lng": 131.38443,
      "geocoding_level": null,
      "phone": "",
      "license_no": "指令豊保第12-51号",
      "license_date": null,
      "expire_date": null
    },
    {
      "name": "やすらぎの宿かどやRe",
      "name_kana": "",
      "business_type": "飲食店営業",
      "address": "大分県竹田市直入町長湯 7985番地2",
      "lat": 33.07447,
      "lng": 131.37514,
      "geocoding_level": null,
      "phone": "",
      "license_no": "指令豊保第12-54号",
      "license_date": null,
      "expire_date": null
    },
    {
      "name": "グリーンピア　天神店",
      "name_kana": "",
      "business_type": "飲食店営業",
      "address": "大分県竹田市大字飛田川 1618－8",
      "lat": 32.96497,
      "lng": 131.38443,
      "geocoding_level": null,
      "phone": "",
      "license_no": "指令豊保第12-55号",
      "license_date": null,
      "expire_date": null
    },
    {
      "name": "ローソン竹田会々店",
      "name_kana": "",
      "business_type": "飲食店営業",
      "address": "大分県竹田市大字会々字平 1250番2",
      "lat": 32.97651,
      "lng": 131.38312,
      "geocoding_level": null,
      "phone": "",
      "license_no": "指令豊保第9-84号",
      "license_date": null,
      "expire_date": null
    },
    {
      "name": "クアレストラン",
      "name_kana": "",
      "business_type": "飲食店営業",
      "address": "大分県竹田市直入町大字長湯 3041－4",
      "lat": 33.07447,
      "lng": 131.37514,
      "geocoding_level": null,
      "phone": "",
      "license_no": "指令豊保第9-22号",
      "license_date": null,
      "expire_date": null
    },
    {
      "name": "長湯おんせん市場",
      "name_kana": "",
      "business_type": "調理機能を有する自動販売機",
      "address": "大分県竹田市直入町大字長湯 7952－1",
      "lat": 33.07447,
      "lng": 131.37514,
      "geocoding_level": null,
      "phone": "",
      "license_no": "指令豊保第11-6号",
      "license_date": null,
      "expire_date": null
    },
    {
      "name": "パルクラブ　ひだまり工房",
      "name_kana": "",
      "business_type": "菓子製造業",
      "address": "大分県竹田市久住町大字有氏 896番地22",
      "lat": 33.08593,
      "lng": 131.29587,
      "geocoding_level": null,
      "phone": "",
      "license_no": "指令豊保第9-30号",
      "license_date": null,
      "expire_date": null
    },
    {
      "name": "松ちゃんストアー",
      "name_kana": "",
      "business_type": "そうざい製造業",
      "address": "大分県竹田市久住町大字久住 6248番地",
      "lat": 33.05579,
      "lng": 131.25232,
      "geocoding_level": null,
      "phone": "",
      "license_no": "指令豊保第9-68号",
      "license_date": null,
      "expire_date": null
    },
    {
      "name": "大分県立久住高原農業高等学校",
      "name_kana": "",
      "business_type": "食肉製品製造業",
      "address": "大分県竹田市久住町大字栢木 5801－32",
      "lat": 33.04084,
      "lng": 131.32968,
      "geocoding_level": null,
      "phone": "",
      "license_no": "指令豊保第9-61号",
      "license_date": null,
      "expire_date": null
    },
    {
      "name": "中華厨房",
      "name_kana": "",
      "business_type": "飲食店営業",
      "address": "大分県竹田市大字君ケ園 406－1",
      "lat": 32.94707,
      "lng": 131.36255,
      "geocoding_level": null,
      "phone": "",
      "license_no": "指令豊保第11-65号",
      "license_date": null,
      "expire_date": null
    },
    {
      "name": "スナック　Ｊｏｌｉｅ＆はた",
      "name_kana": "",
      "business_type": "飲食店営業",
      "address": "大分県竹田市竹田町 240番地",
      "lat": 32.96688,
      "lng": 131.39319,
      "geocoding_level": null,
      "phone": "",
      "license_no": "指令豊保第9-70号",
      "license_date": null,
      "expire_date": null
    },
    {
      "name": "572　サンリブ竹田",
      "name_kana": "",
      "business_type": "魚介類販売業",
      "address": "大分県竹田市大字玉来 710",
      "lat": 32.95352,
      "lng": 131.37584,
      "geocoding_level": null,
      "phone": "",
      "license_no": "指令豊保第9-85号",
      "license_date": null,
      "expire_date": null
    },
    {
      "name": "572　サンリブ竹田",
      "name_kana": "",
      "business_type": "飲食店営業",
      "address": "大分県竹田市大字玉来 710",
      "lat": 32.95352,
      "lng": 131.37584,
      "geocoding_level": null,
      "phone": "",
      "license_no": "指令豊保第9-86号",
      "license_date": null,
      "expire_date": null
    },
    {
      "name": "デリカ・ミート吉野",
      "name_kana": "",
      "business_type": "飲食店営業",
      "address": "大分県竹田市直入町大字長湯 8195－60",
      "lat": 33.07447,
      "lng": 131.37514,
      "geocoding_level": null,
      "phone": "",
      "license_no": "指令豊保第11-7号",
      "license_date": null,
      "expire_date": null
    },
    {
      "name": "デリカ・ミート吉野",
      "name_kana": "",
      "business_type": "食肉処理業",
      "address": "大分県竹田市直入町大字長湯 8195－60",
      "lat": 33.07447,
      "lng": 131.37514,
      "geocoding_level": null,
      "phone": "",
      "license_no": "指令豊保第11-8号",
      "license_date": null,
      "expire_date": null
    },
    {
      "name": "農場サロン",
      "name_kana": "",
      "business_type": "飲食店営業",
      "address": "大分県竹田市久住町大字久住 3989番地15",
      "lat": 33.05579,
      "lng": 131.25232,
      "geocoding_level": null,
      "phone": "",
      "license_no": "指令豊保第11-9号",
      "license_date": null,
      "expire_date": null
    },
    {
      "name": "焼肉　陽はまたのぼる",
      "name_kana": "",
      "business_type": "食肉販売業",
      "address": "大分県竹田市竹田町259－3",
      "lat": 32.96756,
      "lng": 131.39308,
      "geocoding_level": null,
      "phone": "",
      "license_no": "指令豊保第11-11号",
      "license_date": null,
      "expire_date": null
    },
    {
      "name": "大久保病院",
      "name_kana": "",
      "business_type": "飲食店営業",
      "address": "大分県竹田市久住町栢木 6026－2",
      "lat": 33.04084,
      "lng": 131.32968,
      "geocoding_level": null,
      "phone": "",
      "license_no": "指令豊保第25-7号",
      "license_date": null,
      "expire_date": null
    },
    {
      "name": "天空の展望公園　野外劇場　ＴＡＯの丘　１Ｆ",
      "name_kana": "",
      "business_type": "飲食店営業",
      "address": "大分県竹田市久住町大字白丹 板木7571－2",
      "lat": 33.03118,
      "lng": 131.23845,
      "geocoding_level": null,
      "phone": "",
      "license_no": "指令豊保第11-47号",
      "license_date": null,
      "expire_date": null
    },
    {
      "name": "豊後朽網温泉　ほていの湯",
      "name_kana": "",
      "business_type": "飲食店営業",
      "address": "大分県竹田市久住町大字栢木5585－1",
      "lat": 33.04084,
      "lng": 131.32968,
      "geocoding_level": null,
      "phone": "",
      "license_no": "指令豊保第11-48号",
      "license_date": null,
      "expire_date": null
    },
    {
      "name": "道の駅すごう　ソフトクリームコーナー",
      "name_kana": "",
      "business_type": "飲食店営業",
      "address": "大分県竹田市菅生 993",
      "lat": 32.95325,
      "lng": 131.28676,
      "geocoding_level": null,
      "phone": "",
      "license_no": "指令豊保第11-49号",
      "license_date": null,
      "expire_date": null
    },
    {
      "name": "日乃出茶寮",
      "name_kana": "",
      "business_type": "飲食店営業",
      "address": "大分県竹田市久住町大字栢木 6037－3",
      "lat": 33.04084,
      "lng": 131.32968,
      "geocoding_level": null,
      "phone": "",
      "license_no": "指令豊保第11-50号",
      "license_date": null,
      "expire_date": null
    },
    {
      "name": "コロニー久住　第２加工場",
      "name_kana": "",
      "business_type": "そうざい製造業",
      "address": "大分県竹田市久住町大字有氏 896番地17",
      "lat": 33.08593,
      "lng": 131.29587,
      "geocoding_level": null,
      "phone": "",
      "license_no": "指令豊保第11-68号",
      "license_date": null,
      "expire_date": null
    },
    {
      "name": "ちよみ",
      "name_kana": "",
      "business_type": "菓子製造業",
      "address": "大分県竹田市福原234",
      "lat": 33.00639,
      "lng": 131.3212,
      "geocoding_level": null,
      "phone": "",
      "license_no": "指令豊保第25-66号",
      "license_date": null,
      "expire_date": null
    },
    {
      "name": "有限会社津崎商事",
      "name_kana": "",
      "business_type": "酒類製造業",
      "address": "大分県竹田市久住町久住6426",
      "lat": 33.05579,
      "lng": 131.25232,
      "geocoding_level": null,
      "phone": "",
      "license_no": "指令豊保第25-65号",
      "license_date": null,
      "expire_date": null
    },
    {
      "name": "天空の大地　久住高原ホテル",
      "name_kana": "",
      "business_type": "飲食店営業",
      "address": "大分県竹田市久住町大字久住 4031",
      "lat": 33.05579,
      "lng": 131.25232,
      "geocoding_level": null,
      "phone": "",
      "license_no": "指令豊保第25-88号",
      "license_date": null,
      "expire_date": null
    },
    {
      "name": "暮らす実験室　ＩＫＩ",
      "name_kana": "",
      "business_type": "飲食店営業",
      "address": "大分県竹田市竹田町 495－3",
      "lat": 32.96794,
      "lng": 131.3925,
      "geocoding_level": null,
      "phone": "",
      "license_no": "指令豊保第25-90号",
      "license_date": null,
      "expire_date": null
    },
    {
      "name": "竹田中央学校給食共同調理場",
      "name_kana": "",
      "business_type": "飲食店営業",
      "address": "大分県竹田市飛田川2239-13",
      "lat": 32.96284,
      "lng": 131.37442,
      "geocoding_level": null,
      "phone": "",
      "license_no": "指令豊保第35-15号",
      "license_date": null,
      "expire_date": null
    },
    {
      "name": "久住学校給食共同調理場",
      "name_kana": "",
      "business_type": "飲食店営業",
      "address": "大分県竹田市久住町久住2867-1",
      "lat": 33.05579,
      "lng": 131.25232,
      "geocoding_level": null,
      "phone": "",
      "license_no": "指令豊保第35-16号",
      "license_date": null,
      "expire_date": null
    },
    {
      "name": "特別養護老人ホーム　美晴が丘",
      "name_kana": "",
      "business_type": "飲食店営業",
      "address": "大分県竹田市直入町長湯9067番地4",
      "lat": 33.07447,
      "lng": 131.37514,
      "geocoding_level": null,
      "phone": "",
      "license_no": "指令豊保第35-17号",
      "license_date": null,
      "expire_date": null
    },
    {
      "name": "メディカルフーズ野の花",
      "name_kana": "",
      "business_type": "飲食店営業",
      "address": "大分県竹田市飛田川1577-1",
      "lat": 32.96609,
      "lng": 131.38358,
      "geocoding_level": null,
      "phone": "",
      "license_no": "指令豊保第35-34号",
      "license_date": null,
      "expire_date": null
    },
    {
      "name": "御食事処料庵川瀬美",
      "name_kana": "",
      "business_type": "飲食店営業",
      "address": "大分県竹田市直入町長湯 7443-1",
      "lat": 33.07447,
      "lng": 131.37514,
      "geocoding_level": null,
      "phone": "",
      "license_no": "指令豊保第26-37号",
      "license_date": null,
      "expire_date": null
    },
    {
      "name": "（有）いしかわ",
      "name_kana": "",
      "business_type": "飲食店営業",
      "address": "大分県竹田市大字中字小賀 1620",
      "lat": 33.00852,
      "lng": 131.39815,
      "geocoding_level": null,
      "phone": "",
      "license_no": "指令豊保第26-43号",
      "license_date": null,
      "expire_date": null
    },
    {
      "name": "赤川温泉　「スパージュ」",
      "name_kana": "",
      "business_type": "飲食店営業",
      "address": "大分県竹田市久住町久住 4026-1",
      "lat": 33.05579,
      "lng": 131.25232,
      "geocoding_level": null,
      "phone": "",
      "license_no": "指令豊保第26-44号",
      "license_date": null,
      "expire_date": null
    },
    {
      "name": "日乃出食堂",
      "name_kana": "",
      "business_type": "飲食店営業",
      "address": "大分県竹田市久住町大字栢木字高畦 6042番3",
      "lat": 33.04084,
      "lng": 131.32968,
      "geocoding_level": null,
      "phone": "",
      "license_no": "指令豊保第26-36号",
      "license_date": null,
      "expire_date": null
    },
    {
      "name": "久住ワイナリー",
      "name_kana": "",
      "business_type": "飲食店営業",
      "address": "大分県竹田市久住町大字久住字平木 3990-1",
      "lat": 33.05579,
      "lng": 131.25232,
      "geocoding_level": null,
      "phone": "",
      "license_no": "指令豊保第26-41号",
      "license_date": null,
      "expire_date": null
    },
    {
      "name": "魚町　友修",
      "name_kana": "",
      "business_type": "水産製品製造業",
      "address": "大分県竹田市竹田町284",
      "lat": 32.9681,
      "lng": 131.39348,
      "geocoding_level": null,
      "phone": "",
      "license_no": "指令豊保第35-47号",
      "license_date": null,
      "expire_date": null
    },
    {
      "name": "Hi!Yoriyo",
      "name_kana": "",
      "business_type": "飲食店営業",
      "address": "大分県竹田市大字米納1031番地",
      "lat": 32.98509,
      "lng": 131.34377,
      "geocoding_level": null,
      "phone": "",
      "license_no": "指令豊保第35-49号",
      "license_date": null,
      "expire_date": null
    },
    {
      "name": "星ふる館",
      "name_kana": "",
      "business_type": "そうざい製造業",
      "address": "大分県竹田市久住町久住4050-2",
      "lat": 33.05579,
      "lng": 131.25232,
      "geocoding_level": null,
      "phone": "",
      "license_no": "指令豊保第35-56号",
      "license_date": null,
      "expire_date": null
    },
    {
      "name": "コロニー久住　第二加工場",
      "name_kana": "",
      "business_type": "漬物製造業",
      "address": "大分県竹田市久住町有氏896-17",
      "lat": 33.08593,
      "lng": 131.29587,
      "geocoding_level": null,
      "phone": "",
      "license_no": "指令豊保第35-57号",
      "license_date": null,
      "expire_date": null
    },
    {
      "name": "藤野屋たまごの直売所",
      "name_kana": "",
      "business_type": "飲食店営業",
      "address": "大分県竹田市大字菅生953番地",
      "lat": 32.95325,
      "lng": 131.28676,
      "geocoding_level": null,
      "phone": "",
      "license_no": "指令豊保第35-58号",
      "license_date": null,
      "expire_date": null
    },
    {
      "name": "MUGIKURA",
      "name_kana": "",
      "business_type": "飲食店営業",
      "address": "大分県竹田市直入町大字上田北5732",
      "lat": 33.11907,
      "lng": 131.38744,
      "geocoding_level": null,
      "phone": "",
      "license_no": "指令豊保第35-62号",
      "license_date": null,
      "expire_date": null
    },
    {
      "name": "MUGIKURA",
      "name_kana": "",
      "business_type": "菓子製造業",
      "address": "大分県竹田市直入町大字上田北5732",
      "lat": 33.11907,
      "lng": 131.38744,
      "geocoding_level": null,
      "phone": "",
      "license_no": "指令豊保第35-63号",
      "license_date": null,
      "expire_date": null
    },
    {
      "name": "MUGIKURA",
      "name_kana": "",
      "business_type": "アイスクリーム類製造業",
      "address": "大分県竹田市直入町大字上田北5732",
      "lat": 33.11907,
      "lng": 131.38744,
      "geocoding_level": null,
      "phone": "",
      "license_no": "指令豊保第35-64号",
      "license_date": null,
      "expire_date": null
    },
    {
      "name": "おおはし",
      "name_kana": "",
      "business_type": "飲食店営業",
      "address": "大分県竹田市大字竹田町123番地2",
      "lat": 32.96729,
      "lng": 131.3943,
      "geocoding_level": null,
      "phone": "",
      "license_no": "指令豊保第35-74号",
      "license_date": null,
      "expire_date": null
    },
    {
      "name": "くじゅうマルシェ",
      "name_kana": "",
      "business_type": "飲食店営業",
      "address": "大分県竹田市久住町久住4031",
      "lat": 33.05579,
      "lng": 131.25232,
      "geocoding_level": null,
      "phone": "",
      "license_no": "指令豊保第7-1号",
      "license_date": null,
      "expire_date": null
    },
    {
      "name": "HIヒロセ　スーパーコンボ竹田店",
      "name_kana": "",
      "business_type": "菓子製造業",
      "address": "大分県竹田市大字君ヶ園406番地1",
      "lat": 32.94707,
      "lng": 131.36255,
      "geocoding_level": null,
      "phone": "",
      "license_no": "指令豊保第7-5号",
      "license_date": null,
      "expire_date": null
    },
    {
      "name": "たけた駅前ホステルcue",
      "name_kana": "",
      "business_type": "飲食店営業",
      "address": "大分県竹田市竹田町560-1",
      "lat": 32.9702,
      "lng": 131.39119,
      "geocoding_level": null,
      "phone": "",
      "license_no": "指令豊保第7-12号",
      "license_date": null,
      "expire_date": null
    },
    {
      "name": "テラスレストランHOWDY！byおしゃべりなスプーン",
      "name_kana": "",
      "business_type": "飲食店営業",
      "address": "大分県竹田市久住町久住4048",
      "lat": 33.05579,
      "lng": 131.25232,
      "geocoding_level": null,
      "phone": "",
      "license_no": "指令豊保第7-16号",
      "license_date": null,
      "expire_date": null
    },
    {
      "name": "テラスレストランHOWDY！byおしゃべりなスプーン",
      "name_kana": "",
      "business_type": "そうざい製造業",
      "address": "大分県竹田市久住町久住4048",
      "lat": 33.05579,
      "lng": 131.25232,
      "geocoding_level": null,
      "phone": "",
      "license_no": "指令豊保第7-17号",
      "license_date": null,
      "expire_date": null
    },
    {
      "name": "やまなみ",
      "name_kana": "",
      "business_type": "飲食店営業",
      "address": "大分県竹田市大字飛田川2683",
      "lat": 32.96628,
      "lng": 131.37666,
      "geocoding_level": null,
      "phone": "",
      "license_no": "指令豊保第7-26号",
      "license_date": null,
      "expire_date": null
    },
    {
      "name": "caprices",
      "name_kana": "",
      "business_type": "飲食店営業",
      "address": "大分県竹田市大字拝田原字山下234-1",
      "lat": 32.9559,
      "lng": 131.37444,
      "geocoding_level": null,
      "phone": "",
      "license_no": "指令豊保第7-27号",
      "license_date": null,
      "expire_date": null
    },
    {
      "name": "caprices",
      "name_kana": "",
      "business_type": "菓子製造業",
      "address": "大分県竹田市大字拝田原字山下234-1",
      "lat": 32.9559,
      "lng": 131.37444,
      "geocoding_level": null,
      "phone": "",
      "license_no": "指令豊保第7-28号",
      "license_date": null,
      "expire_date": null
    },
    {
      "name": "二代目がんぼ",
      "name_kana": "",
      "business_type": "飲食店営業",
      "address": "大分県竹田市大字竹田町286",
      "lat": 32.9681,
      "lng": 131.39348,
      "geocoding_level": null,
      "phone": "",
      "license_no": "指令豊保第7-31号",
      "license_date": null,
      "expire_date": null
    },
    {
      "name": "稲葉学園高等学校　食品加工場",
      "name_kana": "",
      "business_type": "密封包装食品製造業",
      "address": "大分県竹田市片ケ瀬252",
      "lat": 32.96034,
      "lng": 131.40912,
      "geocoding_level": null,
      "phone": "",
      "license_no": "指令豊保第7-35号",
      "license_date": null,
      "expire_date": null
    },
    {
      "name": "おやつキッチン",
      "name_kana": "",
      "business_type": "飲食店営業",
      "address": "大分県竹田市久住町大字久住4004-56",
      "lat": 33.05579,
      "lng": 131.25232,
      "geocoding_level": null,
      "phone": "",
      "license_no": "指令豊保第7-41号",
      "license_date": null,
      "expire_date": null
    },
    {
      "name": "itonami　kitchen",
      "name_kana": "",
      "business_type": "飲食店営業",
      "address": "大分県竹田市門田1402",
      "lat": 32.92501,
      "lng": 131.37134,
      "geocoding_level": null,
      "phone": "",
      "license_no": "指令豊保第7-43号",
      "license_date": null,
      "expire_date": null
    },
    {
      "name": "itonami　kitchen",
      "name_kana": "",
      "business_type": "菓子製造業",
      "address": "大分県竹田市門田1402",
      "lat": 32.92501,
      "lng": 131.37134,
      "geocoding_level": null,
      "phone": "",
      "license_no": "指令豊保第7-44号",
      "license_date": null,
      "expire_date": null
    },
    {
      "name": "RAICHIKU（lavifle cafe）",
      "name_kana": "",
      "business_type": "飲食店営業",
      "address": "大分県竹田市拝田原236-4",
      "lat": 32.95916,
      "lng": 131.38202,
      "geocoding_level": null,
      "phone": "",
      "license_no": "指令豊保第7-47号",
      "license_date": null,
      "expire_date": null
    },
    {
      "name": "RAICHIKU（lavifle cafe）",
      "name_kana": "",
      "business_type": "菓子製造業",
      "address": "大分県竹田市拝田原236-4",
      "lat": 32.95916,
      "lng": 131.38202,
      "geocoding_level": null,
      "phone": "",
      "license_no": "指令豊保第7-48号",
      "license_date": null,
      "expire_date": null
    },
    {
      "name": "株式会社Aコープ九州　みやこの店",
      "name_kana": "",
      "business_type": "飲食店営業",
      "address": "大分県竹田市久住町栢木6045-1",
      "lat": 33.04084,
      "lng": 131.32968,
      "geocoding_level": null,
      "phone": "",
      "license_no": "指令豊保第7-60号",
      "license_date": null,
      "expire_date": null
    },
    {
      "name": "ボイボイキャンプ場 管理棟",
      "name_kana": "",
      "business_type": "飲食店営業",
      "address": "大分県竹田市久住町大字久住4050-23",
      "lat": 33.05579,
      "lng": 131.25232,
      "geocoding_level": null,
      "phone": "",
      "license_no": "指令豊保第7-64号",
      "license_date": null,
      "expire_date": null
    },
    {
      "name": "おべんとうのヒライサンリブ竹田店",
      "name_kana": "",
      "business_type": "飲食店営業",
      "address": "大分県竹田市玉来710",
      "lat": 32.95352,
      "lng": 131.37584,
      "geocoding_level": null,
      "phone": "",
      "license_no": "指令豊保第7-69号",
      "license_date": null,
      "expire_date": null
    },
    {
      "name": "星ふる館",
      "name_kana": "",
      "business_type": "飲食店営業",
      "address": "大分県竹田市久住町大字久住 4050-2",
      "lat": 33.05579,
      "lng": 131.25232,
      "geocoding_level": null,
      "phone": "",
      "license_no": "指令豊保第11-54号",
      "license_date": null,
      "expire_date": null
    },
    {
      "name": "常聖天空の杜 カフェ風と土",
      "name_kana": "",
      "business_type": "飲食店営業",
      "address": "大分県竹田市直入町大字長湯7759",
      "lat": 33.07447,
      "lng": 131.37514,
      "geocoding_level": null,
      "phone": "",
      "license_no": "指令豊保第7-74号",
      "license_date": null,
      "expire_date": null
    },
    {
      "name": "竹田市陽目の里 名水茶屋①",
      "name_kana": "",
      "business_type": "飲食店営業",
      "address": "大分県竹田市荻町陽目371番地",
      "lat": 32.88811,
      "lng": 131.27553,
      "geocoding_level": null,
      "phone": "",
      "license_no": "指令豊保第7-79号",
      "license_date": null,
      "expire_date": null
    },
    {
      "name": "竹田市陽目の里 名水茶屋②",
      "name_kana": "",
      "business_type": "飲食店営業",
      "address": "大分県竹田市荻町陽目371番地",
      "lat": 32.88811,
      "lng": 131.27553,
      "geocoding_level": null,
      "phone": "",
      "license_no": "指令豊保第7-80号",
      "license_date": null,
      "expire_date": null
    },
    {
      "name": "ザ・ガンジーホテル&リゾート",
      "name_kana": "",
      "business_type": "飲食店営業",
      "address": "大分県竹田市久住町久住4028番地1",
      "lat": 33.05579,
      "lng": 131.25232,
      "geocoding_level": null,
      "phone": "",
      "license_no": "指令豊保第7-81号",
      "license_date": null,
      "expire_date": null
    },
    {
      "name": "ほっともっと竹田店",
      "name_kana": "",
      "business_type": "飲食店営業",
      "address": "大分県竹田市大字玉来 火振755-5",
      "lat": 32.95336,
      "lng": 131.37875,
      "geocoding_level": null,
      "phone": "",
      "license_no": "指令豊保第10-14号",
      "license_date": null,
      "expire_date": null
    },
    {
      "name": "肉まる弁当",
      "name_kana": "",
      "business_type": "そうざい製造業",
      "address": "大分県竹田市直入町大字長湯 8195－38",
      "lat": 33.07447,
      "lng": 131.37514,
      "geocoding_level": null,
      "phone": "",
      "license_no": "指令豊保第10-18号",
      "license_date": null,
      "expire_date": null
    },
    {
      "name": "グランパーク長湯",
      "name_kana": "",
      "business_type": "飲食店営業",
      "address": "大分県竹田市直入町長湯3101",
      "lat": 33.07447,
      "lng": 131.37514,
      "geocoding_level": null,
      "phone": "",
      "license_no": "指令豊保第10-16号",
      "license_date": null,
      "expire_date": null
    },
    {
      "name": "くじゅう花公園　野のやさい",
      "name_kana": "",
      "business_type": "飲食店営業",
      "address": "大分県竹田市久住町大字久住4050",
      "lat": 33.05579,
      "lng": 131.25232,
      "geocoding_level": null,
      "phone": "",
      "license_no": "指令豊保第10-23号",
      "license_date": null,
      "expire_date": null
    },
    {
      "name": "くじゅう花公園　ジンギスカンハウス",
      "name_kana": "",
      "business_type": "飲食店営業",
      "address": "大分県竹田市久住町大字久住4050",
      "lat": 33.05579,
      "lng": 131.25232,
      "geocoding_level": null,
      "phone": "",
      "license_no": "指令豊保第10-24号",
      "license_date": null,
      "expire_date": null
    },
    {
      "name": "くしふるリトリートヴィラ",
      "name_kana": "",
      "business_type": "飲食店営業",
      "address": "大分県竹田市久住町白丹7541",
      "lat": 33.03118,
      "lng": 131.23845,
      "geocoding_level": null,
      "phone": "",
      "license_no": "指令豊保第10-25号",
      "license_date": null,
      "expire_date": null
    },
    {
      "name": "シン・あせび小屋",
      "name_kana": "",
      "business_type": "飲食店営業",
      "address": "大分県竹田市久住町大字有氏１７７８番地の８",
      "lat": 33.08593,
      "lng": 131.29587,
      "geocoding_level": null,
      "phone": "",
      "license_no": "指令豊保第10-29号",
      "license_date": null,
      "expire_date": null
    },
    {
      "name": "鶴田養鶏",
      "name_kana": "",
      "business_type": "そうざい製造業",
      "address": "大分県竹田市久住町白丹6211番地１",
      "lat": 33.03118,
      "lng": 131.23845,
      "geocoding_level": null,
      "phone": "",
      "license_no": "指令豊保第10-37号",
      "license_date": null,
      "expire_date": null
    },
    {
      "name": "グランディオーゾ",
      "name_kana": "",
      "business_type": "菓子製造業",
      "address": "大分県竹田市久住町白丹3812-1",
      "lat": 33.03118,
      "lng": 131.23845,
      "geocoding_level": null,
      "phone": "",
      "license_no": "指令豊保第10-40号",
      "license_date": null,
      "expire_date": null
    },
    {
      "name": "株式会社　藤野屋",
      "name_kana": "",
      "business_type": "液卵製造業",
      "address": "大分県竹田市大字菅生953",
      "lat": 32.95325,
      "lng": 131.28676,
      "geocoding_level": null,
      "phone": "",
      "license_no": "指令豊保第10-48号",
      "license_date": null,
      "expire_date": null
    },
    {
      "name": "おべんとうのヒライ　マルショク竹田本町店",
      "name_kana": "",
      "business_type": "飲食店営業",
      "address": "大分県竹田市本町502-8",
      "lat": 32.97367,
      "lng": 131.39784,
      "geocoding_level": null,
      "phone": "",
      "license_no": "指令豊保第10-52号",
      "license_date": null,
      "expire_date": null
    },
    {
      "name": "YURERU",
      "name_kana": "",
      "business_type": "菓子製造業",
      "address": "大分県竹田市竹田2033番地2",
      "lat": 32.96579,
      "lng": 131.39516,
      "geocoding_level": null,
      "phone": "",
      "license_no": "指令豊保第10-65号",
      "license_date": null,
      "expire_date": null
    },
    {
      "name": "大分県農業協同組合　豊肥営農経済センター 営農部　営農支援課(加工）",
      "name_kana": "",
      "business_type": "漬物製造業",
      "address": "大分県竹田市飛田川 2110-2",
      "lat": 32.96545,
      "lng": 131.37939,
      "geocoding_level": null,
      "phone": "",
      "license_no": "指令豊保第18-5号",
      "license_date": null,
      "expire_date": null
    },
    {
      "name": "Yショップ荻コスモス",
      "name_kana": "",
      "business_type": "飲食店営業",
      "address": "大分県竹田市荻町馬場 475-1",
      "lat": 32.92836,
      "lng": 131.29213,
      "geocoding_level": null,
      "phone": "",
      "license_no": "指令豊保第10-74号",
      "license_date": null,
      "expire_date": null
    },
    {
      "name": "Yショップ荻コスモス",
      "name_kana": "",
      "business_type": "魚介類販売業",
      "address": "大分県竹田市荻町馬場 475-1",
      "lat": 32.92836,
      "lng": 131.29213,
      "geocoding_level": null,
      "phone": "",
      "license_no": "指令豊保第10-75号",
      "license_date": null,
      "expire_date": null
    },
    {
      "name": "スーパーコンボ竹田店",
      "name_kana": "",
      "business_type": "飲食店営業",
      "address": "大分県竹田市大字君ヶ園406番地1",
      "lat": 32.94707,
      "lng": 131.36255,
      "geocoding_level": null,
      "phone": "",
      "license_no": "指令豊保第10-84号",
      "license_date": null,
      "expire_date": null
    },
    {
      "name": "スーパーコンボ竹田店",
      "name_kana": "",
      "business_type": "魚介類販売業",
      "address": "大分県竹田市大字君ヶ園406番地1",
      "lat": 32.94707,
      "lng": 131.36255,
      "geocoding_level": null,
      "phone": "",
      "license_no": "指令豊保第10-85号",
      "license_date": null,
      "expire_date": null
    },
    {
      "name": "GRILLED　BURGERS　RAICHIKU",
      "name_kana": "",
      "business_type": "飲食店営業",
      "address": "大分県竹田市菅生989-1",
      "lat": 32.95325,
      "lng": 131.28676,
      "geocoding_level": null,
      "phone": "",
      "license_no": "指令豊保第6-6号",
      "license_date": null,
      "expire_date": null
    },
    {
      "name": "GRILLED　BURGERS　RAICHIKU",
      "name_kana": "",
      "business_type": "そうざい製造業",
      "address": "大分県竹田市菅生989-1",
      "lat": 32.95325,
      "lng": 131.28676,
      "geocoding_level": null,
      "phone": "",
      "license_no": "指令豊保第6-7号",
      "license_date": null,
      "expire_date": null
    },
    {
      "name": "(株）華陽会　しらゆり",
      "name_kana": "",
      "business_type": "漬物製造業",
      "address": "大分県竹田市平田 5782-1",
      "lat": 32.98243,
      "lng": 131.3622,
      "geocoding_level": null,
      "phone": "",
      "license_no": "指令豊保第6-35号",
      "license_date": null,
      "expire_date": null
    },
    {
      "name": "お食事処　たきた",
      "name_kana": "",
      "business_type": "飲食店営業",
      "address": "大分県竹田市直入町大字下田北 1310番地の1、２",
      "lat": 33.12559,
      "lng": 131.41295,
      "geocoding_level": null,
      "phone": "",
      "license_no": "指令豊保第6-31号",
      "license_date": null,
      "expire_date": null
    },
    {
      "name": "お食事処　たきた",
      "name_kana": "",
      "business_type": "そうざい製造業",
      "address": "大分県竹田市直入町大字下田北 1310番地の1、２",
      "lat": 33.12559,
      "lng": 131.41295,
      "geocoding_level": null,
      "phone": "",
      "license_no": "指令豊保第6-32号",
      "license_date": null,
      "expire_date": null
    },
    {
      "name": "ボイボイキャンプ場",
      "name_kana": "",
      "business_type": "菓子製造業",
      "address": "大分県竹田市久住町大字久住 4050-11",
      "lat": 33.05579,
      "lng": 131.25232,
      "geocoding_level": null,
      "phone": "",
      "license_no": "指令豊保第6-39号",
      "license_date": null,
      "expire_date": null
    },
    {
      "name": "くじゅう花公園",
      "name_kana": "",
      "business_type": "食肉販売業",
      "address": "大分県竹田市久住町大字久住 4050番地",
      "lat": 33.05579,
      "lng": 131.25232,
      "geocoding_level": null,
      "phone": "",
      "license_no": "指令豊保第6-38号",
      "license_date": null,
      "expire_date": null
    },
    {
      "name": "とり to たまご",
      "name_kana": "",
      "business_type": "菓子製造業",
      "address": "大分県竹田市拝田原 769-1",
      "lat": 32.95487,
      "lng": 131.37407,
      "geocoding_level": null,
      "phone": "",
      "license_no": "指令豊保第6-47号",
      "license_date": null,
      "expire_date": null
    },
    {
      "name": "とり to たまご",
      "name_kana": "",
      "business_type": "飲食店営業",
      "address": "大分県竹田市拝田原 769-1",
      "lat": 32.95487,
      "lng": 131.37407,
      "geocoding_level": null,
      "phone": "",
      "license_no": "指令豊保第6-48号",
      "license_date": null,
      "expire_date": null
    },
    {
      "name": "小鳩食堂",
      "name_kana": "",
      "business_type": "そうざい製造業",
      "address": "大分県竹田市荻町恵良原735",
      "lat": 32.92398,
      "lng": 131.31418,
      "geocoding_level": null,
      "phone": "",
      "license_no": "指令豊保第6-64号",
      "license_date": null,
      "expire_date": null
    },
    {
      "name": "KUJU　HILLS　SPICE　HERB　RESTAURANT",
      "name_kana": "",
      "business_type": "飲食店営業",
      "address": "大分県竹田市久住町久住 4028-2",
      "lat": 33.05579,
      "lng": 131.25232,
      "geocoding_level": null,
      "phone": "",
      "license_no": "指令豊保第6-78号",
      "license_date": null,
      "expire_date": null
    },
    {
      "name": "くじゅう花公園　ハニカムcafe",
      "name_kana": "",
      "business_type": "飲食店営業",
      "address": "大分県竹田市久住町大字久住 ４０５０",
      "lat": 33.05579,
      "lng": 131.25232,
      "geocoding_level": null,
      "phone": "",
      "license_no": "指令豊保第6-80号",
      "license_date": null,
      "expire_date": null
    },
    {
      "name": "であいの湯",
      "name_kana": "",
      "business_type": "飲食店営業",
      "address": "大分県竹田市上坂田 12-1",
      "lat": 32.99007,
      "lng": 131.31586,
      "geocoding_level": null,
      "phone": "",
      "license_no": "指令豊保第4-18号",
      "license_date": null,
      "expire_date": null
    },
    {
      "name": "（有）エム・ナイン",
      "name_kana": "",
      "business_type": "密封包装食品製造業",
      "address": "大分県竹田市荻町馬場 437番地1",
      "lat": 32.92836,
      "lng": 131.29213,
      "geocoding_level": null,
      "phone": "",
      "license_no": "指令豊保第11-41号",
      "license_date": null,
      "expire_date": null
    },
    {
      "name": "有限会社 肉のまるまさ",
      "name_kana": "",
      "business_type": "そうざい製造業",
      "address": "大分県竹田市久住町栢木 1492-3",
      "lat": 33.04084,
      "lng": 131.32968,
      "geocoding_level": null,
      "phone": "",
      "license_no": "指令豊保第11-33号",
      "license_date": null,
      "expire_date": null
    },
    {
      "name": "株式会社吉野　加工場",
      "name_kana": "",
      "business_type": "食肉販売業",
      "address": "大分県竹田市直入町大字長湯 8195-45",
      "lat": 33.07447,
      "lng": 131.37514,
      "geocoding_level": null,
      "phone": "",
      "license_no": "指令豊保第4-48号",
      "license_date": null,
      "expire_date": null
    },
    {
      "name": "やきとり大将母家",
      "name_kana": "",
      "business_type": "そうざい製造業",
      "address": "大分県竹田市大字竹田町316",
      "lat": 32.96729,
      "lng": 131.3943,
      "geocoding_level": null,
      "phone": "",
      "license_no": "指令豊保第4-54号",
      "license_date": null,
      "expire_date": null
    },
    {
      "name": "すくらむ",
      "name_kana": "",
      "business_type": "飲食店営業",
      "address": "大分県竹田市大字竹田町275番地",
      "lat": 32.96741,
      "lng": 131.39359,
      "geocoding_level": null,
      "phone": "",
      "license_no": "指令豊保第4-57号",
      "license_date": null,
      "expire_date": null
    },
    {
      "name": "亀福",
      "name_kana": "",
      "business_type": "そうざい製造業",
      "address": "大分県竹田市会々 3376",
      "lat": 32.97379,
      "lng": 131.38268,
      "geocoding_level": null,
      "phone": "",
      "license_no": "指令豊保第9-59号",
      "license_date": null,
      "expire_date": null
    },
    {
      "name": "スナックリスボン",
      "name_kana": "",
      "business_type": "飲食店営業",
      "address": "大分県竹田市大字竹田町 197",
      "lat": 32.96729,
      "lng": 131.3943,
      "geocoding_level": null,
      "phone": "",
      "license_no": "指令豊保第26-99号",
      "license_date": null,
      "expire_date": null
    },
    {
      "name": "ひらた",
      "name_kana": "",
      "business_type": "飲食店営業",
      "address": "大分県竹田市竹田町 537",
      "lat": 32.96848,
      "lng": 131.39259,
      "geocoding_level": null,
      "phone": "",
      "license_no": "指令豊保第26-95号",
      "license_date": null,
      "expire_date": null
    },
    {
      "name": "竹田ホルモン",
      "name_kana": "",
      "business_type": "飲食店営業",
      "address": "大分県竹田市竹田町 304",
      "lat": 32.96776,
      "lng": 131.39435,
      "geocoding_level": null,
      "phone": "",
      "license_no": "指令豊保第11-14号",
      "license_date": null,
      "expire_date": null
    },
    {
      "name": "千石や",
      "name_kana": "",
      "business_type": "飲食店営業",
      "address": "大分県竹田市竹田 2020-1",
      "lat": 32.9641,
      "lng": 131.39668,
      "geocoding_level": null,
      "phone": "",
      "license_no": "指令豊保第26-72号",
      "license_date": null,
      "expire_date": null
    },
    {
      "name": "三村製菓",
      "name_kana": "",
      "business_type": "菓子製造業",
      "address": "大分県竹田市直入町長湯 8030-1",
      "lat": 33.07447,
      "lng": 131.37514,
      "geocoding_level": null,
      "phone": "",
      "license_no": "指令豊保第26-13号",
      "license_date": null,
      "expire_date": null
    },
    {
      "name": "一家",
      "name_kana": "",
      "business_type": "飲食店営業",
      "address": "大分県竹田市竹田町 159",
      "lat": 32.96703,
      "lng": 131.39534,
      "geocoding_level": null,
      "phone": "",
      "license_no": "指令豊保第26-20号",
      "license_date": null,
      "expire_date": null
    },
    {
      "name": "中村屋",
      "name_kana": "",
      "business_type": "飲食店営業",
      "address": "大分県竹田市直入町長湯 7964-2",
      "lat": 33.07447,
      "lng": 131.37514,
      "geocoding_level": null,
      "phone": "",
      "license_no": "指令豊保第9-78号",
      "license_date": null,
      "expire_date": null
    },
    {
      "name": "一休さん",
      "name_kana": "",
      "business_type": "飲食店営業",
      "address": "大分県竹田市竹田町 182-1",
      "lat": 32.96729,
      "lng": 131.3943,
      "geocoding_level": null,
      "phone": "",
      "license_no": "指令豊保第26-4号",
      "license_date": null,
      "expire_date": null
    },
    {
      "name": "緒方鮮魚店",
      "name_kana": "",
      "business_type": "魚介類販売業",
      "address": "大分県竹田市直入町長湯湯ノ原 8039-4",
      "lat": 33.07447,
      "lng": 131.37514,
      "geocoding_level": null,
      "phone": "",
      "license_no": "指令豊保第9-77号",
      "license_date": null,
      "expire_date": null
    },
    {
      "name": "ペンションきの子Ⅱ世号",
      "name_kana": "",
      "business_type": "飲食店営業",
      "address": "大分県竹田市久住町久住 4026-1",
      "lat": 33.05579,
      "lng": 131.25232,
      "geocoding_level": null,
      "phone": "",
      "license_no": "指令豊保第26-88号",
      "license_date": null,
      "expire_date": null
    },
    {
      "name": "ローマンホリデー",
      "name_kana": "",
      "business_type": "飲食店営業",
      "address": "大分県竹田市上町 68",
      "lat": 32.99007,
      "lng": 131.31586,
      "geocoding_level": null,
      "phone": "",
      "license_no": "指令豊保第9-4号",
      "license_date": null,
      "expire_date": null
    },
    {
      "name": "阿南商店",
      "name_kana": "",
      "business_type": "魚介類販売業",
      "address": "大分県竹田市門田 251",
      "lat": 32.92501,
      "lng": 131.37134,
      "geocoding_level": null,
      "phone": "",
      "license_no": "指令豊保第9-6号",
      "license_date": null,
      "expire_date": null
    },
    {
      "name": "正直屋食堂",
      "name_kana": "",
      "business_type": "飲食店営業",
      "address": "大分県竹田市直入町長湯 7773-8",
      "lat": 33.07447,
      "lng": 131.37514,
      "geocoding_level": null,
      "phone": "",
      "license_no": "指令豊保第11-22号",
      "license_date": null,
      "expire_date": null
    },
    {
      "name": "初金",
      "name_kana": "",
      "business_type": "飲食店営業",
      "address": "大分県竹田市竹田町 267",
      "lat": 32.96828,
      "lng": 131.39287,
      "geocoding_level": null,
      "phone": "",
      "license_no": "指令豊保第26-19号",
      "license_date": null,
      "expire_date": null
    },
    {
      "name": "DOG　DAYS",
      "name_kana": "",
      "business_type": "飲食店営業",
      "address": "大分県竹田市入田 16-1",
      "lat": 32.94323,
      "lng": 131.39871,
      "geocoding_level": null,
      "phone": "",
      "license_no": "指令豊保第12-23号",
      "license_date": null,
      "expire_date": null
    },
    {
      "name": "常連",
      "name_kana": "",
      "business_type": "飲食店営業",
      "address": "大分県竹田市竹田町 519-1",
      "lat": 32.96848,
      "lng": 131.39259,
      "geocoding_level": null,
      "phone": "",
      "license_no": "指令豊保第9-7号",
      "license_date": null,
      "expire_date": null
    },
    {
      "name": "白根加工場",
      "name_kana": "",
      "business_type": "菓子製造業",
      "address": "大分県竹田市久住町白丹 1108-2",
      "lat": 33.03118,
      "lng": 131.23845,
      "geocoding_level": null,
      "phone": "",
      "license_no": "指令豊保第26-90号",
      "license_date": null,
      "expire_date": null
    },
    {
      "name": "パブ・アイアン",
      "name_kana": "",
      "business_type": "飲食店営業",
      "address": "大分県竹田市竹田 1998",
      "lat": 32.96711,
      "lng": 131.39574,
      "geocoding_level": null,
      "phone": "",
      "license_no": "指令豊保第11-20号",
      "license_date": null,
      "expire_date": null
    },
    {
      "name": "居酒屋桃太郎",
      "name_kana": "",
      "business_type": "飲食店営業",
      "address": "大分県竹田市直入町長湯 7980-1",
      "lat": 33.07447,
      "lng": 131.37514,
      "geocoding_level": null,
      "phone": "",
      "license_no": "指令豊保第9-42号",
      "license_date": null,
      "expire_date": null
    },
    {
      "name": "酒ごころ一輝",
      "name_kana": "",
      "business_type": "飲食店営業",
      "address": "大分県竹田市竹田町 299",
      "lat": 32.9686,
      "lng": 131.39378,
      "geocoding_level": null,
      "phone": "",
      "license_no": "指令豊保第9-57号",
      "license_date": null,
      "expire_date": null
    },
    {
      "name": "河野商店",
      "name_kana": "",
      "business_type": "飲食店営業",
      "address": "大分県竹田市会々 1125-2",
      "lat": 32.97782,
      "lng": 131.3912,
      "geocoding_level": null,
      "phone": "",
      "license_no": "指令豊保第9-75号",
      "license_date": null,
      "expire_date": null
    },
    {
      "name": "お食事処ひらく",
      "name_kana": "",
      "business_type": "飲食店営業",
      "address": "大分県竹田市直入町下田北 4718-1",
      "lat": 33.12559,
      "lng": 131.41295,
      "geocoding_level": null,
      "phone": "",
      "license_no": "指令豊保第26-94号",
      "license_date": null,
      "expire_date": null
    },
    {
      "name": "慈世庵",
      "name_kana": "",
      "business_type": "飲食店営業",
      "address": "大分県竹田市植木 721",
      "lat": 32.98368,
      "lng": 131.38713,
      "geocoding_level": null,
      "phone": "",
      "license_no": "指令豊保第9-34号",
      "license_date": null,
      "expire_date": null
    },
    {
      "name": "ハンドベルク長湯",
      "name_kana": "",
      "business_type": "食肉製品製造業",
      "address": "大分県竹田市直入町長湯 8173-1",
      "lat": 33.07447,
      "lng": 131.37514,
      "geocoding_level": null,
      "phone": "",
      "license_no": "指令豊保第9-54号",
      "license_date": null,
      "expire_date": null
    },
    {
      "name": "喜味寿し",
      "name_kana": "",
      "business_type": "飲食店営業",
      "address": "大分県竹田市竹田町 273-1",
      "lat": 32.96741,
      "lng": 131.39359,
      "geocoding_level": null,
      "phone": "",
      "license_no": "指令豊保第9-60号",
      "license_date": null,
      "expire_date": null
    },
    {
      "name": "アルク",
      "name_kana": "",
      "business_type": "飲食店営業",
      "address": "大分県竹田市久住町栢木 574-38",
      "lat": 33.04084,
      "lng": 131.32968,
      "geocoding_level": null,
      "phone": "",
      "license_no": "指令豊保第9-76号",
      "license_date": null,
      "expire_date": null
    },
    {
      "name": "ことぶきや（桑島）",
      "name_kana": "",
      "business_type": "飲食店営業",
      "address": "大分県竹田市竹田 2001-11",
      "lat": 32.96837,
      "lng": 131.39673,
      "geocoding_level": null,
      "phone": "",
      "license_no": "指令豊保第11-58号",
      "license_date": null,
      "expire_date": null
    },
    {
      "name": "スナックラムール",
      "name_kana": "",
      "business_type": "飲食店営業",
      "address": "大分県竹田市竹田 150",
      "lat": 32.96449,
      "lng": 131.39592,
      "geocoding_level": null,
      "phone": "",
      "license_no": "指令豊保第11-17号",
      "license_date": null,
      "expire_date": null
    },
    {
      "name": "花すみ亭",
      "name_kana": "",
      "business_type": "飲食店営業",
      "address": "大分県竹田市久住町久住 6511",
      "lat": 33.05579,
      "lng": 131.25232,
      "geocoding_level": null,
      "phone": "",
      "license_no": "指令豊保第26-81号",
      "license_date": null,
      "expire_date": null
    },
    {
      "name": "めん工房志保屋",
      "name_kana": "",
      "business_type": "麺類製造業",
      "address": "大分県竹田市竹田町 507",
      "lat": 32.96812,
      "lng": 131.39197,
      "geocoding_level": null,
      "phone": "",
      "license_no": "指令豊保第26-17号",
      "license_date": null,
      "expire_date": null
    },
    {
      "name": "ふるやの杜",
      "name_kana": "",
      "business_type": "飲食店営業",
      "address": "大分県竹田市久住町久住蟻通 4004-70",
      "lat": 33.05579,
      "lng": 131.25232,
      "geocoding_level": null,
      "phone": "",
      "license_no": "指令豊保第26-22号",
      "license_date": null,
      "expire_date": null
    },
    {
      "name": "十五万石竹田店",
      "name_kana": "",
      "business_type": "飲食店営業",
      "address": "大分県竹田市会々 七里",
      "lat": 32.97782,
      "lng": 131.3912,
      "geocoding_level": null,
      "phone": "",
      "license_no": "指令豊保第26-46号",
      "license_date": null,
      "expire_date": null
    },
    {
      "name": "空",
      "name_kana": "",
      "business_type": "飲食店営業",
      "address": "大分県竹田市久住町有氏 1868",
      "lat": 33.08593,
      "lng": 131.29587,
      "geocoding_level": null,
      "phone": "",
      "license_no": "指令豊保第26-26号",
      "license_date": null,
      "expire_date": null
    },
    {
      "name": "ビュウ",
      "name_kana": "",
      "business_type": "飲食店営業",
      "address": "大分県竹田市久住町栢木 606-106",
      "lat": 33.04084,
      "lng": 131.32968,
      "geocoding_level": null,
      "phone": "",
      "license_no": "指令豊保第26-16号",
      "license_date": null,
      "expire_date": null
    },
    {
      "name": "富貴",
      "name_kana": "",
      "business_type": "飲食店営業",
      "address": "大分県竹田市久住町栢木 276",
      "lat": 33.04084,
      "lng": 131.32968,
      "geocoding_level": null,
      "phone": "",
      "license_no": "指令豊保第12-20号",
      "license_date": null,
      "expire_date": null
    },
    {
      "name": "久住高原菓房いずみや",
      "name_kana": "",
      "business_type": "飲食店営業",
      "address": "大分県竹田市久住町大字久住鶴が笹 4048－15",
      "lat": 33.05579,
      "lng": 131.25232,
      "geocoding_level": null,
      "phone": "",
      "license_no": "指令豊保第12-22号",
      "license_date": null,
      "expire_date": null
    },
    {
      "name": "石原農産加工場",
      "name_kana": "",
      "business_type": "漬物製造業",
      "address": "大分県竹田市久住町有氏 1226－12",
      "lat": 33.08593,
      "lng": 131.29587,
      "geocoding_level": null,
      "phone": "",
      "license_no": "指令豊保第9-2号",
      "license_date": null,
      "expire_date": null
    },
    {
      "name": "荻町農産物加工所",
      "name_kana": "",
      "business_type": "みそ又はしょうゆ製造業",
      "address": "大分県竹田市荻町馬場 940－3",
      "lat": 32.92836,
      "lng": 131.29213,
      "geocoding_level": null,
      "phone": "",
      "license_no": "指令豊保第9-37号",
      "license_date": null,
      "expire_date": null
    },
    {
      "name": "直入農業集団　遊草舎",
      "name_kana": "",
      "business_type": "漬物製造業",
      "address": "大分県竹田市直入町長湯 8195-29",
      "lat": 33.07447,
      "lng": 131.37514,
      "geocoding_level": null,
      "phone": "",
      "license_no": "指令豊保第6-4号",
      "license_date": null,
      "expire_date": null
    },
    {
      "name": "志土知農産加工所",
      "name_kana": "",
      "business_type": "漬物製造業",
      "address": "大分県竹田市志土知 113",
      "lat": 32.9734,
      "lng": 131.31711,
      "geocoding_level": null,
      "phone": "",
      "license_no": "指令豊保第6-11号",
      "license_date": null,
      "expire_date": null
    },
    {
      "name": "志土知農産加工所",
      "name_kana": "",
      "business_type": "みそ又はしょうゆ製造業",
      "address": "大分県竹田市志土知 113",
      "lat": 32.9734,
      "lng": 131.31711,
      "geocoding_level": null,
      "phone": "",
      "license_no": "指令豊保第9-27号",
      "license_date": null,
      "expire_date": null
    },
    {
      "name": "湯の郷農産加工所",
      "name_kana": "",
      "business_type": "漬物製造業",
      "address": "大分県竹田市直入町長湯 2983番地",
      "lat": 33.07447,
      "lng": 131.37514,
      "geocoding_level": null,
      "phone": "",
      "license_no": "指令豊保第6-18号",
      "license_date": null,
      "expire_date": null
    },
    {
      "name": "焼肉　よしおか",
      "name_kana": "",
      "business_type": "飲食店営業",
      "address": "大分県竹田市拝田原 255-1",
      "lat": 32.95872,
      "lng": 131.38065,
      "geocoding_level": null,
      "phone": "",
      "license_no": "指令豊保第11-52号",
      "license_date": null,
      "expire_date": null
    },
    {
      "name": "紅葉館　新館",
      "name_kana": "",
      "business_type": "飲食店営業",
      "address": "大分県竹田市直入町長湯 湯原7996",
      "lat": 33.07447,
      "lng": 131.37514,
      "geocoding_level": null,
      "phone": "",
      "license_no": "指令豊保第9-50号",
      "license_date": null,
      "expire_date": null
    },
    {
      "name": "さぼう　ごとう",
      "name_kana": "",
      "business_type": "飲食店営業",
      "address": "大分県竹田市荻町恵良原 776-3",
      "lat": 32.92398,
      "lng": 131.31418,
      "geocoding_level": null,
      "phone": "",
      "license_no": "指令豊保第11-59号",
      "license_date": null,
      "expire_date": null
    },
    {
      "name": "もんげ梨",
      "name_kana": "",
      "business_type": "飲食店営業",
      "address": "大分県竹田市菅生 1121-4",
      "lat": 32.95325,
      "lng": 131.28676,
      "geocoding_level": null,
      "phone": "",
      "license_no": "指令豊保第26-21号",
      "license_date": null,
      "expire_date": null
    },
    {
      "name": "スナック　ミ・カーサ",
      "name_kana": "",
      "business_type": "飲食店営業",
      "address": "大分県竹田市荻町馬場 434-7",
      "lat": 32.92836,
      "lng": 131.29213,
      "geocoding_level": null,
      "phone": "",
      "license_no": "指令豊保第26-27号",
      "license_date": null,
      "expire_date": null
    },
    {
      "name": "万福軒",
      "name_kana": "",
      "business_type": "飲食店営業",
      "address": "大分県竹田市荻町馬場 412番地10",
      "lat": 32.92836,
      "lng": 131.29213,
      "geocoding_level": null,
      "phone": "",
      "license_no": "指令豊保第26-28号",
      "license_date": null,
      "expire_date": null
    },
    {
      "name": "角仲島屋　羅夢歩",
      "name_kana": "",
      "business_type": "飲食店営業",
      "address": "大分県竹田市竹田町 80",
      "lat": 32.96654,
      "lng": 131.39539,
      "geocoding_level": null,
      "phone": "",
      "license_no": "指令豊保第26-77号",
      "license_date": null,
      "expire_date": null
    },
    {
      "name": "千寿苑",
      "name_kana": "",
      "business_type": "飲食店営業",
      "address": "大分県竹田市竹田 370",
      "lat": 32.96449,
      "lng": 131.39592,
      "geocoding_level": null,
      "phone": "",
      "license_no": "指令豊保第26-75号",
      "license_date": null,
      "expire_date": null
    },
    {
      "name": "卯野農場",
      "name_kana": "",
      "business_type": "菓子製造業",
      "address": "大分県竹田市菅生 1227番地",
      "lat": 32.95325,
      "lng": 131.28676,
      "geocoding_level": null,
      "phone": "",
      "license_no": "指令豊保第11-7号",
      "license_date": null,
      "expire_date": null
    },
    {
      "name": "スナック喫茶　ばんび",
      "name_kana": "",
      "business_type": "飲食店営業",
      "address": "大分県竹田市田町 140",
      "lat": 32.90981,
      "lng": 131.37372,
      "geocoding_level": null,
      "phone": "",
      "license_no": "指令豊保第11-10号",
      "license_date": null,
      "expire_date": null
    },
    {
      "name": "姉妹",
      "name_kana": "",
      "business_type": "漬物製造業",
      "address": "大分県竹田市久住町有氏 2115",
      "lat": 33.08593,
      "lng": 131.29587,
      "geocoding_level": null,
      "phone": "",
      "license_no": "指令豊保第11-36号",
      "license_date": null,
      "expire_date": null
    },
    {
      "name": "姉妹",
      "name_kana": "",
      "business_type": "そうざい製造業",
      "address": "大分県竹田市久住町有氏 2115",
      "lat": 33.08593,
      "lng": 131.29587,
      "geocoding_level": null,
      "phone": "",
      "license_no": "指令豊保第11-37号",
      "license_date": null,
      "expire_date": null
    },