{
  "meta": {
    "updated": 1783906731,
    "sources": [
      {
        "source": "兵庫県食品関係営業施設リスト（許可）",
        "license": "要確認"
      },
      {
        "source": "厚生労働省 食品衛生申請等システム（オープンデータ）",
        "license": "公共データ利用規約（第1.0版, PDL1.0）"
      }
    ]
  },
  "data": [
    {
      "name": "ふじい旅館",
      "name_kana": "",
      "business_type": "飲食店営業(3)旅館",
      "address": "豊岡市山王町１１－５０",
      "lat": 35.540883516,
      "lng": 134.816910376,
      "geocoding_level": 8,
      "phone": "0796225027",
      "license_no": "但馬(豊健)第217-546",
      "license_date": null,
      "expire_date": null
    },
    {
      "name": "おさらぎ",
      "name_kana": "",
      "business_type": "飲食店営業(1)一般食堂・レストラン等",
      "address": "豊岡市中央町１０－２７",
      "lat": 35.543126336,
      "lng": 134.820598334,
      "geocoding_level": 8,
      "phone": "0796223044",
      "license_no": "但馬(豊健)第190-631",
      "license_date": null,
      "expire_date": null
    },
    {
      "name": "パインニ－ドル",
      "name_kana": "",
      "business_type": "飲食店営業(1)一般食堂・レストラン等",
      "address": "豊岡市中央町１５－９",
      "lat": 35.54303707,
      "lng": 134.821069291,
      "geocoding_level": 8,
      "phone": "0796224449",
      "license_no": "但馬(豊健)第190-569",
      "license_date": null,
      "expire_date": null
    },
    {
      "name": "株式会社ほーゆー本店",
      "name_kana": "",
      "business_type": "飲食店営業(2)仕出し屋・弁当屋",
      "address": "豊岡市正法寺６０８－１",
      "lat": 35.53930700000001,
      "lng": 134.811685,
      "geocoding_level": 3,
      "phone": "0796231108",
      "license_no": "但馬(豊健)第190-603",
      "license_date": null,
      "expire_date": null
    },
    {
      "name": "堀名ストアー",
      "name_kana": "",
      "business_type": "飲食店営業(4)その他",
      "address": "豊岡市江本２９－２",
      "lat": 35.526270000000004,
      "lng": 134.830866,
      "geocoding_level": 3,
      "phone": "0796231176",
      "license_no": "但馬(豊健)第190-630",
      "license_date": null,
      "expire_date": null
    },
    {
      "name": "そば福",
      "name_kana": "",
      "business_type": "飲食店営業(1)一般食堂・レストラン等",
      "address": "豊岡市泉町６－１０",
      "lat": 35.546723168,
      "lng": 134.820001369,
      "geocoding_level": 8,
      "phone": "0796226917",
      "license_no": "但馬(豊健)第190-504",
      "license_date": null,
      "expire_date": null
    },
    {
      "name": "浮世",
      "name_kana": "",
      "business_type": "飲食店営業(1)一般食堂・レストラン等",
      "address": "豊岡市千代田町４－１４",
      "lat": 35.542852428,
      "lng": 134.817935251,
      "geocoding_level": 8,
      "phone": "0796235446",
      "license_no": "但馬(豊健)第190-611",
      "license_date": null,
      "expire_date": null
    },
    {
      "name": "喫茶ぼっか",
      "name_kana": "",
      "business_type": "飲食店営業(1)一般食堂・レストラン等",
      "address": "豊岡市山王町３－２４",
      "lat": 35.540834393,
      "lng": 134.817929254,
      "geocoding_level": 8,
      "phone": "0796222585",
      "license_no": "但馬(豊健)第190-650",
      "license_date": null,
      "expire_date": null
    },
    {
      "name": "窓",
      "name_kana": "",
      "business_type": "飲食店営業(1)一般食堂・レストラン等",
      "address": "豊岡市山王町１０－６",
      "lat": 35.541968546,
      "lng": 134.816665153,
      "geocoding_level": 8,
      "phone": "0796224690",
      "license_no": "但馬(豊健)第190-647",
      "license_date": null,
      "expire_date": null
    },
    {
      "name": "ふじや本店",
      "name_kana": "",
      "business_type": "飲食店営業(1)一般食堂・レストラン等",
      "address": "豊岡市元町７－１７",
      "lat": 35.546635699,
      "lng": 134.824498589,
      "geocoding_level": 8,
      "phone": "0796222519",
      "license_no": "但馬(豊健)第190-506",
      "license_date": null,
      "expire_date": null
    },
    {
      "name": "紀ノ川",
      "name_kana": "",
      "business_type": "飲食店営業(1)一般食堂・レストラン等",
      "address": "豊岡市千代田町３－６",
      "lat": 35.543210193,
      "lng": 134.818818991,
      "geocoding_level": 8,
      "phone": "0796224817",
      "license_no": "但馬(豊健)第190-559",
      "license_date": null,
      "expire_date": null
    },
    {
      "name": "ちえ美",
      "name_kana": "",
      "business_type": "飲食店営業(1)一般食堂・レストラン等",
      "address": "豊岡市木内７０５－１",
      "lat": 35.523709,
      "lng": 134.841603,
      "geocoding_level": 3,
      "phone": "0796241830",
      "license_no": "但馬(豊健)第190-576",
      "license_date": null,
      "expire_date": null
    },
    {
      "name": "丹後屋",
      "name_kana": "",
      "business_type": "飲食店営業(1)一般食堂・レストラン等",
      "address": "豊岡市元町１－１４",
      "lat": 35.54479529,
      "lng": 134.824001555,
      "geocoding_level": 8,
      "phone": "0796222348",
      "license_no": "但馬(豊健)第150-566",
      "license_date": null,
      "expire_date": null
    },
    {
      "name": "びっくりや",
      "name_kana": "",
      "business_type": "飲食店営業(1)一般食堂・レストラン等",
      "address": "豊岡市城南町９－１０",
      "lat": 35.537507335,
      "lng": 134.823884527,
      "geocoding_level": 8,
      "phone": "0796222824",
      "license_no": "但馬(豊健)第150-571",
      "license_date": null,
      "expire_date": null
    },
    {
      "name": "居酒屋渡月",
      "name_kana": "",
      "business_type": "飲食店営業(1)一般食堂・レストラン等",
      "address": "豊岡市泉町１５－４０",
      "lat": 35.545051255,
      "lng": 134.821725764,
      "geocoding_level": 8,
      "phone": "0796232791",
      "license_no": "但馬(豊健)第150-623",
      "license_date": null,
      "expire_date": null
    },
    {
      "name": "ポパイ",
      "name_kana": "",
      "business_type": "飲食店営業(1)一般食堂・レストラン等",
      "address": "豊岡市京町１１－６",
      "lat": 35.54001729,
      "lng": 134.823363198,
      "geocoding_level": 8,
      "phone": "0796242061",
      "license_no": "但馬(豊健)第150-648",
      "license_date": null,
      "expire_date": null
    },
    {
      "name": "銀馬",
      "name_kana": "",
      "business_type": "飲食店営業(4)その他",
      "address": "豊岡市寿町６－１７",
      "lat": 35.54642352,
      "lng": 134.818816687,
      "geocoding_level": 8,
      "phone": "0796231439",
      "license_no": "但馬(豊健)第190-544",
      "license_date": null,
      "expire_date": null
    },
    {
      "name": "西谷菓子舗",
      "name_kana": "",
      "business_type": "菓子製造業",
      "address": "豊岡市城南町２－４",
      "lat": 35.539516167,
      "lng": 134.823420794,
      "geocoding_level": 8,
      "phone": "0796222315",
      "license_no": "但馬(豊健)第152-513",
      "license_date": null,
      "expire_date": null
    },
    {
      "name": "一柳堂",
      "name_kana": "",
      "business_type": "菓子製造業",
      "address": "豊岡市元町３－１９",
      "lat": 35.546406756,
      "lng": 134.824104744,
      "geocoding_level": 8,
      "phone": "0796222473",
      "license_no": "但馬(豊健)第192-501",
      "license_date": null,
      "expire_date": null
    },
    {
      "name": "味玉鶏卵",
      "name_kana": "",
      "business_type": "食肉販売業",
      "address": "豊岡市中央町３－２４",
      "lat": 35.544676776,
      "lng": 134.821563166,
      "geocoding_level": 8,
      "phone": "0796226741",
      "license_no": "但馬(豊健)第212-503",
      "license_date": null,
      "expire_date": null
    },
    {
      "name": "かも川",
      "name_kana": "",
      "business_type": "飲食店営業(1)一般食堂・レストラン等",
      "address": "豊岡市中央町１０－２８",
      "lat": 35.543128691,
      "lng": 134.820488393,
      "geocoding_level": 8,
      "phone": "0796239151",
      "license_no": "但馬(豊健)第190-507",
      "license_date": null,
      "expire_date": null
    },
    {
      "name": "フレンド",
      "name_kana": "",
      "business_type": "飲食店営業(1)一般食堂・レストラン等",
      "address": "豊岡市元町１０－１５",
      "lat": 35.546225831,
      "lng": 134.82438828,
      "geocoding_level": 8,
      "phone": "0796225512",
      "license_no": "但馬(豊健)第190-564",
      "license_date": null,
      "expire_date": null
    },
    {
      "name": "味",
      "name_kana": "",
      "business_type": "飲食店営業(1)一般食堂・レストラン等",
      "address": "豊岡市泉町６－２",
      "lat": 35.546143624,
      "lng": 134.819760279,
      "geocoding_level": 8,
      "phone": "0796240989",
      "license_no": "但馬(豊健)第190-632",
      "license_date": null,
      "expire_date": null
    },
    {
      "name": "豊岡水産物地方卸売市場",
      "name_kana": "",
      "business_type": "魚介類競り売り営業",
      "address": "豊岡市福田１２１－１",
      "lat": 35.561453726,
      "lng": 134.794730754,
      "geocoding_level": 8,
      "phone": "0796244114",
      "license_no": "但馬(豊健)第215-501",
      "license_date": null,
      "expire_date": null
    },
    {
      "name": "豊岡水産物地方卸売市場",
      "name_kana": "",
      "business_type": "氷雪製造業",
      "address": "豊岡市福田１２１－１",
      "lat": 35.561453726,
      "lng": 134.794730754,
      "geocoding_level": 8,
      "phone": "0796244114",
      "license_no": "但馬(豊健)第194-501",
      "license_date": null,
      "expire_date": null
    },
    {
      "name": "味玉鶏卵",
      "name_kana": "",
      "business_type": "そうざい製造業",
      "address": "豊岡市福田１２１－１",
      "lat": 35.561453726,
      "lng": 134.794730754,
      "geocoding_level": 8,
      "phone": "0796244051",
      "license_no": "但馬(豊健)第195-501",
      "license_date": null,
      "expire_date": null
    },
    {
      "name": "味玉鶏卵",
      "name_kana": "",
      "business_type": "食肉販売業",
      "address": "豊岡市福田１２１－１",
      "lat": 35.561453726,
      "lng": 134.794730754,
      "geocoding_level": 8,
      "phone": "0796244051",
      "license_no": "但馬(豊健)第212-501",
      "license_date": null,
      "expire_date": null
    },
    {
      "name": "ティールーム　アビアン・トット",
      "name_kana": "",
      "business_type": "飲食店営業(1)一般食堂・レストラン等",
      "address": "豊岡市下宮６８０",
      "lat": 35.569924,
      "lng": 134.85288,
      "geocoding_level": 3,
      "phone": "0796242052",
      "license_no": "但馬(豊健)第190-564",
      "license_date": null,
      "expire_date": null
    },
    {
      "name": "かね正",
      "name_kana": "",
      "business_type": "飲食店営業(1)一般食堂・レストラン等",
      "address": "豊岡市下陰１９－１",
      "lat": 35.558544,
      "lng": 134.806272,
      "geocoding_level": 3,
      "phone": "0796224002",
      "license_no": "但馬(豊健)第190-641",
      "license_date": null,
      "expire_date": null
    },
    {
      "name": "カフェコテッジまるやま",
      "name_kana": "",
      "business_type": "飲食店営業(1)一般食堂・レストラン等",
      "address": "豊岡市大手町１－２５",
      "lat": 35.544005547,
      "lng": 134.815071607,
      "geocoding_level": 8,
      "phone": "0796233908",
      "license_no": "但馬(豊健)第190-557",
      "license_date": null,
      "expire_date": null
    },
    {
      "name": "みひらき食堂",
      "name_kana": "",
      "business_type": "飲食店営業(2)仕出し屋・弁当屋",
      "address": "豊岡市八社宮一本木４８５－１",
      "lat": 35.521064,
      "lng": 134.834521,
      "geocoding_level": 3,
      "phone": "0796222938",
      "license_no": "但馬(豊健)第190-563",
      "license_date": null,
      "expire_date": null
    },
    {
      "name": "明月",
      "name_kana": "",
      "business_type": "飲食店営業(1)一般食堂・レストラン等",
      "address": "豊岡市中央町９－１１",
      "lat": 35.543756577,
      "lng": 134.82270985,
      "geocoding_level": 8,
      "phone": "0796225701",
      "license_no": "但馬(豊健)第190-656",
      "license_date": null,
      "expire_date": null
    },
    {
      "name": "さぬきうどん春日",
      "name_kana": "",
      "business_type": "飲食店営業(1)一般食堂・レストラン等",
      "address": "豊岡市城南町５－２４",
      "lat": 35.538564846,
      "lng": 134.823784998,
      "geocoding_level": 8,
      "phone": "0796223428",
      "license_no": "但馬(豊健)第190-521",
      "license_date": null,
      "expire_date": null
    },
    {
      "name": "コ－ヒ－ロ－ド１４１",
      "name_kana": "",
      "business_type": "飲食店営業(1)一般食堂・レストラン等",
      "address": "豊岡市中陰６４２－１",
      "lat": 35.551211,
      "lng": 134.808575,
      "geocoding_level": 3,
      "phone": "0796226526",
      "license_no": "但馬(豊健)第190-520",
      "license_date": null,
      "expire_date": null
    },
    {
      "name": "西田製菓㈱",
      "name_kana": "",
      "business_type": "菓子製造業",
      "address": "豊岡市伏２９８",
      "lat": 35.517091,
      "lng": 134.834266,
      "geocoding_level": 3,
      "phone": "0796242128",
      "license_no": "但馬(豊健)第192-504",
      "license_date": null,
      "expire_date": null
    },
    {
      "name": "花れん",
      "name_kana": "",
      "business_type": "飲食店営業(4)その他",
      "address": "豊岡市中央町１０－４",
      "lat": 35.54381724,
      "lng": 134.82050149,
      "geocoding_level": 8,
      "phone": "0796245066",
      "license_no": "但馬(豊健)第150-622",
      "license_date": null,
      "expire_date": null
    },
    {
      "name": "割烹　魁",
      "name_kana": "",
      "business_type": "飲食店営業(1)一般食堂・レストラン等",
      "address": "豊岡市泉町１３－１５",
      "lat": 35.546841009000005,
      "lng": 134.821766218,
      "geocoding_level": 8,
      "phone": "0796221888",
      "license_no": "但馬(豊健)第150-619",
      "license_date": null,
      "expire_date": null
    },
    {
      "name": "豊総食堂",
      "name_kana": "",
      "business_type": "飲食店営業(1)一般食堂・レストラン等",
      "address": "豊岡市加広町６－６８",
      "lat": 35.549766231,
      "lng": 134.818941596,
      "geocoding_level": 8,
      "phone": "0796246699",
      "license_no": "但馬(豊健)第150-542",
      "license_date": null,
      "expire_date": null
    },
    {
      "name": "レーベンアーゲ",
      "name_kana": "",
      "business_type": "飲食店営業(1)一般食堂・レストラン等",
      "address": "豊岡市中央町４－２８",
      "lat": 35.543890669,
      "lng": 134.821844355,
      "geocoding_level": 8,
      "phone": "0796221789",
      "license_no": "但馬(豊健)第150-536",
      "license_date": null,
      "expire_date": null
    },
    {
      "name": "かくれんぼ",
      "name_kana": "",
      "business_type": "飲食店営業(1)一般食堂・レストラン等",
      "address": "豊岡市中央町９－２７",
      "lat": 35.543068509,
      "lng": 134.822771566,
      "geocoding_level": 8,
      "phone": "0796243961",
      "license_no": "但馬(豊健)第190-518",
      "license_date": null,
      "expire_date": null
    },
    {
      "name": "喫茶ファイブ",
      "name_kana": "",
      "business_type": "飲食店営業(1)一般食堂・レストラン等",
      "address": "豊岡市中陰２９０",
      "lat": 35.551211,
      "lng": 134.808575,
      "geocoding_level": 3,
      "phone": "0796241887",
      "license_no": "但馬(豊健)第190-649",
      "license_date": null,
      "expire_date": null
    },
    {
      "name": "アイリス",
      "name_kana": "",
      "business_type": "飲食店営業(1)一般食堂・レストラン等",
      "address": "豊岡市加陽１３８８－１",
      "lat": 35.505271,
      "lng": 134.826333,
      "geocoding_level": 3,
      "phone": "0796242791",
      "license_no": "但馬(豊健)第190-540",
      "license_date": null,
      "expire_date": null
    },
    {
      "name": "クラブ　古都",
      "name_kana": "",
      "business_type": "飲食店営業(4)その他",
      "address": "豊岡市京町８－２０",
      "lat": 35.539976301,
      "lng": 134.82343268,
      "geocoding_level": 8,
      "phone": "0796233711",
      "license_no": "但馬(豊健)第190-512",
      "license_date": null,
      "expire_date": null
    },
    {
      "name": "喫茶ブルーマウンテン",
      "name_kana": "",
      "business_type": "飲食店営業(1)一般食堂・レストラン等",
      "address": "豊岡市下宮７５６",
      "lat": 35.569924,
      "lng": 134.85288,
      "geocoding_level": 3,
      "phone": "0796233743",
      "license_no": "但馬(豊健)第190-560",
      "license_date": null,
      "expire_date": null
    },
    {
      "name": "お食事処　大仙",
      "name_kana": "",
      "business_type": "飲食店営業(1)一般食堂・レストラン等",
      "address": "豊岡市中陰２０６－６",
      "lat": 35.551322716,
      "lng": 134.806534562,
      "geocoding_level": 8,
      "phone": "0796224627",
      "license_no": "但馬(豊健)第190-599",
      "license_date": null,
      "expire_date": null
    },
    {
      "name": "ウッディ豊岡バイパス店",
      "name_kana": "",
      "business_type": "飲食店営業(1)一般食堂・レストラン等",
      "address": "豊岡市船町字方ケ島３４７－１",
      "lat": 35.55472,
      "lng": 134.81752,
      "geocoding_level": 3,
      "phone": "0796247020",
      "license_no": "但馬(豊健)第190-586",
      "license_date": null,
      "expire_date": null
    },
    {
      "name": "ますや",
      "name_kana": "",
      "business_type": "飲食店営業(4)その他",
      "address": "豊岡市千代田町２－２４",
      "lat": 35.543884623,
      "lng": 134.818991862,
      "geocoding_level": 8,
      "phone": "0796237343",
      "license_no": "但馬(豊健)第190-571",
      "license_date": null,
      "expire_date": null
    },
    {
      "name": "豊裕",
      "name_kana": "",
      "business_type": "飲食店営業(1)一般食堂・レストラン等",
      "address": "豊岡市泉町１４－２５",
      "lat": 35.54505032,
      "lng": 134.821402147,
      "geocoding_level": 8,
      "phone": "0796236434",
      "license_no": "但馬(豊健)第190-585",
      "license_date": null,
      "expire_date": null
    },
    {
      "name": "茶房佐いち",
      "name_kana": "",
      "business_type": "飲食店営業(1)一般食堂・レストラン等",
      "address": "豊岡市小田井町１７－４",
      "lat": 35.548502269,
      "lng": 134.82439027,
      "geocoding_level": 8,
      "phone": "",
      "license_no": "但馬(豊健)第190-575",
      "license_date": null,
      "expire_date": null
    },
    {
      "name": "近畿大学食堂",
      "name_kana": "",
      "business_type": "飲食店営業(1)一般食堂・レストラン等",
      "address": "豊岡市戸牧１６０",
      "lat": 35.536006344,
      "lng": 134.804710251,
      "geocoding_level": 8,
      "phone": "0796233924",
      "license_no": "但馬(豊健)第190-628",
      "license_date": null,
      "expire_date": null
    },
    {
      "name": "堀名ストアー",
      "name_kana": "",
      "business_type": "魚介類販売業",
      "address": "豊岡市江本２９－２",
      "lat": 35.526270000000004,
      "lng": 134.830866,
      "geocoding_level": 3,
      "phone": "0796231176",
      "license_no": "但馬(豊健)第214-514",
      "license_date": null,
      "expire_date": null
    },
    {
      "name": "カフェ＆ランチ　オリーブ",
      "name_kana": "",
      "business_type": "飲食店営業(1)一般食堂・レストラン等",
      "address": "豊岡市新堂１５－５",
      "lat": 35.566859048,
      "lng": 134.78685009,
      "geocoding_level": 8,
      "phone": "0796242781",
      "license_no": "但馬(豊健)第150-610",
      "license_date": null,
      "expire_date": null
    },
    {
      "name": "ＣＡＦＥ&ＳＮＡＣＫ　マーブル",
      "name_kana": "",
      "business_type": "飲食店営業(1)一般食堂・レストラン等",
      "address": "豊岡市江本４２６－３",
      "lat": 35.526270000000004,
      "lng": 134.830866,
      "geocoding_level": 3,
      "phone": "0796226835",
      "license_no": "但馬(豊健)第150-677",
      "license_date": null,
      "expire_date": null
    },
    {
      "name": "あじとみ 焼肉 ･ Ｃａｆｅ",
      "name_kana": "",
      "business_type": "飲食店営業(1)一般食堂・レストラン等",
      "address": "豊岡市九日市下町２８２",
      "lat": 35.527343,
      "lng": 134.819072,
      "geocoding_level": 3,
      "phone": "0796236511",
      "license_no": "但馬(豊健)第150-678",
      "license_date": null,
      "expire_date": null
    },
    {
      "name": "風来坊",
      "name_kana": "",
      "business_type": "飲食店営業(1)一般食堂・レストラン等",
      "address": "豊岡市中央町４－２４",
      "lat": 35.544231965,
      "lng": 134.821920903,
      "geocoding_level": 8,
      "phone": "0796245123",
      "license_no": "但馬(豊健)第190-607",
      "license_date": null,
      "expire_date": null
    },
    {
      "name": "小林商店",
      "name_kana": "",
      "business_type": "魚介類販売業",
      "address": "豊岡市高屋８９８",
      "lat": 35.539702,
      "lng": 134.802004,
      "geocoding_level": 3,
      "phone": "0796225018",
      "license_no": "但馬(豊健)第214-506",
      "license_date": null,
      "expire_date": null
    },
    {
      "name": "ｍ３８６３０",
      "name_kana": "",
      "business_type": "飲食店営業(1)一般食堂・レストラン等",
      "address": "豊岡市元町１２－１",
      "lat": 35.543870473,
      "lng": 134.824058951,
      "geocoding_level": 8,
      "phone": "0796223151",
      "license_no": "但馬(豊健)第190-565",
      "license_date": null,
      "expire_date": null
    },
    {
      "name": "キリン",
      "name_kana": "",
      "business_type": "飲食店営業(4)その他",
      "address": "豊岡市泉町２２－８",
      "lat": 35.545574133,
      "lng": 134.823355434,
      "geocoding_level": 8,
      "phone": "0796235832",
      "license_no": "但馬(豊健)第190-519",
      "license_date": null,
      "expire_date": null
    },
    {
      "name": "カタシマ豊岡店",
      "name_kana": "",
      "business_type": "菓子製造業",
      "address": "豊岡市若松町４８－１",
      "lat": 35.549031,
      "lng": 134.813648,
      "geocoding_level": 3,
      "phone": "0796240618",
      "license_no": "但馬(豊健)第192-510",
      "license_date": null,
      "expire_date": null
    },
    {
      "name": "にしき",
      "name_kana": "",
      "business_type": "飲食店営業(1)一般食堂・レストラン等",
      "address": "豊岡市寿町２－７",
      "lat": 35.545052087,
      "lng": 134.817264515,
      "geocoding_level": 8,
      "phone": "0796230389",
      "license_no": "但馬(豊健)第190-608",
      "license_date": null,
      "expire_date": null
    },
    {
      "name": "ハーレー",
      "name_kana": "",
      "business_type": "飲食店営業(1)一般食堂・レストラン等",
      "address": "豊岡市森１１９－３",
      "lat": 35.559809,
      "lng": 134.82267,
      "geocoding_level": 3,
      "phone": "",
      "license_no": "但馬(豊健)第190-635",
      "license_date": null,
      "expire_date": null
    },
    {
      "name": "居酒屋　大",
      "name_kana": "",
      "business_type": "飲食店営業(1)一般食堂・レストラン等",
      "address": "豊岡市小田井町２－２１",
      "lat": 35.548451969,
      "lng": 134.822610394,
      "geocoding_level": 8,
      "phone": "",
      "license_no": "但馬(豊健)第190-617",
      "license_date": null,
      "expire_date": null
    },
    {
      "name": "ランチタイムハウスふみや",
      "name_kana": "",
      "business_type": "飲食店営業(1)一般食堂・レストラン等",
      "address": "豊岡市若松町７－７",
      "lat": 35.549008195,
      "lng": 134.814812524,
      "geocoding_level": 8,
      "phone": "",
      "license_no": "但馬(豊健)第190-523",
      "license_date": null,
      "expire_date": null
    },
    {
      "name": "金太郎本店",
      "name_kana": "",
      "business_type": "飲食店営業(2)仕出し屋・弁当屋",
      "address": "豊岡市城南町１２－４８",
      "lat": 35.537893344,
      "lng": 134.824816488,
      "geocoding_level": 8,
      "phone": "0796243020",
      "license_no": "但馬(豊健)第150-569",
      "license_date": null,
      "expire_date": null
    },
    {
      "name": "なか井",
      "name_kana": "",
      "business_type": "飲食店営業(1)一般食堂・レストラン等",
      "address": "豊岡市中央町１２－２１",
      "lat": 35.543880795,
      "lng": 134.819147753,
      "geocoding_level": 8,
      "phone": "0796237897",
      "license_no": "但馬(豊健)第150-621",
      "license_date": null,
      "expire_date": null
    },
    {
      "name": "ホテル大丸",
      "name_kana": "",
      "business_type": "飲食店営業(3)旅館",
      "address": "豊岡市大手町１－２７",
      "lat": 35.544010361,
      "lng": 134.815276704,
      "geocoding_level": 8,
      "phone": "0796226125",
      "license_no": "但馬(豊健)第183-567",
      "license_date": null,
      "expire_date": null
    },
    {
      "name": "港や",
      "name_kana": "",
      "business_type": "飲食店営業(1)一般食堂・レストラン等",
      "address": "豊岡市千代田町９－２０",
      "lat": 35.544858496,
      "lng": 134.81676586,
      "geocoding_level": 8,
      "phone": "0796241500",
      "license_no": "但馬(豊健)第190-649",
      "license_date": null,
      "expire_date": null
    },
    {
      "name": "港や",
      "name_kana": "",
      "business_type": "菓子製造業",
      "address": "豊岡市千代田町９－２０",
      "lat": 35.544858496,
      "lng": 134.81676586,
      "geocoding_level": 8,
      "phone": "",
      "license_no": "但馬(豊健)第192-517",
      "license_date": null,
      "expire_date": null
    },
    {
      "name": "ぼて拾",
      "name_kana": "",
      "business_type": "飲食店営業(1)一般食堂・レストラン等",
      "address": "豊岡市若松町４－１１",
      "lat": 35.548104837,
      "lng": 134.812972171,
      "geocoding_level": 8,
      "phone": "0796236858",
      "license_no": "但馬(豊健)第150-519",
      "license_date": null,
      "expire_date": null
    },
    {
      "name": "すなっくみさ",
      "name_kana": "",
      "business_type": "飲食店営業(4)その他",
      "address": "豊岡市泉町１９－６",
      "lat": 35.547459545,
      "lng": 134.82256456100004,
      "geocoding_level": 8,
      "phone": "0796221483",
      "license_no": "但馬(豊健)第150-524",
      "license_date": null,
      "expire_date": null
    },
    {
      "name": "さくら茶屋",
      "name_kana": "",
      "business_type": "飲食店営業(4)その他",
      "address": "豊岡市中央町６－９",
      "lat": 35.544427249,
      "lng": 134.82337372400002,
      "geocoding_level": 8,
      "phone": "0796239320",
      "license_no": "但馬(豊健)第150-505",
      "license_date": null,
      "expire_date": null
    },
    {
      "name": "ファーム木薫館",
      "name_kana": "",
      "business_type": "食肉販売業",
      "address": "豊岡市岩井３６３－１",
      "lat": 35.540148558000006,
      "lng": 134.790491733,
      "geocoding_level": 8,
      "phone": "0796220626",
      "license_no": "但馬(豊健)第212-502",
      "license_date": null,
      "expire_date": null
    },
    {
      "name": "りゅう製麺",
      "name_kana": "",
      "business_type": "麺類製造業",
      "address": "豊岡市寿町４－５",
      "lat": 35.545187547,
      "lng": 134.816270629,
      "geocoding_level": 8,
      "phone": "0796223837",
      "license_no": "但馬(豊健)第203-501",
      "license_date": null,
      "expire_date": null
    },
    {
      "name": "スナック＆食事処６９",
      "name_kana": "",
      "business_type": "飲食店営業(4)その他",
      "address": "豊岡市泉町１４－１８",
      "lat": 35.545528103,
      "lng": 134.821648088,
      "geocoding_level": 8,
      "phone": "0796230877",
      "license_no": "但馬(豊健)第190-510",
      "license_date": null,
      "expire_date": null
    },
    {
      "name": "フレッシュバザール豊岡江本店",
      "name_kana": "",
      "business_type": "魚介類販売業",
      "address": "豊岡市今森４７２",
      "lat": 35.526289,
      "lng": 134.826621,
      "geocoding_level": 3,
      "phone": "0796249101",
      "license_no": "但馬(豊健)第214-504",
      "license_date": null,
      "expire_date": null
    },
    {
      "name": "フレッシュバザール豊岡江本店",
      "name_kana": "",
      "business_type": "そうざい製造業",
      "address": "豊岡市今森４７２",
      "lat": 35.526289,
      "lng": 134.826621,
      "geocoding_level": 3,
      "phone": "0796249101",
      "license_no": "但馬(豊健)第195-502",
      "license_date": null,
      "expire_date": null
    },
    {
      "name": "豊岡高校食堂 祥",
      "name_kana": "",
      "business_type": "飲食店営業(1)一般食堂・レストラン等",
      "address": "豊岡市京町１２－９１",
      "lat": 35.539765,
      "lng": 134.821238,
      "geocoding_level": 3,
      "phone": "0796222111",
      "license_no": "但馬(豊健)第190-553",
      "license_date": null,
      "expire_date": null
    },
    {
      "name": "さんすりー",
      "name_kana": "",
      "business_type": "飲食店営業(1)一般食堂・レストラン等",
      "address": "豊岡市中央町１０－４",
      "lat": 35.54381724,
      "lng": 134.82050149,
      "geocoding_level": 8,
      "phone": "0796230583",
      "license_no": "但馬(豊健)第190-595",
      "license_date": null,
      "expire_date": null
    },
    {
      "name": "ミラノハウス・花ふじ",
      "name_kana": "",
      "business_type": "飲食店営業(1)一般食堂・レストラン等",
      "address": "豊岡市大手町４－５",
      "lat": 35.544128369,
      "lng": 134.815159656,
      "geocoding_level": 8,
      "phone": "0796220001",
      "license_no": "但馬(豊健)第190-612",
      "license_date": null,
      "expire_date": null
    },
    {
      "name": "パンクック",
      "name_kana": "",
      "business_type": "菓子製造業",
      "address": "豊岡市大手町４－５",
      "lat": 35.544128369,
      "lng": 134.815159656,
      "geocoding_level": 8,
      "phone": "0796220001",
      "license_no": "但馬(豊健)第192-514",
      "license_date": null,
      "expire_date": null
    },
    {
      "name": "さとう豊岡店",
      "name_kana": "",
      "business_type": "魚介類販売業",
      "address": "豊岡市大手町４－５",
      "lat": 35.544128369,
      "lng": 134.815159656,
      "geocoding_level": 8,
      "phone": "0796220001",
      "license_no": "但馬(豊健)第214-511",
      "license_date": null,
      "expire_date": null
    },
    {
      "name": "パブ・ジュピター",
      "name_kana": "",
      "business_type": "飲食店営業(4)その他",
      "address": "豊岡市泉町１２－１５",
      "lat": 35.54769319300001,
      "lng": 134.821761824,
      "geocoding_level": 8,
      "phone": "0796233176",
      "license_no": "但馬(豊健)第190-585",
      "license_date": null,
      "expire_date": null
    },
    {
      "name": "ふじの実豊岡店",
      "name_kana": "",
      "business_type": "飲食店営業(1)一般食堂・レストラン等",
      "address": "豊岡市船町３４０－１",
      "lat": 35.55472,
      "lng": 134.81752,
      "geocoding_level": 3,
      "phone": "0796220003",
      "license_no": "但馬(豊健)第190-647",
      "license_date": null,
      "expire_date": null
    },
    {
      "name": "小麦の森　豊岡店",
      "name_kana": "",
      "business_type": "菓子製造業",
      "address": "豊岡市加広町７－３２",
      "lat": 35.550502283,
      "lng": 134.81556726,
      "geocoding_level": 8,
      "phone": "0796238070",
      "license_no": "但馬(豊健)第192-505",
      "license_date": null,
      "expire_date": null
    },
    {
      "name": "味の四季彩",
      "name_kana": "",
      "business_type": "飲食店営業(4)その他",
      "address": "豊岡市加広町７－３２",
      "lat": 35.550502283,
      "lng": 134.81556726,
      "geocoding_level": 8,
      "phone": "0796246121",
      "license_no": "但馬(豊健)第190-538",
      "license_date": null,
      "expire_date": null
    },
    {
      "name": "コープデイズ豊岡",
      "name_kana": "",
      "business_type": "魚介類販売業",
      "address": "豊岡市加広町７－３２",
      "lat": 35.550502283,
      "lng": 134.81556726,
      "geocoding_level": 8,
      "phone": "0796235000",
      "license_no": "但馬(豊健)第214-502",
      "license_date": null,
      "expire_date": null
    },
    {
      "name": "コープデイズ豊岡",
      "name_kana": "",
      "business_type": "飲食店営業(4)その他",
      "address": "豊岡市加広町７－３２",
      "lat": 35.550502283,
      "lng": 134.81556726,
      "geocoding_level": 8,
      "phone": "0796235000",
      "license_no": "但馬(豊健)第190-539",
      "license_date": null,
      "expire_date": null
    },
    {
      "name": "コープデイズ豊岡",
      "name_kana": "",
      "business_type": "食肉販売業",
      "address": "豊岡市加広町７－３２",
      "lat": 35.550502283,
      "lng": 134.81556726,
      "geocoding_level": 8,
      "phone": "0796235000",
      "license_no": "但馬(豊健)第212-502",
      "license_date": null,
      "expire_date": null
    },
    {
      "name": "ミスタードーナツ  コープデイズ豊岡　ＳＨＯＰ",
      "name_kana": "",
      "business_type": "飲食店営業(1)一般食堂・レストラン等",
      "address": "豊岡市加広町７－３２",
      "lat": 35.550502283,
      "lng": 134.81556726,
      "geocoding_level": 8,
      "phone": "0796290111",
      "license_no": "但馬(豊健)第190-529",
      "license_date": null,
      "expire_date": null
    },
    {
      "name": "ミスタードーナツ  コープデイズ豊岡　ＳＨＯＰ",
      "name_kana": "",
      "business_type": "菓子製造業",
      "address": "豊岡市加広町７－３２",
      "lat": 35.550502283,
      "lng": 134.81556726,
      "geocoding_level": 8,
      "phone": "0796290111",
      "license_no": "但馬(豊健)第192-505",
      "license_date": null,
      "expire_date": null
    },
    {
      "name": "豊岡パ－クホテル喫茶ホール",
      "name_kana": "",
      "business_type": "飲食店営業(1)一般食堂・レストラン等",
      "address": "豊岡市寿町９－８",
      "lat": 35.546010328,
      "lng": 134.815851848,
      "geocoding_level": 8,
      "phone": "0796245500",
      "license_no": "但馬(豊健)第190-519",
      "license_date": null,
      "expire_date": null
    },
    {
      "name": "お食事自慢　武ちゃん",
      "name_kana": "",
      "business_type": "飲食店営業(1)一般食堂・レストラン等",
      "address": "豊岡市中央町４－２５",
      "lat": 35.544139486,
      "lng": 134.821913482,
      "geocoding_level": 8,
      "phone": "0796245222",
      "license_no": "但馬(豊健)第190-650",
      "license_date": null,
      "expire_date": null
    },
    {
      "name": "餃子の王将　豊岡店",
      "name_kana": "",
      "business_type": "飲食店営業(1)一般食堂・レストラン等",
      "address": "豊岡市中陰６３３－１",
      "lat": 35.551211,
      "lng": 134.808575,
      "geocoding_level": 3,
      "phone": "0796240305",
      "license_no": "但馬(豊健)第190-520",
      "license_date": null,
      "expire_date": null
    },
    {
      "name": "スナック伊達",
      "name_kana": "",
      "business_type": "飲食店営業(4)その他",
      "address": "豊岡市中央町１－２０サファリビル１Ｆ",
      "lat": 35.544979217,
      "lng": 134.819481539,
      "geocoding_level": 8,
      "phone": "0796233927",
      "license_no": "但馬(豊健)第190-607",
      "license_date": null,
      "expire_date": null
    },
    {
      "name": "炭火家らんたん",
      "name_kana": "",
      "business_type": "飲食店営業(1)一般食堂・レストラン等",
      "address": "豊岡市野田字野田９６",
      "lat": 35.552382,
      "lng": 134.81699,
      "geocoding_level": 3,
      "phone": "0796346246",
      "license_no": "但馬(豊健)第190-622",
      "license_date": null,
      "expire_date": null
    },
    {
      "name": "フレッシュバザール豊岡江本店",
      "name_kana": "",
      "business_type": "飲食店営業(2)仕出し屋・弁当屋",
      "address": "豊岡市今森４７２",
      "lat": 35.526289,
      "lng": 134.826621,
      "geocoding_level": 3,
      "phone": "0796249101",
      "license_no": "但馬(豊健)第190-666",
      "license_date": null,
      "expire_date": null
    },
    {
      "name": "沙羅",
      "name_kana": "",
      "business_type": "飲食店営業(4)その他",
      "address": "豊岡市中央町１０－３１",
      "lat": 35.543135666,
      "lng": 134.820162958,
      "geocoding_level": 8,
      "phone": "09079661029",
      "license_no": "但馬(豊健)第190-527",
      "license_date": null,
      "expire_date": null
    },
    {
      "name": "ガスト豊岡店",
      "name_kana": "",
      "business_type": "飲食店営業(1)一般食堂・レストラン等",
      "address": "豊岡市野田１７３－４",
      "lat": 35.552382,
      "lng": 134.81699,
      "geocoding_level": 3,
      "phone": "0796290678",
      "license_no": "但馬(豊健)第190-540",
      "license_date": null,
      "expire_date": null
    },
    {
      "name": "吉野家１７８号線豊岡店",
      "name_kana": "",
      "business_type": "飲食店営業(1)一般食堂・レストラン等",
      "address": "豊岡市下陰字池ノ内５３５－１",
      "lat": 35.558544,
      "lng": 134.806272,
      "geocoding_level": 3,
      "phone": "0796293103",
      "license_no": "但馬(豊健)第190-568",
      "license_date": null,
      "expire_date": null
    },
    {
      "name": "喫茶ろっぽう",
      "name_kana": "",
      "business_type": "飲食店営業(1)一般食堂・レストラン等",
      "address": "豊岡市木内字大坪２３１－１",
      "lat": 35.523709,
      "lng": 134.841603,
      "geocoding_level": 3,
      "phone": "0796228511",
      "license_no": "但馬(豊健)第190-591",
      "license_date": null,
      "expire_date": null
    },
    {
      "name": "肴屋よし乃",
      "name_kana": "",
      "business_type": "飲食店営業(1)一般食堂・レストラン等",
      "address": "豊岡市中央町１－２０１Ｆ",
      "lat": 35.543142,
      "lng": 134.822079,
      "geocoding_level": 3,
      "phone": "0796220550",
      "license_no": "但馬(豊健)第190-598",
      "license_date": null,
      "expire_date": null
    },
    {
      "name": "夢邸",
      "name_kana": "",
      "business_type": "飲食店営業(1)一般食堂・レストラン等",
      "address": "豊岡市野田９６",
      "lat": 35.552382,
      "lng": 134.81699,
      "geocoding_level": 3,
      "phone": "0796247700",
      "license_no": "但馬(豊健)第190-629",
      "license_date": null,
      "expire_date": null
    },
    {
      "name": "金左エ門",
      "name_kana": "",
      "business_type": "飲食店営業(1)一般食堂・レストラン等",
      "address": "豊岡市岩井１０６７",
      "lat": 35.535501611,
      "lng": 134.788713084,
      "geocoding_level": 8,
      "phone": "0796227057",
      "license_no": "但馬(豊健)第190-613",
      "license_date": null,
      "expire_date": null
    },
    {
      "name": "ザグランリゾート城崎",
      "name_kana": "",
      "business_type": "飲食店営業(3)旅館",
      "address": "豊岡市小島１１８８－５",
      "lat": 35.643177,
      "lng": 134.815267,
      "geocoding_level": 3,
      "phone": "0796283205",
      "license_no": "但馬(豊健)第217-508",
      "license_date": null,
      "expire_date": null
    },
    {
      "name": "小島第２荷捌所",
      "name_kana": "",
      "business_type": "魚介類競り売り営業",
      "address": "豊岡市小島地先",
      "lat": 35.643177,
      "lng": 134.815267,
      "geocoding_level": 3,
      "phone": "0796282531",
      "license_no": "但馬(豊健)第215-502",
      "license_date": null,
      "expire_date": null
    },
    {
      "name": "但馬漁業協同組合津居山支所製氷冷蔵工場",
      "name_kana": "",
      "business_type": "氷雪製造業",
      "address": "豊岡市小島地先",
      "lat": 35.643177,
      "lng": 134.815267,
      "geocoding_level": 3,
      "phone": "0796282191",
      "license_no": "但馬(豊健)第194-501",
      "license_date": null,
      "expire_date": null
    },
    {
      "name": "木の実",
      "name_kana": "",
      "business_type": "飲食店営業(1)一般食堂・レストラン等",
      "address": "豊岡市瀬戸２３１",
      "lat": 35.653899,
      "lng": 134.81748,
      "geocoding_level": 3,
      "phone": "0796282084",
      "license_no": "但馬(豊健)第190-601",
      "license_date": null,
      "expire_date": null
    },
    {
      "name": "株式会社カネ貞気比工場",
      "name_kana": "",
      "business_type": "水産製品製造業",
      "address": "豊岡市気比４５９５、４５９６",
      "lat": 35.643948717,
      "lng": 134.831795165,
      "geocoding_level": 8,
      "phone": "0796283377",
      "license_no": "但馬(豊健)第216-516",
      "license_date": null,
      "expire_date": null
    },
    {
      "name": "與兵衛",
      "name_kana": "",
      "business_type": "飲食店営業(3)旅館",
      "address": "豊岡市田結１８３９",
      "lat": 35.645799,
      "lng": 134.85492600000003,
      "geocoding_level": 3,
      "phone": "0796282331",
      "license_no": "但馬(豊健)第217-523",
      "license_date": null,
      "expire_date": null
    },
    {
      "name": "但馬漁業協同組合津居山加工部",
      "name_kana": "",
      "business_type": "水産製品製造業",
      "address": "豊岡市瀬戸７７－２２",
      "lat": 35.653899,
      "lng": 134.81748,
      "geocoding_level": 3,
      "phone": "0796283151",
      "license_no": "但馬(豊健)第216-506",
      "license_date": null,
      "expire_date": null
    },
    {
      "name": "ホテル金波楼",
      "name_kana": "",
      "business_type": "飲食店営業(3)旅館",
      "address": "豊岡市瀬戸１０９０－１",
      "lat": 35.653899,
      "lng": 134.81748,
      "geocoding_level": 3,
      "phone": "0796282111",
      "license_no": "但馬(豊健)第217-504",
      "license_date": null,
      "expire_date": null
    },
    {
      "name": "グリ－ン",
      "name_kana": "",
      "business_type": "飲食店営業(1)一般食堂・レストラン等",
      "address": "豊岡市瀬戸１０９０－１",
      "lat": 35.653899,
      "lng": 134.81748,
      "geocoding_level": 3,
      "phone": "0796282500",
      "license_no": "但馬(豊健)第190-539",
      "license_date": null,
      "expire_date": null
    },
    {
      "name": "いっぷく亭",
      "name_kana": "",
      "business_type": "飲食店営業(1)一般食堂・レストラン等",
      "address": "豊岡市瀬戸１０９０－１",
      "lat": 35.653899,
      "lng": 134.81748,
      "geocoding_level": 3,
      "phone": "0796282111",
      "license_no": "但馬(豊健)第190-538",
      "license_date": null,
      "expire_date": null
    },
    {
      "name": "旅館えの本",
      "name_kana": "",
      "business_type": "飲食店営業(3)旅館",
      "address": "豊岡市田結１８０６－１・２",
      "lat": 35.645799,
      "lng": 134.85492600000003,
      "geocoding_level": 3,
      "phone": "0796282856",
      "license_no": "但馬(豊健)第217-548",
      "license_date": null,
      "expire_date": null
    },
    {
      "name": "株式会社カネ貞",
      "name_kana": "",
      "business_type": "水産製品製造業",
      "address": "豊岡市瀬戸７７－２３",
      "lat": 35.653899,
      "lng": 134.81748,
      "geocoding_level": 3,
      "phone": "0796282663",
      "license_no": "但馬(豊健)第216-517",
      "license_date": null,
      "expire_date": null
    },
    {
      "name": "丸惣水産",
      "name_kana": "",
      "business_type": "水産製品製造業",
      "address": "豊岡市瀬戸９９－５",
      "lat": 35.653899,
      "lng": 134.81748,
      "geocoding_level": 3,
      "phone": "0796283028",
      "license_no": "但馬(豊健)第216-509",
      "license_date": null,
      "expire_date": null
    },
    {
      "name": "但馬漁協　津居山荷捌所",
      "name_kana": "",
      "business_type": "魚介類競り売り営業",
      "address": "豊岡市津居山３１７",
      "lat": 35.652425,
      "lng": 134.83323,
      "geocoding_level": 3,
      "phone": "0796282531",
      "license_no": "但馬(豊健)第215-503",
      "license_date": null,
      "expire_date": null
    },
    {
      "name": "シーランドレストラン",
      "name_kana": "",
      "business_type": "飲食店営業(1)一般食堂・レストラン等",
      "address": "豊岡市瀬戸１０９０",
      "lat": 35.653899,
      "lng": 134.81748,
      "geocoding_level": 3,
      "phone": "0796282500",
      "license_no": "但馬(豊健)第190-513",
      "license_date": null,
      "expire_date": null
    },
    {
      "name": "シーランドカフェ",
      "name_kana": "",
      "business_type": "飲食店営業(4)その他",
      "address": "豊岡市瀬戸１０９０",
      "lat": 35.653899,
      "lng": 134.81748,
      "geocoding_level": 3,
      "phone": "0796282500",
      "license_no": "但馬(豊健)第190-514",
      "license_date": null,
      "expire_date": null
    },
    {
      "name": "川口屋城崎リバーサイドホテル",
      "name_kana": "",
      "business_type": "飲食店営業(3)旅館",
      "address": "豊岡市城崎町湯島８８０－１",
      "lat": 35.631104,
      "lng": 134.789773,
      "geocoding_level": 3,
      "phone": "0796322611",
      "license_no": "但馬(豊健)第217-501",
      "license_date": null,
      "expire_date": null
    },
    {
      "name": "城崎保養所　玄武",
      "name_kana": "",
      "business_type": "飲食店営業(3)旅館",
      "address": "豊岡市城崎町湯島７５",
      "lat": 35.631104,
      "lng": 134.789773,
      "geocoding_level": 3,
      "phone": "0796322631",
      "license_no": "但馬(豊健)第217-522",
      "license_date": null,
      "expire_date": null
    },
    {
      "name": "あさぎり荘",
      "name_kana": "",
      "business_type": "飲食店営業(3)旅館",
      "address": "豊岡市城崎町湯島８７６",
      "lat": 35.631104,
      "lng": 134.789773,
      "geocoding_level": 3,
      "phone": "0796322921",
      "license_no": "但馬(豊健)第217-529",
      "license_date": null,
      "expire_date": null
    },
    {
      "name": "つたや",
      "name_kana": "",
      "business_type": "飲食店営業(3)旅館",
      "address": "豊岡市城崎町湯島４８５",
      "lat": 35.631104,
      "lng": 134.789773,
      "geocoding_level": 3,
      "phone": "0796322511",
      "license_no": "但馬(豊健)第217-516",
      "license_date": null,
      "expire_date": null
    },
    {
      "name": "よしはる旅館",
      "name_kana": "",
      "business_type": "飲食店営業(3)旅館",
      "address": "豊岡市城崎町湯島１８０",
      "lat": 35.631104,
      "lng": 134.789773,
      "geocoding_level": 3,
      "phone": "0796322314",
      "license_no": "但馬(豊健)第217-522",
      "license_date": null,
      "expire_date": null
    },
    {
      "name": "泉都",
      "name_kana": "",
      "business_type": "飲食店営業(3)旅館",
      "address": "豊岡市城崎町湯島５４０",
      "lat": 35.631104,
      "lng": 134.789773,
      "geocoding_level": 3,
      "phone": "0796322521",
      "license_no": "但馬(豊健)第217-548",
      "license_date": null,
      "expire_date": null
    },
    {
      "name": "むつの屋別館",
      "name_kana": "",
      "business_type": "飲食店営業(3)旅館",
      "address": "豊岡市城崎町湯島６５６－２",
      "lat": 35.631104,
      "lng": 134.789773,
      "geocoding_level": 3,
      "phone": "0796323111",
      "license_no": "但馬(豊健)第217-539",
      "license_date": null,
      "expire_date": null
    },
    {
      "name": "新かめや",
      "name_kana": "",
      "business_type": "飲食店営業(3)旅館",
      "address": "豊岡市城崎町湯島２７９",
      "lat": 35.631104,
      "lng": 134.789773,
      "geocoding_level": 3,
      "phone": "0796322421",
      "license_no": "但馬(豊健)第217-544",
      "license_date": null,
      "expire_date": null
    },
    {
      "name": "但馬屋旅館",
      "name_kana": "",
      "business_type": "飲食店営業(3)旅館",
      "address": "豊岡市城崎町湯島４５３",
      "lat": 35.631104,
      "lng": 134.789773,
      "geocoding_level": 3,
      "phone": "0796322626",
      "license_no": "但馬(豊健)第217-513",
      "license_date": null,
      "expire_date": null
    },
    {
      "name": "大和屋",
      "name_kana": "",
      "business_type": "飲食店営業(3)旅館",
      "address": "豊岡市城崎町湯島４２７",
      "lat": 35.631104,
      "lng": 134.789773,
      "geocoding_level": 3,
      "phone": "0796322018",
      "license_no": "但馬(豊健)第183-530",
      "license_date": null,
      "expire_date": null
    },
    {
      "name": "つたや別館玄武荘",
      "name_kana": "",
      "business_type": "飲食店営業(3)旅館",
      "address": "豊岡市城崎町湯島４７０",
      "lat": 35.631104,
      "lng": 134.789773,
      "geocoding_level": 3,
      "phone": "0796322511",
      "license_no": "但馬(豊健)第183-532",
      "license_date": null,
      "expire_date": null
    },
    {
      "name": "幸楽園",
      "name_kana": "",
      "business_type": "飲食店営業(3)旅館",
      "address": "豊岡市城崎町今津５７０－４",
      "lat": 35.618642,
      "lng": 134.796636,
      "geocoding_level": 3,
      "phone": "0796324126",
      "license_no": "但馬(豊健)第183-537",
      "license_date": null,
      "expire_date": null
    },
    {
      "name": "山本屋",
      "name_kana": "",
      "business_type": "飲食店営業(3)旅館",
      "address": "豊岡市城崎町湯島６４３",
      "lat": 35.631104,
      "lng": 134.789773,
      "geocoding_level": 3,
      "phone": "0796322114",
      "license_no": "但馬(豊健)第183-533",
      "license_date": null,
      "expire_date": null
    },
    {
      "name": "みぐみや",
      "name_kana": "",
      "business_type": "飲食店営業(3)旅館",
      "address": "豊岡市城崎町湯島５９８",
      "lat": 35.631104,
      "lng": 134.789773,
      "geocoding_level": 3,
      "phone": "0796322039",
      "license_no": "但馬(豊健)第183-546",
      "license_date": null,
      "expire_date": null
    },
    {
      "name": "つたや晴嵐亭",
      "name_kana": "",
      "business_type": "飲食店営業(3)旅館",
      "address": "豊岡市城崎町湯島１０７５-１外３筆",
      "lat": 35.631104,
      "lng": 134.789773,
      "geocoding_level": 3,
      "phone": "0796322677",
      "license_no": "但馬(豊健)第183-547",
      "license_date": null,
      "expire_date": null
    },
    {
      "name": "つばきの旅館",
      "name_kana": "",
      "business_type": "飲食店営業(3)旅館",
      "address": "豊岡市城崎町湯島７８１",
      "lat": 35.631104,
      "lng": 134.789773,
      "geocoding_level": 3,
      "phone": "0796322131",
      "license_no": "但馬(豊健)第183-545",
      "license_date": null,
      "expire_date": null
    },
    {
      "name": "市松",
      "name_kana": "",
      "business_type": "飲食店営業(3)旅館",
      "address": "豊岡市城崎町湯島２０２",
      "lat": 35.631104,
      "lng": 134.789773,
      "geocoding_level": 3,
      "phone": "0796322808",
      "license_no": "但馬(豊健)第183-543",
      "license_date": null,
      "expire_date": null
    },
    {
      "name": "やなぎ荘別館鶴喜",
      "name_kana": "",
      "business_type": "飲食店営業(3)旅館",
      "address": "豊岡市城崎町湯島７４８－２、７４９－２",
      "lat": 35.631104,
      "lng": 134.789773,
      "geocoding_level": 3,
      "phone": "0796322911",
      "license_no": "但馬(豊健)第183-548",
      "license_date": null,
      "expire_date": null
    },
    {
      "name": "扇屋旅館",
      "name_kana": "",
      "business_type": "飲食店営業(3)旅館",
      "address": "豊岡市城崎町湯島２４３",
      "lat": 35.631104,
      "lng": 134.789773,
      "geocoding_level": 3,
      "phone": "0796322036",
      "license_no": "但馬(豊健)第183-581",
      "license_date": null,
      "expire_date": null
    },
    {
      "name": "しののめ荘",
      "name_kana": "",
      "business_type": "飲食店営業(3)旅館",
      "address": "豊岡市城崎町湯島７５７",
      "lat": 35.631104,
      "lng": 134.789773,
      "geocoding_level": 3,
      "phone": "0796322411",
      "license_no": "但馬(豊健)第183-579",
      "license_date": null,
      "expire_date": null
    },
    {
      "name": "まつや",
      "name_kana": "",
      "business_type": "飲食店営業(3)旅館",
      "address": "豊岡市城崎町湯島３７０",
      "lat": 35.631104,
      "lng": 134.789773,
      "geocoding_level": 3,
      "phone": "0796322134",
      "license_no": "但馬(豊健)第183-583",
      "license_date": null,
      "expire_date": null
    },
    {
      "name": "城崎観光ホテル東山荘",
      "name_kana": "",
      "business_type": "飲食店営業(3)旅館",
      "address": "豊岡市城崎町湯島８３５",
      "lat": 35.631104,
      "lng": 134.789773,
      "geocoding_level": 3,
      "phone": "0796323315",
      "license_no": "但馬(豊健)第183-510",
      "license_date": null,
      "expire_date": null
    },
    {
      "name": "観光旅館ホテルニューオーヒロ",
      "name_kana": "",
      "business_type": "飲食店営業(3)旅館",
      "address": "豊岡市城崎町湯島１６１、１６２、１６３",
      "lat": 35.631104,
      "lng": 134.789773,
      "geocoding_level": 3,
      "phone": "0796323666",
      "license_no": "但馬(豊健)第183-511",
      "license_date": null,
      "expire_date": null
    },
    {
      "name": "ゆとうや旅館",
      "name_kana": "",
      "business_type": "飲食店営業(3)旅館",
      "address": "豊岡市城崎町湯島３７３",
      "lat": 35.631104,
      "lng": 134.789773,
      "geocoding_level": 3,
      "phone": "0796322121",
      "license_no": "但馬(豊健)第217-520",
      "license_date": null,
      "expire_date": null
    },
    {
      "name": "三木屋",
      "name_kana": "",
      "business_type": "飲食店営業(3)旅館",
      "address": "豊岡市城崎町湯島４８７",
      "lat": 35.631104,
      "lng": 134.789773,
      "geocoding_level": 3,
      "phone": "0796322031",
      "license_no": "但馬(豊健)第217-512",
      "license_date": null,
      "expire_date": null
    },
    {
      "name": "小林屋",
      "name_kana": "",
      "business_type": "飲食店営業(3)旅館",
      "address": "豊岡市城崎町湯島３６９",
      "lat": 35.631104,
      "lng": 134.789773,
      "geocoding_level": 3,
      "phone": "0796322424",
      "license_no": "但馬(豊健)第217-526",
      "license_date": null,
      "expire_date": null
    },
    {
      "name": "むつの屋",
      "name_kana": "",
      "business_type": "飲食店営業(3)旅館",
      "address": "豊岡市城崎町湯島６５２",
      "lat": 35.631104,
      "lng": 134.789773,
      "geocoding_level": 3,
      "phone": "0796323111",
      "license_no": "但馬(豊健)第217-511",
      "license_date": null,
      "expire_date": null
    },
    {
      "name": "やなぎ荘",
      "name_kana": "",
      "business_type": "飲食店営業(3)旅館",
      "address": "豊岡市城崎町湯島７０１",
      "lat": 35.631104,
      "lng": 134.789773,
      "geocoding_level": 3,
      "phone": "0796322911",
      "license_no": "但馬(豊健)第217-513",
      "license_date": null,
      "expire_date": null
    },
    {
      "name": "喫茶スコーピオ",
      "name_kana": "",
      "business_type": "飲食店営業(1)一般食堂・レストラン等",
      "address": "豊岡市城崎町湯島５８５",
      "lat": 35.631104,
      "lng": 134.789773,
      "geocoding_level": 3,
      "phone": "0796322853",
      "license_no": "但馬(豊健)第190-603",
      "license_date": null,
      "expire_date": null
    },
    {
      "name": "ふくとみ",
      "name_kana": "",
      "business_type": "飲食店営業(1)一般食堂・レストラン等",
      "address": "豊岡市城崎町湯島３６７",
      "lat": 35.631104,
      "lng": 134.789773,
      "geocoding_level": 3,
      "phone": "0796323043",
      "license_no": "但馬(豊健)第190-626",
      "license_date": null,
      "expire_date": null
    },
    {
      "name": "食堂ほそぐち",
      "name_kana": "",
      "business_type": "飲食店営業(1)一般食堂・レストラン等",
      "address": "豊岡市城崎町湯島９４",
      "lat": 35.631104,
      "lng": 134.789773,
      "geocoding_level": 3,
      "phone": "0796323126",
      "license_no": "但馬(豊健)第190-556",
      "license_date": null,
      "expire_date": null
    },
    {
      "name": "大黒屋",
      "name_kana": "",
      "business_type": "飲食店営業(1)一般食堂・レストラン等",
      "address": "豊岡市城崎町湯島８７",
      "lat": 35.631104,
      "lng": 134.789773,
      "geocoding_level": 3,
      "phone": "0796322728",
      "license_no": "但馬(豊健)第190-533",
      "license_date": null,
      "expire_date": null
    },
    {
      "name": "喫茶ゆしま",
      "name_kana": "",
      "business_type": "飲食店営業(1)一般食堂・レストラン等",
      "address": "豊岡市城崎町湯島１０９",
      "lat": 35.631104,
      "lng": 134.789773,
      "geocoding_level": 3,
      "phone": "0796322116",
      "license_no": "但馬(豊健)第190-534",
      "license_date": null,
      "expire_date": null
    },
    {
      "name": "坂田香泉堂",
      "name_kana": "",
      "business_type": "菓子製造業",
      "address": "豊岡市城崎町湯島９３７",
      "lat": 35.631104,
      "lng": 134.789773,
      "geocoding_level": 3,
      "phone": "0796322805",
      "license_no": "但馬(豊健)第152-521",
      "license_date": null,
      "expire_date": null
    },
    {
      "name": "㈲みなとや商店",
      "name_kana": "",
      "business_type": "菓子製造業",
      "address": "豊岡市城崎町湯島６２５",
      "lat": 35.631104,
      "lng": 134.789773,
      "geocoding_level": 3,
      "phone": "0796322266",
      "license_no": "但馬(豊健)第192-506",
      "license_date": null,
      "expire_date": null
    },
    {
      "name": "とうふ処　はせがわ",
      "name_kana": "",
      "business_type": "豆腐製造業",
      "address": "豊岡市城崎町湯島１６８",
      "lat": 35.631104,
      "lng": 134.789773,
      "geocoding_level": 3,
      "phone": "0796322769",
      "license_no": "但馬(豊健)第201-501",
      "license_date": null,
      "expire_date": null
    },
    {
      "name": "マルサン精肉店",
      "name_kana": "",
      "business_type": "食肉販売業",
      "address": "豊岡市城崎町湯島６９３",
      "lat": 35.631104,
      "lng": 134.789773,
      "geocoding_level": 3,
      "phone": "0796322288",
      "license_no": "但馬(豊健)第176-509",
      "license_date": null,
      "expire_date": null
    },
    {
      "name": "海中苑",
      "name_kana": "",
      "business_type": "飲食店営業(1)一般食堂・レストラン等",
      "address": "豊岡市城崎町湯島１３２",
      "lat": 35.631104,
      "lng": 134.789773,
      "geocoding_level": 3,
      "phone": "0796324522",
      "license_no": "但馬(豊健)第190-531",
      "license_date": null,
      "expire_date": null
    },
    {
      "name": "森津屋",
      "name_kana": "",
      "business_type": "飲食店営業(3)旅館",
      "address": "豊岡市城崎町湯島４１７",
      "lat": 35.631104,
      "lng": 134.789773,
      "geocoding_level": 3,
      "phone": "0796322106",
      "license_no": "但馬(豊健)第217-543",
      "license_date": null,
      "expire_date": null
    },
    {
      "name": "湯都里",
      "name_kana": "",
      "business_type": "飲食店営業(4)その他",
      "address": "豊岡市城崎町湯島４３５",
      "lat": 35.631104,
      "lng": 134.789773,
      "geocoding_level": 3,
      "phone": "0796322757",
      "license_no": "但馬(豊健)第190-589",
      "license_date": null,
      "expire_date": null
    },
    {
      "name": "エルベ",
      "name_kana": "",
      "business_type": "飲食店営業(1)一般食堂・レストラン等",
      "address": "豊岡市城崎町湯島１１３",
      "lat": 35.631104,
      "lng": 134.789773,
      "geocoding_level": 3,
      "phone": "0796322818",
      "license_no": "但馬(豊健)第190-598",
      "license_date": null,
      "expire_date": null
    },
    {
      "name": "炭火串焼ふじ",
      "name_kana": "",
      "business_type": "飲食店営業(1)一般食堂・レストラン等",
      "address": "豊岡市城崎町湯島５２４",
      "lat": 35.631104,
      "lng": 134.789773,
      "geocoding_level": 3,
      "phone": "0796322380",
      "license_no": "但馬(豊健)第190-574",
      "license_date": null,
      "expire_date": null
    },
    {
      "name": "泉山鮮魚店",
      "name_kana": "",
      "business_type": "魚介類販売業",
      "address": "豊岡市城崎町湯島１１２",
      "lat": 35.631104,
      "lng": 134.789773,
      "geocoding_level": 3,
      "phone": "0796323671",
      "license_no": "但馬(豊健)第214-509",
      "license_date": null,
      "expire_date": null
    },
    {
      "name": "川口屋本館",
      "name_kana": "",
      "business_type": "飲食店営業(3)旅館",
      "address": "豊岡市城崎町湯島２７３　外７筆",
      "lat": 35.631104,
      "lng": 134.789773,
      "geocoding_level": 3,
      "phone": "0796322914",
      "license_no": "但馬(豊健)第217-515",
      "license_date": null,
      "expire_date": null
    },
    {
      "name": "形野商店",
      "name_kana": "",
      "business_type": "魚介類販売業",
      "address": "豊岡市城崎町湯島４５６",
      "lat": 35.631104,
      "lng": 134.789773,
      "geocoding_level": 3,
      "phone": "0796322249",
      "license_no": "但馬(豊健)第214-505",
      "license_date": null,
      "expire_date": null
    },
    {
      "name": "スナック綾",
      "name_kana": "",
      "business_type": "飲食店営業(4)その他",
      "address": "豊岡市城崎町湯島６６０－５",
      "lat": 35.631104,
      "lng": 134.789773,
      "geocoding_level": 3,
      "phone": "0796324426",
      "license_no": "但馬(豊健)第190-580",
      "license_date": null,
      "expire_date": null
    },
    {
      "name": "旅館山よし",
      "name_kana": "",
      "business_type": "飲食店営業(3)旅館",
      "address": "豊岡市城崎町湯島３７９",
      "lat": 35.631104,
      "lng": 134.789773,
      "geocoding_level": 3,
      "phone": "0796323363",
      "license_no": "但馬(豊健)第217-542",
      "license_date": null,
      "expire_date": null
    },
    {
      "name": "チャイナ",
      "name_kana": "",
      "business_type": "飲食店営業(1)一般食堂・レストラン等",
      "address": "豊岡市城崎町湯島７８３",
      "lat": 35.631104,
      "lng": 134.789773,
      "geocoding_level": 3,
      "phone": "0796324122",
      "license_no": "但馬(豊健)第150-594",
      "license_date": null,
      "expire_date": null
    },
    {
      "name": "月本屋旅館",
      "name_kana": "",
      "business_type": "飲食店営業(3)旅館",
      "address": "豊岡市城崎町湯島７１０－１",
      "lat": 35.631104,
      "lng": 134.789773,
      "geocoding_level": 3,
      "phone": "0796323121",
      "license_no": "但馬(豊健)第183-544",
      "license_date": null,
      "expire_date": null
    },
    {
      "name": "千年の湯　古まん",
      "name_kana": "",
      "business_type": "飲食店営業(3)旅館",
      "address": "豊岡市城崎町湯島４８１",
      "lat": 35.631104,
      "lng": 134.789773,
      "geocoding_level": 3,
      "phone": "0796322331",
      "license_no": "但馬(豊健)第183-582",
      "license_date": null,
      "expire_date": null
    },
    {
      "name": "一葉",
      "name_kana": "",
      "business_type": "飲食店営業(1)一般食堂・レストラン等",
      "address": "豊岡市城崎町湯島１０１６－２",
      "lat": 35.631104,
      "lng": 134.789773,
      "geocoding_level": 3,
      "phone": "0796323831",
      "license_no": "但馬(豊健)第190-569",
      "license_date": null,
      "expire_date": null
    },
    {
      "name": "百花",
      "name_kana": "",
      "business_type": "飲食店営業(4)その他",
      "address": "豊岡市城崎町湯島１０１６－２",
      "lat": 35.631104,
      "lng": 134.789773,
      "geocoding_level": 3,
      "phone": "",
      "license_no": "但馬(豊健)第190-588",
      "license_date": null,
      "expire_date": null
    },
    {
      "name": "つちや本館",
      "name_kana": "",
      "business_type": "飲食店営業(3)旅館",
      "address": "豊岡市城崎町湯島字湯の元５７３",
      "lat": 35.631104,
      "lng": 134.789773,
      "geocoding_level": 3,
      "phone": "0796322045",
      "license_no": "但馬(豊健)第217-545",
      "license_date": null,
      "expire_date": null
    },
    {
      "name": "旅館白山",
      "name_kana": "",
      "business_type": "飲食店営業(3)旅館",
      "address": "豊岡市城崎町今津字家ノ下５４８－１他４筆",
      "lat": 35.618642,
      "lng": 134.796636,
      "geocoding_level": 3,
      "phone": "0796323404",
      "license_no": "但馬(豊健)第217-559",
      "license_date": null,
      "expire_date": null
    },
    {
      "name": "里山の四季",
      "name_kana": "",
      "business_type": "飲食店営業(3)旅館",
      "address": "豊岡市城崎町今津字木ノ下４１９",
      "lat": 35.618642,
      "lng": 134.796636,
      "geocoding_level": 3,
      "phone": "0796323404",
      "license_no": "但馬(豊健)第217-558",
      "license_date": null,
      "expire_date": null
    },
    {
      "name": "三国屋",
      "name_kana": "",
      "business_type": "飲食店営業(3)旅館",
      "address": "豊岡市城崎町湯島２２１",
      "lat": 35.631104,
      "lng": 134.789773,
      "geocoding_level": 3,
      "phone": "0796322414",
      "license_no": "但馬(豊健)第217-501",
      "license_date": null,
      "expire_date": null
    },
    {
      "name": "西村屋ホテル招月庭",
      "name_kana": "",
      "business_type": "飲食店営業(3)旅館",
      "address": "豊岡市城崎町湯島１０１６－２・１０３０",
      "lat": 35.631104,
      "lng": 134.789773,
      "geocoding_level": 3,
      "phone": "0796323535",
      "license_no": "但馬(豊健)第217-508",
      "license_date": null,
      "expire_date": null
    },
    {
      "name": "はせがわ",
      "name_kana": "",
      "business_type": "菓子製造業",
      "address": "豊岡市城崎町湯島１６８",
      "lat": 35.631104,
      "lng": 134.789773,
      "geocoding_level": 3,
      "phone": "0796322769",
      "license_no": "但馬(豊健)第192-509",
      "license_date": null,
      "expire_date": null
    },
    {
      "name": "すけ六",
      "name_kana": "",
      "business_type": "飲食店営業(1)一般食堂・レストラン等",
      "address": "豊岡市城崎町湯島字柳６６０－４",
      "lat": 35.631104,
      "lng": 134.789773,
      "geocoding_level": 3,
      "phone": "0796322487",
      "license_no": "但馬(豊健)第190-568",
      "license_date": null,
      "expire_date": null
    },
    {
      "name": "緑風閣",
      "name_kana": "",
      "business_type": "飲食店営業(3)旅館",
      "address": "豊岡市城崎町湯島１７４",
      "lat": 35.631104,
      "lng": 134.789773,
      "geocoding_level": 3,
      "phone": "0796322834",
      "license_no": "但馬(豊健)第217-544",
      "license_date": null,
      "expire_date": null
    },
    {
      "name": "深山",
      "name_kana": "",
      "business_type": "飲食店営業(3)旅館",
      "address": "豊岡市城崎町湯島１０１１",
      "lat": 35.631104,
      "lng": 134.789773,
      "geocoding_level": 3,
      "phone": "0796322855",
      "license_no": "但馬(豊健)第183-541",
      "license_date": null,
      "expire_date": null
    },
    {
      "name": "㈱おけしょう鮮魚",
      "name_kana": "",
      "business_type": "魚介類販売業",
      "address": "豊岡市城崎町湯島１３２",
      "lat": 35.631104,
      "lng": 134.789773,
      "geocoding_level": 3,
      "phone": "0796324522",
      "license_no": "但馬(豊健)第178-524",
      "license_date": null,
      "expire_date": null
    },
    {
      "name": "㈱おけしょう鮮魚",
      "name_kana": "",
      "business_type": "飲食店営業(4)その他",
      "address": "豊岡市城崎町湯島１３２",
      "lat": 35.631104,
      "lng": 134.789773,
      "geocoding_level": 3,
      "phone": "0796324522",
      "license_no": "但馬(豊健)第150-631",
      "license_date": null,
      "expire_date": null
    },
    {
      "name": "山の家",
      "name_kana": "",
      "business_type": "飲食店営業(1)一般食堂・レストラン等",
      "address": "豊岡市城崎町桃島８５－３",
      "lat": 35.637539,
      "lng": 134.80246,
      "geocoding_level": 3,
      "phone": "0796323661",
      "license_no": "但馬(豊健)第190-550",
      "license_date": null,
      "expire_date": null
    },
    {
      "name": "茶房　夢屋",
      "name_kana": "",
      "business_type": "飲食店営業(1)一般食堂・レストラン等",
      "address": "豊岡市城崎町湯島９０",
      "lat": 35.631104,
      "lng": 134.789773,
      "geocoding_level": 3,
      "phone": "0796294015",
      "license_no": "但馬(豊健)第190-547",
      "license_date": null,
      "expire_date": null
    },
    {
      "name": "西村屋本館",
      "name_kana": "",
      "business_type": "飲食店営業(3)旅館",
      "address": "豊岡市城崎町湯島４６９",
      "lat": 35.631104,
      "lng": 134.789773,
      "geocoding_level": 3,
      "phone": "0796323535",
      "license_no": "但馬(豊健)第217-514",
      "license_date": null,
      "expire_date": null
    },
    {
      "name": "株式会社岸本総合商事",
      "name_kana": "",
      "business_type": "水産製品製造業",
      "address": "豊岡市城崎町湯島８６７",
      "lat": 35.631104,
      "lng": 134.789773,
      "geocoding_level": 3,
      "phone": "0796324054",
      "license_no": "但馬(豊健)第216-519",
      "license_date": null,
      "expire_date": null
    },
    {
      "name": "ときわ別館",
      "name_kana": "",
      "business_type": "飲食店営業(3)旅館",
      "address": "豊岡市城崎町湯島１０１３",
      "lat": 35.631104,
      "lng": 134.789773,
      "geocoding_level": 3,
      "phone": "0796322814",
      "license_no": "但馬(豊健)第217-531",
      "license_date": null,
      "expire_date": null
    },
    {
      "name": "城崎ビール&ダイニング グビガブ",
      "name_kana": "",
      "business_type": "酒類製造業",
      "address": "豊岡市城崎町来日１２８",
      "lat": 35.604102,
      "lng": 134.787058,
      "geocoding_level": 3,
      "phone": "0796324595",
      "license_no": "但馬(豊健)第200-501",
      "license_date": null,
      "expire_date": null
    },
    {
      "name": "こ夢",
      "name_kana": "",
      "business_type": "飲食店営業(1)一般食堂・レストラン等",
      "address": "豊岡市城崎町湯島６９１",
      "lat": 35.631104,
      "lng": 134.789773,
      "geocoding_level": 3,
      "phone": "0796322695",
      "license_no": "但馬(豊健)第190-501",
      "license_date": null,
      "expire_date": null
    },
    {
      "name": "天望苑",
      "name_kana": "",
      "business_type": "飲食店営業(3)旅館",
      "address": "豊岡市城崎町桃島８５－３",
      "lat": 35.637539,
      "lng": 134.80246,
      "geocoding_level": 3,
      "phone": "0796323661",
      "license_no": "但馬(豊健)第217-509",
      "license_date": null,
      "expire_date": null
    },
    {
      "name": "うえむら",
      "name_kana": "",
      "business_type": "飲食店営業(1)一般食堂・レストラン等",
      "address": "豊岡市城崎町湯島８８",
      "lat": 35.631104,
      "lng": 134.789773,
      "geocoding_level": 3,
      "phone": "0796323886",
      "license_no": "但馬(豊健)第190-614",
      "license_date": null,
      "expire_date": null
    },
    {
      "name": "山本屋",
      "name_kana": "",
      "business_type": "飲食店営業(4)その他",
      "address": "豊岡市城崎町湯島６４３",
      "lat": 35.631104,
      "lng": 134.789773,
      "geocoding_level": 3,
      "phone": "0796322114",
      "license_no": "但馬(豊健)第190-533",
      "license_date": null,
      "expire_date": null
    },
    {
      "name": "温もりの宿　おけ庄",
      "name_kana": "",
      "business_type": "飲食店営業(3)旅館",
      "address": "豊岡市城崎町湯島２４６",
      "lat": 35.631104,
      "lng": 134.789773,
      "geocoding_level": 3,
      "phone": "0796322058",
      "license_no": "但馬(豊健)第217-532",
      "license_date": null,
      "expire_date": null
    },
    {
      "name": "美食遊楽とみや",
      "name_kana": "",
      "business_type": "飲食店営業(1)一般食堂・レストラン等",
      "address": "豊岡市城崎町湯島４４１",
      "lat": 35.631104,
      "lng": 134.789773,
      "geocoding_level": 3,
      "phone": "0796322703",
      "license_no": "但馬(豊健)第190-633",
      "license_date": null,
      "expire_date": null
    },
    {
      "name": "小さなお宿芹",
      "name_kana": "",
      "business_type": "飲食店営業(3)旅館",
      "address": "豊岡市城崎町桃島字桃山澤１２９７－１",
      "lat": 35.637539,
      "lng": 134.80246,
      "geocoding_level": 3,
      "phone": "0796323368",
      "license_no": "但馬(豊健)第217-549",
      "license_date": null,
      "expire_date": null
    },
    {
      "name": "奥城崎シーサイドホテル",
      "name_kana": "",
      "business_type": "飲食店営業(3)旅館",
      "address": "豊岡市竹野町竹野４",
      "lat": 35.65647,
      "lng": 134.767125,
      "geocoding_level": 3,
      "phone": "0796470666",
      "license_no": "但馬(豊健)第217-518",
      "license_date": null,
      "expire_date": null
    },
    {
      "name": "きらく",
      "name_kana": "",
      "business_type": "飲食店営業(3)旅館",
      "address": "豊岡市竹野町竹野７２３",
      "lat": 35.65647,
      "lng": 134.767125,
      "geocoding_level": 3,
      "phone": "0796471140",
      "license_no": "但馬(豊健)第217-536",
      "license_date": null,
      "expire_date": null
    },
    {
      "name": "ハウス海の子",
      "name_kana": "",
      "business_type": "飲食店営業(3)旅館",
      "address": "豊岡市竹野町竹野６０３",
      "lat": 35.65647,
      "lng": 134.767125,
      "geocoding_level": 3,
      "phone": "0796470139",
      "license_no": "但馬(豊健)第217-511",
      "license_date": null,
      "expire_date": null
    },
    {
      "name": "ふじや",
      "name_kana": "",
      "business_type": "飲食店営業(3)旅館",
      "address": "豊岡市竹野町竹野１５５",
      "lat": 35.65647,
      "lng": 134.767125,
      "geocoding_level": 3,
      "phone": "0796470298",
      "license_no": "但馬(豊健)第217-535",
      "license_date": null,
      "expire_date": null
    },
    {
      "name": "はまや",
      "name_kana": "",
      "business_type": "飲食店営業(3)旅館",
      "address": "豊岡市竹野町竹野１７外５",
      "lat": 35.65647,
      "lng": 134.767125,
      "geocoding_level": 3,
      "phone": "0796470028",
      "license_no": "但馬(豊健)第183-523",
      "license_date": null,
      "expire_date": null
    },
    {
      "name": "園",
      "name_kana": "",
      "business_type": "飲食店営業(3)旅館",
      "address": "豊岡市竹野町竹野６３３－２",
      "lat": 35.65647,
      "lng": 134.767125,
      "geocoding_level": 3,
      "phone": "0796470643",
      "license_no": "但馬(豊健)第183-592",
      "license_date": null,
      "expire_date": null
    },
    {
      "name": "惣助",
      "name_kana": "",
      "business_type": "飲食店営業(3)旅館",
      "address": "豊岡市竹野町竹野１８４",
      "lat": 35.65647,
      "lng": 134.767125,
      "geocoding_level": 3,
      "phone": "0796470362",
      "license_no": "但馬(豊健)第183-526",
      "license_date": null,
      "expire_date": null
    },
    {
      "name": "長治郎",
      "name_kana": "",
      "business_type": "飲食店営業(3)旅館",
      "address": "豊岡市竹野町竹野２８６－１",
      "lat": 35.65647,
      "lng": 134.767125,
      "geocoding_level": 3,
      "phone": "0796470483",
      "license_no": "但馬(豊健)第217-508",
      "license_date": null,
      "expire_date": null
    },
    {
      "name": "大栄",
      "name_kana": "",
      "business_type": "飲食店営業(3)旅館",
      "address": "豊岡市竹野町竹野６５４－１",
      "lat": 35.65647,
      "lng": 134.767125,
      "geocoding_level": 3,
      "phone": "0796470479",
      "license_no": "但馬(豊健)第217-507",
      "license_date": null,
      "expire_date": null
    },
    {
      "name": "株式会社　但馬中髙年者厚生事業団",
      "name_kana": "",
      "business_type": "水産製品製造業",
      "address": "豊岡市竹野町竹野１２１５",
      "lat": 35.65647,
      "lng": 134.767125,
      "geocoding_level": 3,
      "phone": "0796471410",
      "license_no": "但馬(豊健)第216-511",
      "license_date": null,
      "expire_date": null
    },
    {
      "name": "みぞぐち",
      "name_kana": "",
      "business_type": "飲食店営業(3)旅館",
      "address": "豊岡市竹野町竹野１０１－１",
      "lat": 35.65647,
      "lng": 134.767125,
      "geocoding_level": 3,
      "phone": "0796470750",
      "license_no": "但馬(豊健)第183-524",
      "license_date": null,
      "expire_date": null
    },
    {
      "name": "かどの",
      "name_kana": "",
      "business_type": "飲食店営業(3)旅館",
      "address": "豊岡市竹野町竹野１５５６－２",
      "lat": 35.65647,
      "lng": 134.767125,
      "geocoding_level": 3,
      "phone": "0796470696",
      "license_no": "但馬(豊健)第217-525",
      "license_date": null,
      "expire_date": null
    },
    {
      "name": "亀正",
      "name_kana": "",
      "business_type": "飲食店営業(3)旅館",
      "address": "豊岡市竹野町竹野５－９",
      "lat": 35.65647,
      "lng": 134.767125,
      "geocoding_level": 3,
      "phone": "0796470214",
      "license_no": "但馬(豊健)第217-520",
      "license_date": null,
      "expire_date": null
    },
    {
      "name": "海路",
      "name_kana": "",
      "business_type": "飲食店営業(3)旅館",
      "address": "豊岡市竹野町竹野３７４",
      "lat": 35.65647,
      "lng": 134.767125,
      "geocoding_level": 3,
      "phone": "0796471056",
      "license_no": "但馬(豊健)第217-533",
      "license_date": null,
      "expire_date": null
    },
    {
      "name": "えのもと屋",
      "name_kana": "",
      "business_type": "飲食店営業(3)旅館",
      "address": "豊岡市竹野町竹野６４２",
      "lat": 35.65647,
      "lng": 134.767125,
      "geocoding_level": 3,
      "phone": "0796470774",
      "license_no": "但馬(豊健)第217-506",
      "license_date": null,
      "expire_date": null
    },
    {
      "name": "シーサイドホテル・ビ－チショップ",
      "name_kana": "",
      "business_type": "飲食店営業(4)その他",
      "address": "豊岡市竹野町竹野字賀嶋４",
      "lat": 35.65647,
      "lng": 134.767125,
      "geocoding_level": 3,
      "phone": "0796470666",
      "license_no": "但馬(豊健)第190-547",
      "license_date": null,
      "expire_date": null
    },
    {
      "name": "福田屋",
      "name_kana": "",
      "business_type": "飲食店営業(3)旅館",
      "address": "豊岡市竹野町竹野字上町４１６－１",
      "lat": 35.65647,
      "lng": 134.767125,
      "geocoding_level": 3,
      "phone": "0796470360",
      "license_no": "但馬(豊健)第217-522",
      "license_date": null,
      "expire_date": null
    },
    {
      "name": "なにわ",
      "name_kana": "",
      "business_type": "飲食店営業(3)旅館",
      "address": "豊岡市竹野町竹野７５３－２",
      "lat": 35.65647,
      "lng": 134.767125,
      "geocoding_level": 3,
      "phone": "0796470791",
      "license_no": "但馬(豊健)第183-525",
      "license_date": null,
      "expire_date": null
    },
    {
      "name": "日の出屋",
      "name_kana": "",
      "business_type": "飲食店営業(4)その他",
      "address": "豊岡市竹野町竹野浜",
      "lat": 35.65647,
      "lng": 134.767125,
      "geocoding_level": 3,
      "phone": "0796471060",
      "license_no": "但馬(豊健)第190-549",
      "license_date": null,
      "expire_date": null
    },
    {
      "name": "むらなか",
      "name_kana": "",
      "business_type": "飲食店営業(3)旅館",
      "address": "豊岡市竹野町竹野６１９",
      "lat": 35.65647,
      "lng": 134.767125,
      "geocoding_level": 3,
      "phone": "0796471055",
      "license_no": "但馬(豊健)第183-513",
      "license_date": null,
      "expire_date": null
    },
    {
      "name": "㈲花房商店",
      "name_kana": "",
      "business_type": "醤油製造業",
      "address": "豊岡市竹野町竹野２３１",
      "lat": 35.65647,
      "lng": 134.767125,
      "geocoding_level": 3,
      "phone": "0796470003",
      "license_no": "但馬(豊健)第161-501",
      "license_date": null,
      "expire_date": null
    },
    {
      "name": "京しぼり",
      "name_kana": "",
      "business_type": "飲食店営業(1)一般食堂・レストラン等",
      "address": "豊岡市竹野町竹野１５１１",
      "lat": 35.65647,
      "lng": 134.767125,
      "geocoding_level": 3,
      "phone": "",
      "license_no": "但馬(豊健)第190-574",
      "license_date": null,
      "expire_date": null
    },
    {
      "name": "ちどり別館",
      "name_kana": "",
      "business_type": "飲食店営業(3)旅館",
      "address": "豊岡市竹野町竹野字下町５０５－３",
      "lat": 35.65647,
      "lng": 134.767125,
      "geocoding_level": 3,
      "phone": "0796470305",
      "license_no": "但馬(豊健)第217-519",
      "license_date": null,
      "expire_date": null
    },
    {
      "name": "Ｓｅａ　Ｐｏｉｎｔ",
      "name_kana": "",
      "business_type": "飲食店営業(1)一般食堂・レストラン等",
      "address": "豊岡市竹野町浜須井３－１",
      "lat": 35.654864,
      "lng": 134.735453,
      "geocoding_level": 3,
      "phone": "0796471074",
      "license_no": "但馬(豊健)第190-563",
      "license_date": null,
      "expire_date": null
    },
    {
      "name": "城崎カンツリークラブ",
      "name_kana": "",
      "business_type": "飲食店営業(1)一般食堂・レストラン等",
      "address": "豊岡市竹野町田久日４８４－４",
      "lat": 35.66182700000001,
      "lng": 134.803775,
      "geocoding_level": 3,
      "phone": "0796282400",
      "license_no": "但馬(豊健)第190-525",
      "license_date": null,
      "expire_date": null
    },
    {
      "name": "かみさき",
      "name_kana": "",
      "business_type": "飲食店営業(3)旅館",
      "address": "豊岡市竹野町竹野１７－７",
      "lat": 35.65647,
      "lng": 134.767125,
      "geocoding_level": 3,
      "phone": "0796472768",
      "license_no": "但馬(豊健)第217-509",
      "license_date": null,
      "expire_date": null
    },
    {
      "name": "ロボタン",
      "name_kana": "",
      "business_type": "飲食店営業(4)その他",
      "address": "豊岡市竹野町竹野浜",
      "lat": 35.65647,
      "lng": 134.767125,
      "geocoding_level": 3,
      "phone": "0796470367",
      "license_no": "但馬(豊健)第190-552",
      "license_date": null,
      "expire_date": null
    },
    {
      "name": "久兵衛",
      "name_kana": "",
      "business_type": "飲食店営業(3)旅館",
      "address": "豊岡市竹野町竹野３９０－１",
      "lat": 35.65647,
      "lng": 134.767125,
      "geocoding_level": 3,
      "phone": "0796470128",
      "license_no": "但馬(豊健)第217-523",
      "license_date": null,
      "expire_date": null
    },
    {
      "name": "ふる里",
      "name_kana": "",
      "business_type": "飲食店営業(1)一般食堂・レストラン等",
      "address": "豊岡市竹野町椒８６４",
      "lat": 35.532483,
      "lng": 134.699419,
      "geocoding_level": 3,
      "phone": "0796480435",
      "license_no": "但馬(豊健)第150-634",
      "license_date": null,
      "expire_date": null
    },
    {
      "name": "江んや",
      "name_kana": "",
      "business_type": "飲食店営業(3)旅館",
      "address": "豊岡市竹野町竹野５０５－１６他３筆",
      "lat": 35.65647,
      "lng": 134.767125,
      "geocoding_level": 3,
      "phone": "0796470155",
      "license_no": "但馬(豊健)第217-552",
      "license_date": null,
      "expire_date": null
    },
    {
      "name": "旅館かしま",
      "name_kana": "",
      "business_type": "飲食店営業(3)旅館",
      "address": "豊岡市竹野町竹野４",
      "lat": 35.65647,
      "lng": 134.767125,
      "geocoding_level": 3,
      "phone": "0796470255",
      "license_no": "但馬(豊健)第217-520",
      "license_date": null,
      "expire_date": null
    },
    {
      "name": "かごしま亭",
      "name_kana": "",
      "business_type": "飲食店営業(4)その他",
      "address": "豊岡市竹野町竹野浜",
      "lat": 35.65647,
      "lng": 134.767125,
      "geocoding_level": 3,
      "phone": "",
      "license_no": "但馬(豊健)第190-548",
      "license_date": null,
      "expire_date": null
    },
    {
      "name": "たまりば",
      "name_kana": "",
      "business_type": "飲食店営業(4)その他",
      "address": "豊岡市竹野町竹野竹野浜",
      "lat": 35.65647,
      "lng": 134.767125,
      "geocoding_level": 3,
      "phone": "",
      "license_no": "但馬(豊健)第190-575",
      "license_date": null,
      "expire_date": null
    },
    {
      "name": "よどや",
      "name_kana": "",
      "business_type": "飲食店営業(3)旅館",
      "address": "豊岡市竹野町切浜６２１－２",
      "lat": 35.657308,
      "lng": 134.744676,
      "geocoding_level": 3,
      "phone": "0796471434",
      "license_no": "但馬(豊健)第217-514",
      "license_date": null,
      "expire_date": null
    },
    {
      "name": "日の出荘",
      "name_kana": "",
      "business_type": "飲食店営業(3)旅館",
      "address": "豊岡市竹野町竹野３００８",
      "lat": 35.65647,
      "lng": 134.767125,
      "geocoding_level": 3,
      "phone": "0796470217",
      "license_no": "但馬(豊健)第217-515",
      "license_date": null,
      "expire_date": null
    },
    {
      "name": "ぶりぜん",
      "name_kana": "",
      "business_type": "魚介類販売業",
      "address": "豊岡市竹野町竹野４１４",
      "lat": 35.65647,
      "lng": 134.767125,
      "geocoding_level": 3,
      "phone": "0796470862",
      "license_no": "但馬(豊健)第214-513",
      "license_date": null,
      "expire_date": null
    },
    {
      "name": "ぶりぜん",
      "name_kana": "",
      "business_type": "飲食店営業(4)その他",
      "address": "豊岡市竹野町竹野４１４",
      "lat": 35.65647,
      "lng": 134.767125,
      "geocoding_level": 3,
      "phone": "0796470862",
      "license_no": "但馬(豊健)第190-626",
      "license_date": null,
      "expire_date": null
    },
    {
      "name": "よどや",
      "name_kana": "",
      "business_type": "魚介類販売業",
      "address": "豊岡市竹野町切浜６２１－２",
      "lat": 35.657308,
      "lng": 134.744676,
      "geocoding_level": 3,
      "phone": "0796471434",
      "license_no": "但馬(豊健)第214-510",
      "license_date": null,
      "expire_date": null
    },
    {
      "name": "ふじわら",
      "name_kana": "",
      "business_type": "飲食店営業(3)旅館",
      "address": "豊岡市竹野町切浜９６８",
      "lat": 35.657308,
      "lng": 134.744676,
      "geocoding_level": 3,
      "phone": "0796472321",
      "license_no": "但馬(豊健)第217-553",
      "license_date": null,
      "expire_date": null
    },
    {
      "name": "北野屋",
      "name_kana": "",
      "business_type": "菓子製造業",
      "address": "豊岡市竹野町三原５８３",
      "lat": 35.538515,
      "lng": 134.661854,
      "geocoding_level": 3,
      "phone": "0796480714",
      "license_no": "但馬(豊健)第192-505",
      "license_date": null,
      "expire_date": null
    },
    {
      "name": "きらく別館",
      "name_kana": "",
      "business_type": "飲食店営業(3)旅館",
      "address": "豊岡市竹野町竹野１６０－１",
      "lat": 35.65647,
      "lng": 134.767125,
      "geocoding_level": 3,
      "phone": "0796471140",
      "license_no": "但馬(豊健)第217-519",
      "license_date": null,
      "expire_date": null
    },
    {
      "name": "「山の季」きゃら",
      "name_kana": "",
      "business_type": "飲食店営業(3)旅館",
      "address": "豊岡市竹野町椒字堀１８８３",
      "lat": 35.532483,
      "lng": 134.699419,
      "geocoding_level": 3,
      "phone": "0796480505",
      "license_no": "但馬(豊健)第217-538",
      "license_date": null,
      "expire_date": null
    },
    {
      "name": "よしみ",
      "name_kana": "",
      "business_type": "飲食店営業(4)その他",
      "address": "豊岡市竹野町竹野３００９－２",
      "lat": 35.65647,
      "lng": 134.767125,
      "geocoding_level": 3,
      "phone": "0796471085",
      "license_no": "但馬(豊健)第190-615",
      "license_date": null,
      "expire_date": null
    },
    {
      "name": "鱒之荘",
      "name_kana": "",
      "business_type": "飲食店営業(3)旅館",
      "address": "豊岡市日高町十戸３１３",
      "lat": 35.478617,
      "lng": 134.723751,
      "geocoding_level": 3,
      "phone": "0796440226",
      "license_no": "但馬(豊健)第217-530",
      "license_date": null,
      "expire_date": null
    },
    {
      "name": "阿瀬",
      "name_kana": "",
      "business_type": "飲食店営業(3)旅館",
      "address": "豊岡市日高町羽尻字上ノ山１０３",
      "lat": 35.454006,
      "lng": 134.664775,
      "geocoding_level": 3,
      "phone": "0796440723",
      "license_no": "但馬(豊健)第183-593",
      "license_date": null,
      "expire_date": null
    },
    {
      "name": "協同組合　お弁当こうのとりの里",
      "name_kana": "",
      "business_type": "飲食店営業(2)仕出し屋・弁当屋",
      "address": "豊岡市日高町岩中１２０－２",
      "lat": 35.4606,
      "lng": 134.769373,
      "geocoding_level": 3,
      "phone": "0796420260",
      "license_no": "但馬(豊健)第190-555",
      "license_date": null,
      "expire_date": null
    },
    {
      "name": "食べ処　ペガサス",
      "name_kana": "",
      "business_type": "飲食店営業(1)一般食堂・レストラン等",
      "address": "豊岡市日高町十戸滝ノ尻１１８－４",
      "lat": 35.544475,
      "lng": 134.820187,
      "geocoding_level": 2,
      "phone": "0796440823",
      "license_no": "但馬(豊健)第190-532",
      "license_date": null,
      "expire_date": null
    },
    {
      "name": "小金家",
      "name_kana": "",
      "business_type": "飲食店営業(1)一般食堂・レストラン等",
      "address": "豊岡市日高町日置２２－１サンロード内",
      "lat": 35.459381,
      "lng": 134.78943,
      "geocoding_level": 3,
      "phone": "0796422966",
      "license_no": "但馬(豊健)第150-603",
      "license_date": null,
      "expire_date": null
    },
    {
      "name": "ポルテ",
      "name_kana": "",
      "business_type": "飲食店営業(1)一般食堂・レストラン等",
      "address": "豊岡市日高町十戸１７－１",
      "lat": 35.478617,
      "lng": 134.723751,
      "geocoding_level": 3,
      "phone": "0796441143",
      "license_no": "但馬(豊健)第190-624",
      "license_date": null,
      "expire_date": null
    },
    {
      "name": "茶房ちから餅",
      "name_kana": "",
      "business_type": "飲食店営業(1)一般食堂・レストラン等",
      "address": "豊岡市日高町宵田１４５－２",
      "lat": 35.465311,
      "lng": 134.774236,
      "geocoding_level": 3,
      "phone": "0796421315",
      "license_no": "但馬(豊健)第190-623",
      "license_date": null,
      "expire_date": null
    },
    {
      "name": "友田酒造㈱",
      "name_kana": "",
      "business_type": "酒類製造業",
      "address": "豊岡市日高町江原６２",
      "lat": 35.46539500000001,
      "lng": 134.778891,
      "geocoding_level": 3,
      "phone": "0796421020",
      "license_no": "但馬(豊健)第200-504",
      "license_date": null,
      "expire_date": null
    },
    {
      "name": "田中養鱒場",
      "name_kana": "",
      "business_type": "そうざい製造業",
      "address": "豊岡市日高町十戸１０５",
      "lat": 35.478617,
      "lng": 134.723751,
      "geocoding_level": 3,
      "phone": "0796440116",
      "license_no": "但馬(豊健)第195-503",
      "license_date": null,
      "expire_date": null
    },
    {
      "name": "ハーフムーン",
      "name_kana": "",
      "business_type": "飲食店営業(1)一般食堂・レストラン等",
      "address": "豊岡市日高町浅倉１１９－１",
      "lat": 35.452351,
      "lng": 134.765269,
      "geocoding_level": 3,
      "phone": "0796421872",
      "license_no": "但馬(豊健)第190-559",
      "license_date": null,
      "expire_date": null
    },
    {
      "name": "カフェ・ド・アライブ",
      "name_kana": "",
      "business_type": "飲食店営業(1)一般食堂・レストラン等",
      "address": "豊岡市日高町国分寺７７８－１",
      "lat": 35.473452,
      "lng": 134.775389,
      "geocoding_level": 3,
      "phone": "0796424371",
      "license_no": "但馬(豊健)第190-582",
      "license_date": null,
      "expire_date": null
    },
    {
      "name": "ミ－トショップむかい",
      "name_kana": "",
      "business_type": "食肉販売業",
      "address": "豊岡市日高町江原７６",
      "lat": 35.46539500000001,
      "lng": 134.778891,
      "geocoding_level": 3,
      "phone": "0796422490",
      "license_no": "但馬(豊健)第212-508",
      "license_date": null,
      "expire_date": null
    },
    {
      "name": "マルタケ",
      "name_kana": "",
      "business_type": "魚介類販売業",
      "address": "豊岡市日高町江原９０",
      "lat": 35.46539500000001,
      "lng": 134.778891,
      "geocoding_level": 3,
      "phone": "0796420301",
      "license_no": "但馬(豊健)第178-529",
      "license_date": null,
      "expire_date": null
    },
    {
      "name": "クレセント",
      "name_kana": "",
      "business_type": "飲食店営業(1)一般食堂・レストラン等",
      "address": "豊岡市日高町谷１７－１",
      "lat": 35.495755,
      "lng": 134.772855,
      "geocoding_level": 3,
      "phone": "0796421228",
      "license_no": "但馬(豊健)第190-535",
      "license_date": null,
      "expire_date": null
    },
    {
      "name": "カフェ　アベニュー",
      "name_kana": "",
      "business_type": "飲食店営業(1)一般食堂・レストラン等",
      "address": "豊岡市日高町岩中２０８",
      "lat": 35.4606,
      "lng": 134.769373,
      "geocoding_level": 3,
      "phone": "0796423900",
      "license_no": "但馬(豊健)第150-643",
      "license_date": null,
      "expire_date": null
    },
    {
      "name": "ガンピー穀物倉庫",
      "name_kana": "",
      "business_type": "魚介類販売業",
      "address": "豊岡市日高町国分寺２２８－１",
      "lat": 35.473452,
      "lng": 134.775389,
      "geocoding_level": 3,
      "phone": "0796425195",
      "license_no": "但馬(豊健)第214-505",
      "license_date": null,
      "expire_date": null
    },
    {
      "name": "ガンピー穀物倉庫",
      "name_kana": "",
      "business_type": "飲食店営業(4)その他",
      "address": "豊岡市日高町国分寺２２８－１",
      "lat": 35.473452,
      "lng": 134.775389,
      "geocoding_level": 3,
      "phone": "0796425195",
      "license_no": "但馬(豊健)第190-554",
      "license_date": null,
      "expire_date": null
    },
    {
      "name": "フレッシュバザール日高パーク店",
      "name_kana": "",
      "business_type": "魚介類販売業",
      "address": "豊岡市日高町祢布９８８",
      "lat": 35.470242,
      "lng": 134.767277,
      "geocoding_level": 3,
      "phone": "0796424522",
      "license_no": "但馬(豊健)第214-515",
      "license_date": null,
      "expire_date": null
    },
    {
      "name": "ばんばん",
      "name_kana": "",
      "business_type": "飲食店営業(4)その他",
      "address": "豊岡市日高町祢布字ガケガ森９９２",
      "lat": 35.544475,
      "lng": 134.820187,
      "geocoding_level": 2,
      "phone": "",
      "license_no": "但馬(豊健)第190-579",
      "license_date": null,
      "expire_date": null
    },
    {
      "name": "ガンピー穀物倉庫",
      "name_kana": "",
      "business_type": "食肉販売業",
      "address": "豊岡市日高町国分寺２２８－１",
      "lat": 35.473452,
      "lng": 134.775389,
      "geocoding_level": 3,
      "phone": "0796425195",
      "license_no": "但馬(豊健)第212-504",
      "license_date": null,
      "expire_date": null
    },
    {
      "name": "マックスバリュ日高店",
      "name_kana": "",
      "business_type": "魚介類販売業",
      "address": "豊岡市日高町土居字野田３６７",
      "lat": 35.48133,
      "lng": 134.783595,
      "geocoding_level": 3,
      "phone": "0796425551",
      "license_no": "但馬(豊健)第178-537",
      "license_date": null,
      "expire_date": null
    },
    {
      "name": "マックスバリュ日高店",
      "name_kana": "",
      "business_type": "食肉販売業",
      "address": "豊岡市日高町土居字野田３６７",
      "lat": 35.48133,
      "lng": 134.783595,
      "geocoding_level": 3,
      "phone": "0796425551",
      "license_no": "但馬(豊健)第176-517",
      "license_date": null,
      "expire_date": null
    },
    {
      "name": "マックスバリュ日高店",
      "name_kana": "",
      "business_type": "飲食店営業(4)その他",
      "address": "豊岡市日高町土居字野田３６７",
      "lat": 35.48133,
      "lng": 134.783595,
      "geocoding_level": 3,
      "phone": "0796425551",
      "license_no": "但馬(豊健)第150-615",
      "license_date": null,
      "expire_date": null
    },
    {
      "name": "マックスバリュ日高店",
      "name_kana": "",
      "business_type": "飲食店営業(4)その他",
      "address": "豊岡市日高町土居字野田３６７",
      "lat": 35.48133,
      "lng": 134.783595,
      "geocoding_level": 3,
      "phone": "0796425551",
      "license_no": "但馬(豊健)第150-616",
      "license_date": null,
      "expire_date": null
    },
    {
      "name": "石立屋",
      "name_kana": "",
      "business_type": "飲食店営業(1)一般食堂・レストラン等",
      "address": "豊岡市日高町祢布８３７－５",
      "lat": 35.470242,
      "lng": 134.767277,
      "geocoding_level": 3,
      "phone": "0796420253",
      "license_no": "但馬(豊健)第190-646",
      "license_date": null,
      "expire_date": null
    },
    {
      "name": "やきとり大吉　日高店",
      "name_kana": "",
      "business_type": "飲食店営業(1)一般食堂・レストラン等",
      "address": "豊岡市日高町江原字下町８８",
      "lat": 35.544475,
      "lng": 134.820187,
      "geocoding_level": 2,
      "phone": "0796425218",
      "license_no": "但馬(豊健)第190-663",
      "license_date": null,
      "expire_date": null
    },
    {
      "name": "焼肉丸善日高店",
      "name_kana": "",
      "business_type": "飲食店営業(1)一般食堂・レストラン等",
      "address": "豊岡市日高町岩中字松ヶ花２１３－１６",
      "lat": 35.4606,
      "lng": 134.769373,
      "geocoding_level": 3,
      "phone": "0796422476",
      "license_no": "但馬(豊健)第190-609",
      "license_date": null,
      "expire_date": null
    },
    {
      "name": "神鍋ハイランドホテル",
      "name_kana": "",
      "business_type": "飲食店営業(3)旅館",
      "address": "豊岡市日高町太田１",
      "lat": 35.507146,
      "lng": 134.690982,
      "geocoding_level": 3,
      "phone": "0796450321",
      "license_no": "但馬(豊健)第217-513",
      "license_date": null,
      "expire_date": null
    },
    {
      "name": "大畑家",
      "name_kana": "",
      "business_type": "飲食店営業(3)旅館",
      "address": "豊岡市日高町山田５２０",
      "lat": 35.499909,
      "lng": 134.647954,
      "geocoding_level": 3,
      "phone": "0796450785",
      "license_no": "但馬(豊健)第217-555",
      "license_date": null,
      "expire_date": null
    },
    {
      "name": "よしのや",
      "name_kana": "",
      "business_type": "飲食店営業(3)旅館",
      "address": "豊岡市日高町名色１２７１",
      "lat": 35.490546,
      "lng": 134.675586,
      "geocoding_level": 3,
      "phone": "0796450373",
      "license_no": "但馬(豊健)第217-558",
      "license_date": null,
      "expire_date": null
    },
    {
      "name": "いなかや",
      "name_kana": "",
      "business_type": "飲食店営業(3)旅館",
      "address": "豊岡市日高町名色１３５",
      "lat": 35.490546,
      "lng": 134.675586,
      "geocoding_level": 3,
      "phone": "0796450037",
      "license_no": "但馬(豊健)第217-528",
      "license_date": null,
      "expire_date": null
    },
    {
      "name": "まとば屋",
      "name_kana": "",
      "business_type": "飲食店営業(3)旅館",
      "address": "豊岡市日高町名色１５２",
      "lat": 35.490546,
      "lng": 134.675586,
      "geocoding_level": 3,
      "phone": "0796450467",
      "license_no": "但馬(豊健)第217-501",
      "license_date": null,
      "expire_date": null
    },
    {
      "name": "ふくや",
      "name_kana": "",
      "business_type": "飲食店営業(3)旅館",
      "address": "豊岡市日高町栗栖野７７３",
      "lat": 35.501595,
      "lng": 134.669799,
      "geocoding_level": 3,
      "phone": "0796450656",
      "license_no": "但馬(豊健)第183-558",
      "license_date": null,
      "expire_date": null
    },
    {
      "name": "中屋",
      "name_kana": "",
      "business_type": "飲食店営業(3)旅館",
      "address": "豊岡市日高町栗栖野５１６－１",
      "lat": 35.501595,
      "lng": 134.669799,
      "geocoding_level": 3,
      "phone": "0796450031",
      "license_no": "但馬(豊健)第183-566",
      "license_date": null,
      "expire_date": null
    },
    {
      "name": "花屋",
      "name_kana": "",
      "business_type": "飲食店営業(3)旅館",
      "address": "豊岡市日高町栗栖野８５６",
      "lat": 35.501595,
      "lng": 134.669799,
      "geocoding_level": 3,
      "phone": "0796450240",
      "license_no": "但馬(豊健)第183-559",
      "license_date": null,
      "expire_date": null
    },
    {
      "name": "たばこ屋",
      "name_kana": "",
      "business_type": "飲食店営業(3)旅館",
      "address": "豊岡市日高町栗栖野９１０－１",
      "lat": 35.501595,
      "lng": 134.669799,
      "geocoding_level": 3,
      "phone": "0796450143",
      "license_no": "但馬(豊健)第183-587",
      "license_date": null,
      "expire_date": null
    },
    {
      "name": "しもね",
      "name_kana": "",
      "business_type": "飲食店営業(3)旅館",
      "address": "豊岡市日高町栗栖野１５５",
      "lat": 35.501595,
      "lng": 134.669799,
      "geocoding_level": 3,
      "phone": "0796450725",
      "license_no": "但馬(豊健)第183-586",
      "license_date": null,
      "expire_date": null
    },
    {
      "name": "ふもとや",
      "name_kana": "",
      "business_type": "飲食店営業(3)旅館",
      "address": "豊岡市日高町山田６３９－１",
      "lat": 35.499909,
      "lng": 134.647954,
      "geocoding_level": 3,
      "phone": "0796450627",
      "license_no": "但馬(豊健)第183-596",
      "license_date": null,
      "expire_date": null
    },
    {
      "name": "栃の実ペンション",
      "name_kana": "",
      "business_type": "飲食店営業(3)旅館",
      "address": "豊岡市日高町東河内字大机４－１８５",
      "lat": 35.544475,
      "lng": 134.820187,
      "geocoding_level": 2,
      "phone": "0796450256",
      "license_no": "但馬(豊健)第183-595",
      "license_date": null,
      "expire_date": null
    },
    {
      "name": "くるみの木",
      "name_kana": "",
      "business_type": "飲食店営業(3)旅館",
      "address": "豊岡市日高町太田１４５－１",
      "lat": 35.507146,
      "lng": 134.690982,
      "geocoding_level": 3,
      "phone": "0796451112",
      "license_no": "但馬(豊健)第183-589",
      "license_date": null,
      "expire_date": null
    },
    {
      "name": "奥雪",
      "name_kana": "",
      "business_type": "飲食店営業(3)旅館",
      "address": "豊岡市日高町山田４１０他２筆",
      "lat": 35.499909,
      "lng": 134.647954,
      "geocoding_level": 3,
      "phone": "0796450109",
      "license_no": "但馬(豊健)第150-529",
      "license_date": null,
      "expire_date": null
    },
    {
      "name": "奥神鍋ヒュッテ",
      "name_kana": "",
      "business_type": "飲食店営業(3)旅館",
      "address": "豊岡市日高町山田６６６",
      "lat": 35.499909,
      "lng": 134.647954,
      "geocoding_level": 3,
      "phone": "0796450784",
      "license_no": "但馬(豊健)第150-528",
      "license_date": null,
      "expire_date": null
    },
    {
      "name": "名色荘",
      "name_kana": "",
      "business_type": "飲食店営業(3)旅館",
      "address": "豊岡市日高町名色１０２",
      "lat": 35.490546,
      "lng": 134.675586,
      "geocoding_level": 3,
      "phone": "0796450569",
      "license_no": "但馬(豊健)第217-501",
      "license_date": null,
      "expire_date": null
    },
    {
      "name": "但馬綜合開発株式会社大岡ゴルフ倶楽部",
      "name_kana": "",
      "business_type": "飲食店営業(1)一般食堂・レストラン等",
      "address": "豊岡市日高町大岡字内羅８８",
      "lat": 35.544475,
      "lng": 134.820187,
      "geocoding_level": 2,
      "phone": "0796450331",
      "license_no": "但馬(豊健)第150-525",
      "license_date": null,
      "expire_date": null
    },
    {
      "name": "下住",
      "name_kana": "",
      "business_type": "飲食店営業(3)旅館",
      "address": "豊岡市日高町栗栖野２７３",
      "lat": 35.501595,
      "lng": 134.669799,
      "geocoding_level": 3,
      "phone": "0796450114",
      "license_no": "但馬(豊健)第217-541",
      "license_date": null,
      "expire_date": null
    },
    {
      "name": "丸万ロッヂ",
      "name_kana": "",
      "business_type": "飲食店営業(3)旅館",
      "address": "豊岡市日高町栗栖野しわが野６０",
      "lat": 35.501595,
      "lng": 134.669799,
      "geocoding_level": 3,
      "phone": "0796450737",
      "license_no": "但馬(豊健)第217-550",
      "license_date": null,
      "expire_date": null
    },
    {
      "name": "白い小屋",
      "name_kana": "",
      "business_type": "飲食店営業(1)一般食堂・レストラン等",
      "address": "豊岡市日高町栗栖野字皺ケ野５９",
      "lat": 35.544475,
      "lng": 134.820187,
      "geocoding_level": 2,
      "phone": "0796450469",
      "license_no": "但馬(豊健)第190-654",
      "license_date": null,
      "expire_date": null
    },
    {
      "name": "神鍋ハイランドホテル喫茶部ともしび",
      "name_kana": "",
      "business_type": "飲食店営業(1)一般食堂・レストラン等",
      "address": "豊岡市日高町太田１",
      "lat": 35.507146,
      "lng": 134.690982,
      "geocoding_level": 3,
      "phone": "0796450321",
      "license_no": "但馬(豊健)第150-666",
      "license_date": null,
      "expire_date": null
    },
    {
      "name": "奥雪",
      "name_kana": "",
      "business_type": "飲食店営業(1)一般食堂・レストラン等",
      "address": "豊岡市日高町山田６９０",
      "lat": 35.499909,
      "lng": 134.647954,
      "geocoding_level": 3,
      "phone": "0796450537",
      "license_no": "但馬(豊健)第150-658",
      "license_date": null,
      "expire_date": null
    },
    {
      "name": "ふもとや",
      "name_kana": "",
      "business_type": "飲食店営業(1)一般食堂・レストラン等",
      "address": "豊岡市日高町山田６３９－１",
      "lat": 35.499909,
      "lng": 134.647954,
      "geocoding_level": 3,
      "phone": "0796450627",
      "license_no": "但馬(豊健)第150-684",
      "license_date": null,
      "expire_date": null
    },
    {
      "name": "ＪＯＹＨＯＵＳＥ",
      "name_kana": "",
      "business_type": "飲食店営業(1)一般食堂・レストラン等",
      "address": "豊岡市日高町太田１５８－２９",
      "lat": 35.507146,
      "lng": 134.690982,
      "geocoding_level": 3,
      "phone": "0796450282",
      "license_no": "但馬(豊健)第150-667",
      "license_date": null,
      "expire_date": null
    },
    {
      "name": "ロッジ３３",
      "name_kana": "",
      "business_type": "飲食店営業(1)一般食堂・レストラン等",
      "address": "豊岡市日高町万場字ヘシロ６０９",
      "lat": 35.544475,
      "lng": 134.820187,
      "geocoding_level": 2,
      "phone": "",
      "license_no": "但馬(豊健)第150-657",
      "license_date": null,
      "expire_date": null
    },
    {
      "name": "ロッジＴＥＮ",
      "name_kana": "",
      "business_type": "飲食店営業(1)一般食堂・レストラン等",
      "address": "豊岡市日高町万場栃ケ平８４－２",
      "lat": 35.544475,
      "lng": 134.820187,
      "geocoding_level": 2,
      "phone": "08014431593",
      "license_no": "但馬(豊健)第190-675",
      "license_date": null,
      "expire_date": null
    },
    {
      "name": "ペンションマウントクック",
      "name_kana": "",
      "business_type": "飲食店営業(3)旅館",
      "address": "豊岡市日高町東河内９１４",
      "lat": 35.515596,
      "lng": 134.668452,
      "geocoding_level": 3,
      "phone": "0796451116",
      "license_no": "但馬(豊健)第217-555",
      "license_date": null,
      "expire_date": null
    },
    {
      "name": "神鍋亭",
      "name_kana": "",
      "business_type": "飲食店営業(3)旅館",
      "address": "豊岡市日高町太田字中道５",
      "lat": 35.544475,
      "lng": 134.820187,
      "geocoding_level": 2,
      "phone": "0796450124",
      "license_no": "但馬(豊健)第217-554",
      "license_date": null,
      "expire_date": null
    },
    {
      "name": "なかひろや",
      "name_kana": "",
      "business_type": "飲食店営業(3)旅館",
      "address": "豊岡市日高町稲葉１４５－３",
      "lat": 35.515177,
      "lng": 134.635684,
      "geocoding_level": 3,
      "phone": "0796450158",
      "license_no": "但馬(豊健)第217-512",
      "license_date": null,
      "expire_date": null
    },
    {
      "name": "オーベルジュ アルビレオ 天文台",
      "name_kana": "",
      "business_type": "飲食店営業(3)旅館",
      "address": "豊岡市日高町山田１４７－１",
      "lat": 35.499909,
      "lng": 134.647954,
      "geocoding_level": 3,
      "phone": "0796451066",
      "license_no": "但馬(豊健)第217-516",
      "license_date": null,
      "expire_date": null
    },
    {
      "name": "ロッヂユ－トピア",
      "name_kana": "",
      "business_type": "飲食店営業(3)旅館",
      "address": "豊岡市日高町太田４－２",
      "lat": 35.507146,
      "lng": 134.690982,
      "geocoding_level": 3,
      "phone": "0796450039",
      "license_no": "但馬(豊健)第217-514",
      "license_date": null,
      "expire_date": null
    },
    {
      "name": "はたや",
      "name_kana": "",
      "business_type": "飲食店営業(3)旅館",
      "address": "豊岡市日高町太田４４４",
      "lat": 35.507146,
      "lng": 134.690982,
      "geocoding_level": 3,
      "phone": "0796450615",
      "license_no": "但馬(豊健)第217-517",
      "license_date": null,
      "expire_date": null
    },
    {
      "name": "備前屋",
      "name_kana": "",
      "business_type": "飲食店営業(3)旅館",
      "address": "豊岡市日高町名色１１５４－１",
      "lat": 35.490546,
      "lng": 134.675586,
      "geocoding_level": 3,
      "phone": "0796450621",
      "license_no": "但馬(豊健)第217-528",
      "license_date": null,
      "expire_date": null
    },
    {
      "name": "高原亭",
      "name_kana": "",
      "business_type": "飲食店営業(3)旅館",
      "address": "豊岡市日高町名色１８０－１",
      "lat": 35.490546,
      "lng": 134.675586,
      "geocoding_level": 3,
      "phone": "0796450174",
      "license_no": "但馬(豊健)第217-550",
      "license_date": null,
      "expire_date": null
    },
    {
      "name": "森屋",
      "name_kana": "",
      "business_type": "飲食店営業(3)旅館",
      "address": "豊岡市日高町太田４１",
      "lat": 35.507146,
      "lng": 134.690982,
      "geocoding_level": 3,
      "phone": "0796450616",
      "license_no": "但馬(豊健)第217-513",
      "license_date": null,
      "expire_date": null
    },
    {
      "name": "ペンションナイトピース",
      "name_kana": "",
      "business_type": "飲食店営業(3)旅館",
      "address": "豊岡市日高町東河内９３８－１",
      "lat": 35.515596,
      "lng": 134.668452,
      "geocoding_level": 3,
      "phone": "",
      "license_no": "但馬(豊健)第217-511",
      "license_date": null,
      "expire_date": null
    },