{
  "meta": {
    "updated": 1783906731,
    "sources": [
      {
        "source": "福島県食品営業許可施設一覧",
        "license": "CC BY 2.1 JP"
      },
      {
        "source": "厚生労働省 食品衛生申請等システム（オープンデータ）",
        "license": "公共データ利用規約（第1.0版, PDL1.0）"
      }
    ]
  },
  "data": [
    {
      "name": "お食事処おかもと",
      "name_kana": "",
      "business_type": "飲食店営業",
      "address": "田村郡三春町八島台１丁目２－２",
      "lat": 37.44726300000001,
      "lng": 140.486276,
      "geocoding_level": 3,
      "phone": "0247-62-2316",
      "license_no": "2-2",
      "license_date": null,
      "expire_date": null
    },
    {
      "name": "よしの食堂",
      "name_kana": "",
      "business_type": "飲食店営業",
      "address": "田村郡三春町大字下舞木字石崎１８９",
      "lat": 37.441047,
      "lng": 140.492575,
      "geocoding_level": 2,
      "phone": "024-956-2021",
      "license_no": "2-3",
      "license_date": null,
      "expire_date": null
    },
    {
      "name": "いろはや旅館",
      "name_kana": "",
      "business_type": "飲食店営業",
      "address": "田村郡三春町字鶴蒔田１７",
      "lat": 37.440886273,
      "lng": 140.480543625,
      "geocoding_level": 8,
      "phone": "0247-62-3622",
      "license_no": "2-4",
      "license_date": null,
      "expire_date": null
    },
    {
      "name": "斉藤温泉元湯上の湯",
      "name_kana": "",
      "business_type": "飲食店営業",
      "address": "田村郡三春町大字斎藤字上河原１０２－１",
      "lat": 37.394407473,
      "lng": 140.458983891,
      "geocoding_level": 8,
      "phone": "024-944-2137",
      "license_no": "2-5",
      "license_date": null,
      "expire_date": null
    },
    {
      "name": "やきとり仁",
      "name_kana": "",
      "business_type": "飲食店営業",
      "address": "田村郡三春町大字上舞木字戸ノ内６１",
      "lat": 37.420506345,
      "lng": 140.440487161,
      "geocoding_level": 8,
      "phone": "0247-56-2806",
      "license_no": "2-6",
      "license_date": null,
      "expire_date": null
    },
    {
      "name": "米川商店",
      "name_kana": "",
      "business_type": "魚介類販売業",
      "address": "田村郡三春町大字実沢字上台３８",
      "lat": 37.441047,
      "lng": 140.492575,
      "geocoding_level": 2,
      "phone": "0247-62-5298",
      "license_no": "2-2",
      "license_date": null,
      "expire_date": null
    },
    {
      "name": "有限会社三春松葉屋パン店",
      "name_kana": "",
      "business_type": "飲食店営業",
      "address": "田村郡三春町字大町１９",
      "lat": 37.442335,
      "lng": 140.492584,
      "geocoding_level": 3,
      "phone": "0247-62-2256",
      "license_no": "2-7",
      "license_date": null,
      "expire_date": null
    },
    {
      "name": "有限会社三春松葉屋パン店",
      "name_kana": "",
      "business_type": "菓子製造業",
      "address": "田村郡三春町字大町１９",
      "lat": 37.442335,
      "lng": 140.492584,
      "geocoding_level": 3,
      "phone": "0247-62-2256",
      "license_no": "2-8",
      "license_date": null,
      "expire_date": null
    },
    {
      "name": "ホテル　ｎｏｗ",
      "name_kana": "",
      "business_type": "飲食店営業",
      "address": "田村郡三春町大字鷹巣字後田１０８",
      "lat": 37.428984528,
      "lng": 140.462069714,
      "geocoding_level": 8,
      "phone": "0247-62-1349",
      "license_no": "2-9",
      "license_date": null,
      "expire_date": null
    },
    {
      "name": "福内屋",
      "name_kana": "",
      "business_type": "菓子製造業",
      "address": "田村郡三春町字中町６８",
      "lat": 37.441211,
      "lng": 140.487833,
      "geocoding_level": 3,
      "phone": "0247-62-2346",
      "license_no": "2-3",
      "license_date": null,
      "expire_date": null
    },
    {
      "name": "なかや",
      "name_kana": "",
      "business_type": "みそ又はしょうゆ製造業",
      "address": "田村郡三春町字北町１５０",
      "lat": 37.444281,
      "lng": 140.49343,
      "geocoding_level": 3,
      "phone": "0247-62-2822",
      "license_no": "2-3",
      "license_date": null,
      "expire_date": null
    },
    {
      "name": "合資会社本陣本店",
      "name_kana": "",
      "business_type": "みそ又はしょうゆ製造業",
      "address": "田村郡三春町字中町３",
      "lat": 37.441211,
      "lng": 140.487833,
      "geocoding_level": 3,
      "phone": "0247-62-2008",
      "license_no": "2-2",
      "license_date": null,
      "expire_date": null
    },
    {
      "name": "三春酒造株式会社",
      "name_kana": "",
      "business_type": "酒類製造業",
      "address": "田村郡三春町字中町６７",
      "lat": 37.441404318,
      "lng": 140.487305488,
      "geocoding_level": 8,
      "phone": "0247-62-2816",
      "license_no": "2-3",
      "license_date": null,
      "expire_date": null
    },
    {
      "name": "三春茶屋",
      "name_kana": "",
      "business_type": "飲食店営業",
      "address": "田村郡三春町大字山田字下田７７",
      "lat": 37.430190206,
      "lng": 140.461356814,
      "geocoding_level": 8,
      "phone": "0247-62-2602",
      "license_no": "2-12",
      "license_date": null,
      "expire_date": null
    },
    {
      "name": "こーひーるうむ　ぽぽろん",
      "name_kana": "",
      "business_type": "飲食店営業",
      "address": "田村郡三春町大字下舞木字石崎７６",
      "lat": 37.441047,
      "lng": 140.492575,
      "geocoding_level": 2,
      "phone": "0249-42-2556",
      "license_no": "2-13",
      "license_date": null,
      "expire_date": null
    },
    {
      "name": "大安",
      "name_kana": "",
      "business_type": "飲食店営業",
      "address": "田村郡三春町字中町１",
      "lat": 37.441211,
      "lng": 140.487833,
      "geocoding_level": 3,
      "phone": "0247-62-7776",
      "license_no": "2-14",
      "license_date": null,
      "expire_date": null
    },
    {
      "name": "大藤屋",
      "name_kana": "",
      "business_type": "飲食店営業",
      "address": "田村郡三春町字中町７９",
      "lat": 37.441211,
      "lng": 140.487833,
      "geocoding_level": 3,
      "phone": "0247-62-3053",
      "license_no": "2-12",
      "license_date": null,
      "expire_date": null
    },
    {
      "name": "大藤屋",
      "name_kana": "",
      "business_type": "魚介類販売業",
      "address": "田村郡三春町字中町７９",
      "lat": 37.441211,
      "lng": 140.487833,
      "geocoding_level": 3,
      "phone": "0247-62-3053",
      "license_no": "2-13",
      "license_date": null,
      "expire_date": null
    },
    {
      "name": "第〆",
      "name_kana": "",
      "business_type": "飲食店営業",
      "address": "田村郡三春町字中町７９",
      "lat": 37.441211,
      "lng": 140.487833,
      "geocoding_level": 3,
      "phone": "0247-62-2301",
      "license_no": "2-17",
      "license_date": null,
      "expire_date": null
    },
    {
      "name": "田園食房　里の茶屋",
      "name_kana": "",
      "business_type": "飲食店営業",
      "address": "田村郡三春町大字西方字石畑４８７－１",
      "lat": 37.410729026,
      "lng": 140.472024085,
      "geocoding_level": 8,
      "phone": "0247-62-2223",
      "license_no": "2-16",
      "license_date": null,
      "expire_date": null
    },
    {
      "name": "ばんとうプラザ",
      "name_kana": "",
      "business_type": "飲食店営業",
      "address": "田村郡三春町大字平沢字担橋１６５－２",
      "lat": 37.449183153,
      "lng": 140.480899175,
      "geocoding_level": 8,
      "phone": "0247-62-8080",
      "license_no": "2-17",
      "license_date": null,
      "expire_date": null
    },
    {
      "name": "宝来軒",
      "name_kana": "",
      "business_type": "飲食店営業",
      "address": "田村郡三春町桜ケ丘１丁目４－３",
      "lat": 37.434176,
      "lng": 140.49816,
      "geocoding_level": 3,
      "phone": "0247-62-1391",
      "license_no": "2-20",
      "license_date": null,
      "expire_date": null
    },
    {
      "name": "メロディー",
      "name_kana": "",
      "business_type": "飲食店営業",
      "address": "田村郡三春町字中町５１－１",
      "lat": 37.44093008,
      "lng": 140.486657709,
      "geocoding_level": 8,
      "phone": "0247-62-5846",
      "license_no": "2-21",
      "license_date": null,
      "expire_date": null
    },
    {
      "name": "有限会社ぬる湯旅館",
      "name_kana": "",
      "business_type": "飲食店営業",
      "address": "田村郡三春町字八幡町５５",
      "lat": 37.439282,
      "lng": 140.484819,
      "geocoding_level": 3,
      "phone": "0247-62-2230",
      "license_no": "2-17",
      "license_date": null,
      "expire_date": null
    },
    {
      "name": "三春キッチンベース",
      "name_kana": "",
      "business_type": "飲食店営業",
      "address": "田村郡三春町大字熊耳字十石窪７８",
      "lat": 37.441047,
      "lng": 140.492575,
      "geocoding_level": 2,
      "phone": "0247-62-5747",
      "license_no": "2-18",
      "license_date": null,
      "expire_date": null
    },
    {
      "name": "菓子処三春儀同",
      "name_kana": "",
      "business_type": "菓子製造業",
      "address": "田村郡三春町字渋池３６",
      "lat": 37.44701257700001,
      "lng": 140.487625335,
      "geocoding_level": 8,
      "phone": "0247-62-3250",
      "license_no": "2-18",
      "license_date": null,
      "expire_date": null
    },
    {
      "name": "斉藤の湯元湯下の湯",
      "name_kana": "",
      "business_type": "飲食店営業",
      "address": "田村郡三春町大字斎藤字惣角地８３－１",
      "lat": 37.393107358,
      "lng": 140.459320749,
      "geocoding_level": 8,
      "phone": "024-944-1158",
      "license_no": "2-21",
      "license_date": null,
      "expire_date": null
    },
    {
      "name": "メフォス５０６６７号店",
      "name_kana": "",
      "business_type": "飲食店営業",
      "address": "田村郡三春町八島台３丁目１－３６",
      "lat": 37.444252,
      "lng": 140.479467,
      "geocoding_level": 3,
      "phone": "0247-62-2187",
      "license_no": "2-20",
      "license_date": null,
      "expire_date": null
    },
    {
      "name": "むらかみ亭",
      "name_kana": "",
      "business_type": "飲食店営業",
      "address": "田村郡三春町字大町２８",
      "lat": 37.442038282,
      "lng": 140.490462153,
      "geocoding_level": 8,
      "phone": "0247-62-2052",
      "license_no": "2-10",
      "license_date": null,
      "expire_date": null
    },
    {
      "name": "三春町福祉会館食堂",
      "name_kana": "",
      "business_type": "飲食店営業",
      "address": "田村郡三春町字南町１－１",
      "lat": 37.440844353,
      "lng": 140.493571058,
      "geocoding_level": 8,
      "phone": "0247-62-3829",
      "license_no": "2-19",
      "license_date": null,
      "expire_date": null
    },
    {
      "name": "橋長魚店",
      "name_kana": "",
      "business_type": "飲食店営業",
      "address": "田村郡三春町字新町１６１",
      "lat": 37.4371,
      "lng": 140.495735,
      "geocoding_level": 3,
      "phone": "0247-62-3820",
      "license_no": "2-23",
      "license_date": null,
      "expire_date": null
    },
    {
      "name": "橋長魚店",
      "name_kana": "",
      "business_type": "魚介類販売業",
      "address": "田村郡三春町字新町１６１",
      "lat": 37.4371,
      "lng": 140.495735,
      "geocoding_level": 3,
      "phone": "0247-62-3820",
      "license_no": "2-24",
      "license_date": null,
      "expire_date": null
    },
    {
      "name": "有限会社三ツ美屋",
      "name_kana": "",
      "business_type": "飲食店営業",
      "address": "田村郡三春町字尼ケ谷１２６",
      "lat": 37.436738,
      "lng": 140.49110300000004,
      "geocoding_level": 3,
      "phone": "0247-62-2504",
      "license_no": "2-8",
      "license_date": null,
      "expire_date": null
    },
    {
      "name": "やま喜",
      "name_kana": "",
      "business_type": "飲食店営業",
      "address": "田村郡三春町大字貝山字岩田３４０",
      "lat": 37.434244768,
      "lng": 140.487788328,
      "geocoding_level": 8,
      "phone": "0247-62-1317",
      "license_no": "2-21",
      "license_date": null,
      "expire_date": null
    },
    {
      "name": "フレール岩瀬屋",
      "name_kana": "",
      "business_type": "菓子製造業",
      "address": "田村郡三春町字中町３８",
      "lat": 37.440684124,
      "lng": 140.487014889,
      "geocoding_level": 8,
      "phone": "0247-62-2308",
      "license_no": "2-22",
      "license_date": null,
      "expire_date": null
    },
    {
      "name": "魅羅樹",
      "name_kana": "",
      "business_type": "飲食店営業",
      "address": "田村郡三春町大字山田字滝田２－１",
      "lat": 37.423467265,
      "lng": 140.451474879,
      "geocoding_level": 8,
      "phone": "0247-62-7957",
      "license_no": "2-23",
      "license_date": null,
      "expire_date": null
    },
    {
      "name": "小滝食堂",
      "name_kana": "",
      "business_type": "飲食店営業",
      "address": "田村郡三春町字八幡町６３",
      "lat": 37.439282,
      "lng": 140.484819,
      "geocoding_level": 3,
      "phone": "0247-62-3409",
      "license_no": "2-23",
      "license_date": null,
      "expire_date": null
    },
    {
      "name": "フォーレ",
      "name_kana": "",
      "business_type": "飲食店営業",
      "address": "田村郡三春町大字西方字中ノ内４０３－４",
      "lat": 37.405093126,
      "lng": 140.476184067,
      "geocoding_level": 8,
      "phone": "0247-62-8155",
      "license_no": "2-24",
      "license_date": null,
      "expire_date": null
    },
    {
      "name": "メフォス北日本５００１２号店",
      "name_kana": "",
      "business_type": "飲食店営業",
      "address": "田村郡三春町大字熊耳字大平２－１",
      "lat": 37.445632868,
      "lng": 140.508736319,
      "geocoding_level": 8,
      "phone": "0247-62-1234",
      "license_no": "2-29",
      "license_date": null,
      "expire_date": null
    },
    {
      "name": "割烹八文字屋",
      "name_kana": "",
      "business_type": "飲食店営業",
      "address": "田村郡三春町字大町１８－１",
      "lat": 37.441902035,
      "lng": 140.4908804,
      "geocoding_level": 8,
      "phone": "0247-62-5757",
      "license_no": "2-26",
      "license_date": null,
      "expire_date": null
    },
    {
      "name": "田園生活館食彩",
      "name_kana": "",
      "business_type": "飲食店営業",
      "address": "田村郡三春町大字西方字石畑４８７－１",
      "lat": 37.410729026,
      "lng": 140.472024085,
      "geocoding_level": 8,
      "phone": "0247-62-8010",
      "license_no": "2-27",
      "license_date": null,
      "expire_date": null
    },
    {
      "name": "田園生活館食彩",
      "name_kana": "",
      "business_type": "豆腐製造業",
      "address": "田村郡三春町大字西方字石畑４８７－１",
      "lat": 37.410729026,
      "lng": 140.472024085,
      "geocoding_level": 8,
      "phone": "0247-62-8010",
      "license_no": "2-28",
      "license_date": null,
      "expire_date": null
    },
    {
      "name": "洋風居酒屋　のきあ",
      "name_kana": "",
      "business_type": "飲食店営業",
      "address": "田村郡三春町字大町１９",
      "lat": 37.442335,
      "lng": 140.492584,
      "geocoding_level": 3,
      "phone": "0247-62-0011",
      "license_no": "2-29",
      "license_date": null,
      "expire_date": null
    },
    {
      "name": "ホームベーカリー杜のくまさん",
      "name_kana": "",
      "business_type": "菓子製造業",
      "address": "田村郡三春町大字山田字明夫作４２－１",
      "lat": 37.425568126,
      "lng": 140.447218443,
      "geocoding_level": 8,
      "phone": "0247-62-1351",
      "license_no": "2-31",
      "license_date": null,
      "expire_date": null
    },
    {
      "name": "手づくりぱん工房　みどりの屋根",
      "name_kana": "",
      "business_type": "菓子製造業",
      "address": "田村郡三春町大字熊耳字後古内１３８－１",
      "lat": 37.444565945,
      "lng": 140.511800356,
      "geocoding_level": 8,
      "phone": "0247-62-7646",
      "license_no": "2-34",
      "license_date": null,
      "expire_date": null
    },
    {
      "name": "旬菓工房",
      "name_kana": "",
      "business_type": "菓子製造業",
      "address": "田村郡三春町大字斎藤字町田２１６－３",
      "lat": 37.397149692,
      "lng": 140.451697626,
      "geocoding_level": 8,
      "phone": "024-956-3506",
      "license_no": "2-11",
      "license_date": null,
      "expire_date": null
    },
    {
      "name": "ＪＡ福島さくら西部営農経済センター",
      "name_kana": "",
      "business_type": "みそ又はしょうゆ製造業",
      "address": "田村郡三春町大字鷹巣字瀬山３５６－２",
      "lat": 37.416032398,
      "lng": 140.473448645,
      "geocoding_level": 8,
      "phone": "0247-61-1112",
      "license_no": "2-31",
      "license_date": null,
      "expire_date": null
    },
    {
      "name": "菊川屋斉苑",
      "name_kana": "",
      "business_type": "飲食店営業",
      "address": "田村郡三春町大字平沢字田畑１７２－１",
      "lat": 37.450379967,
      "lng": 140.472890136,
      "geocoding_level": 8,
      "phone": "0247-62-0620",
      "license_no": "2-38",
      "license_date": null,
      "expire_date": null
    },
    {
      "name": "芳三工業　第５工場",
      "name_kana": "",
      "business_type": "調理の機能を有する自動販売機により食品を調理し、調理された食品を販売する営業",
      "address": "田村郡三春町大字熊耳字山之内３６９",
      "lat": 37.448288791,
      "lng": 140.520817224,
      "geocoding_level": 8,
      "phone": "0247-62-5105",
      "license_no": "2-32",
      "license_date": null,
      "expire_date": null
    },
    {
      "name": "どんぶり亭三春店",
      "name_kana": "",
      "business_type": "飲食店営業",
      "address": "田村郡三春町桜ケ丘１丁目４－６",
      "lat": 37.434176,
      "lng": 140.49816,
      "geocoding_level": 3,
      "phone": "0247-62-8661",
      "license_no": "2-15",
      "license_date": null,
      "expire_date": null
    },
    {
      "name": "おそうざいクルミ",
      "name_kana": "",
      "business_type": "飲食店営業",
      "address": "田村郡三春町大字山田字クルミヤツ５６",
      "lat": 37.441047,
      "lng": 140.492575,
      "geocoding_level": 2,
      "phone": "0247-62-5065",
      "license_no": "2-17",
      "license_date": null,
      "expire_date": null
    },
    {
      "name": "おそうざいクルミ",
      "name_kana": "",
      "business_type": "漬物製造業",
      "address": "田村郡三春町大字山田字クルミヤツ５６",
      "lat": 37.441047,
      "lng": 140.492575,
      "geocoding_level": 2,
      "phone": "0247-62-5065",
      "license_no": "1-32",
      "license_date": null,
      "expire_date": null
    },
    {
      "name": "国分屋",
      "name_kana": "",
      "business_type": "みそ又はしょうゆ製造業",
      "address": "田村郡三春町字大町６２",
      "lat": 37.442335,
      "lng": 140.492584,
      "geocoding_level": 3,
      "phone": "0247-62-3369",
      "license_no": "2-39",
      "license_date": null,
      "expire_date": null
    },
    {
      "name": "和久屋",
      "name_kana": "",
      "business_type": "飲食店営業",
      "address": "田村郡三春町字大町１１５－６",
      "lat": 37.442546137,
      "lng": 140.490629691,
      "geocoding_level": 8,
      "phone": "0247-62-3065",
      "license_no": "2-48",
      "license_date": null,
      "expire_date": null
    },
    {
      "name": "三春の里田園生活館　お食事処四季菜",
      "name_kana": "",
      "business_type": "飲食店営業",
      "address": "田村郡三春町大字西方字石畑４８７－１",
      "lat": 37.410729026,
      "lng": 140.472024085,
      "geocoding_level": 8,
      "phone": "0247-62-8010",
      "license_no": "2-27",
      "license_date": null,
      "expire_date": null
    },
    {
      "name": "三春の里田園生活館　休憩所",
      "name_kana": "",
      "business_type": "飲食店営業",
      "address": "田村郡三春町大字西方字石畑４８７－１",
      "lat": 37.410729026,
      "lng": 140.472024085,
      "geocoding_level": 8,
      "phone": "0247-62-8010",
      "license_no": "2-28",
      "license_date": null,
      "expire_date": null
    },
    {
      "name": "三春の里田園生活館　宴会場",
      "name_kana": "",
      "business_type": "飲食店営業",
      "address": "田村郡三春町大字西方字石畑４８７－１",
      "lat": 37.410729026,
      "lng": 140.472024085,
      "geocoding_level": 8,
      "phone": "0247-62-8010",
      "license_no": "2-29",
      "license_date": null,
      "expire_date": null
    },
    {
      "name": "工房えぷろんまぁま",
      "name_kana": "",
      "business_type": "菓子製造業",
      "address": "田村郡三春町大字貝山字岩田１８６",
      "lat": 37.43594279,
      "lng": 140.484183977,
      "geocoding_level": 8,
      "phone": "0247-62-5654",
      "license_no": "2-31",
      "license_date": null,
      "expire_date": null
    },
    {
      "name": "工房えぷろんまぁま",
      "name_kana": "",
      "business_type": "漬物製造業",
      "address": "田村郡三春町大字貝山字岩田１８６",
      "lat": 37.43594279,
      "lng": 140.484183977,
      "geocoding_level": 8,
      "phone": "0247-62-5654",
      "license_no": "1-95",
      "license_date": null,
      "expire_date": null
    },
    {
      "name": "相模屋菓子店",
      "name_kana": "",
      "business_type": "菓子製造業",
      "address": "田村郡三春町字荒町６９",
      "lat": 37.444092,
      "lng": 140.486722,
      "geocoding_level": 3,
      "phone": "0247-62-2456",
      "license_no": "2-33",
      "license_date": null,
      "expire_date": null
    },
    {
      "name": "株式会社かんの屋三春工場",
      "name_kana": "",
      "business_type": "菓子製造業",
      "address": "田村郡三春町大字鷹巣字後田８０－１",
      "lat": 37.43064617300001,
      "lng": 140.462403433,
      "geocoding_level": 8,
      "phone": "0247-62-1600",
      "license_no": "2-38",
      "license_date": null,
      "expire_date": null
    },
    {
      "name": "碧い月",
      "name_kana": "",
      "business_type": "飲食店営業",
      "address": "田村郡三春町大字鷹巣字水上１１１－４",
      "lat": 37.41953601000001,
      "lng": 140.471465955,
      "geocoding_level": 8,
      "phone": "0247-62-3420",
      "license_no": "2-15",
      "license_date": null,
      "expire_date": null
    },
    {
      "name": "とらや分店　村田や",
      "name_kana": "",
      "business_type": "飲食店営業",
      "address": "田村郡三春町大字斎藤字場上田２４２－１",
      "lat": 37.39565436000001,
      "lng": 140.45195944,
      "geocoding_level": 8,
      "phone": "024-942-2003",
      "license_no": "2-41",
      "license_date": null,
      "expire_date": null
    },
    {
      "name": "三條屋",
      "name_kana": "",
      "business_type": "飲食店営業",
      "address": "田村郡三春町字大町７９",
      "lat": 37.442335,
      "lng": 140.492584,
      "geocoding_level": 3,
      "phone": "0247-62-2370",
      "license_no": "2-42",
      "license_date": null,
      "expire_date": null
    },
    {
      "name": "スナック　あすな",
      "name_kana": "",
      "business_type": "飲食店営業",
      "address": "田村郡三春町字北町３６－１",
      "lat": 37.444189993,
      "lng": 140.492509604,
      "geocoding_level": 8,
      "phone": "0247-62-3911",
      "license_no": "2-42",
      "license_date": null,
      "expire_date": null
    },
    {
      "name": "手打ラーメンはし軒",
      "name_kana": "",
      "business_type": "飲食店営業",
      "address": "田村郡三春町大字熊耳字中田１２３－１",
      "lat": 37.445766771,
      "lng": 140.523779921,
      "geocoding_level": 8,
      "phone": "0247-62-2686",
      "license_no": "2-45",
      "license_date": null,
      "expire_date": null
    },
    {
      "name": "有限会社大畑屋食品",
      "name_kana": "",
      "business_type": "豆腐製造業",
      "address": "田村郡三春町大字西方字石畑２５３",
      "lat": 37.411763815,
      "lng": 140.473319871,
      "geocoding_level": 8,
      "phone": "",
      "license_no": "2-46",
      "license_date": null,
      "expire_date": null
    },
    {
      "name": "Ｔｏ－Ｆｕ　ｃａｆｅ　おおはたや",
      "name_kana": "",
      "business_type": "飲食店営業",
      "address": "田村郡三春町大字西方字石畑２５３",
      "lat": 37.411763815,
      "lng": 140.473319871,
      "geocoding_level": 8,
      "phone": "0247-62-1113",
      "license_no": "2-47",
      "license_date": null,
      "expire_date": null
    },
    {
      "name": "Ｔｏ－Ｆｕ　ｃａｆｅ　おおはたや",
      "name_kana": "",
      "business_type": "菓子製造業",
      "address": "田村郡三春町大字西方字石畑２５３",
      "lat": 37.411763815,
      "lng": 140.473319871,
      "geocoding_level": 8,
      "phone": "0247-62-1113",
      "license_no": "2-48",
      "license_date": null,
      "expire_date": null
    },
    {
      "name": "田舎っぺ",
      "name_kana": "",
      "business_type": "飲食店営業",
      "address": "田村郡三春町大字上舞木字堂ケ作８０－１",
      "lat": 37.408420047,
      "lng": 140.451207322,
      "geocoding_level": 8,
      "phone": "024-941-2622",
      "license_no": "2-38",
      "license_date": null,
      "expire_date": null
    },
    {
      "name": "ひだまり",
      "name_kana": "",
      "business_type": "菓子製造業",
      "address": "田村郡三春町大字北成田字高谷１２８",
      "lat": 37.441047,
      "lng": 140.492575,
      "geocoding_level": 2,
      "phone": "0247-62-4506",
      "license_no": "2-18",
      "license_date": null,
      "expire_date": null
    },
    {
      "name": "ひだまり",
      "name_kana": "",
      "business_type": "そうざい製造業",
      "address": "田村郡三春町大字北成田字高谷１２８",
      "lat": 37.441047,
      "lng": 140.492575,
      "geocoding_level": 2,
      "phone": "0247-62-4506",
      "license_no": "2-17",
      "license_date": null,
      "expire_date": null
    },
    {
      "name": "ひだまり",
      "name_kana": "",
      "business_type": "漬物製造業",
      "address": "田村郡三春町大字北成田字高谷１２８",
      "lat": 37.441047,
      "lng": 140.492575,
      "geocoding_level": 2,
      "phone": "0247-62-4506",
      "license_no": "1-36",
      "license_date": null,
      "expire_date": null
    },
    {
      "name": "アグリ工房ひらく",
      "name_kana": "",
      "business_type": "菓子製造業",
      "address": "田村郡三春町大字北成田字平郎内２７",
      "lat": 37.476950239,
      "lng": 140.500981043,
      "geocoding_level": 8,
      "phone": "0247-62-5008",
      "license_no": "2-51",
      "license_date": null,
      "expire_date": null
    },
    {
      "name": "アグリ工房ひらく",
      "name_kana": "",
      "business_type": "そうざい製造業",
      "address": "田村郡三春町大字北成田字平郎内２７",
      "lat": 37.476950239,
      "lng": 140.500981043,
      "geocoding_level": 8,
      "phone": "0247-62-5008",
      "license_no": "2-50",
      "license_date": null,
      "expire_date": null
    },
    {
      "name": "ありがとう",
      "name_kana": "",
      "business_type": "飲食店営業",
      "address": "田村郡三春町字八幡町４５－１",
      "lat": 37.439933424,
      "lng": 140.484086197,
      "geocoding_level": 8,
      "phone": "0247-62-8339",
      "license_no": "2-21",
      "license_date": null,
      "expire_date": null
    },
    {
      "name": "さくら製麺",
      "name_kana": "",
      "business_type": "麺類製造業",
      "address": "田村郡三春町大字下舞木字岩本８１－３８",
      "lat": 37.424214226,
      "lng": 140.439646519,
      "geocoding_level": 8,
      "phone": "",
      "license_no": "2-41",
      "license_date": null,
      "expire_date": null
    },
    {
      "name": "手打ちらーめん次郎",
      "name_kana": "",
      "business_type": "飲食店営業",
      "address": "田村郡三春町大字貝山字岩田６０－１",
      "lat": 37.435872996,
      "lng": 140.485838995,
      "geocoding_level": 8,
      "phone": "0247-62-8766",
      "license_no": "2-53",
      "license_date": null,
      "expire_date": null
    },
    {
      "name": "ガーデンレストランサララ",
      "name_kana": "",
      "business_type": "飲食店営業",
      "address": "田村郡三春町大字斎藤字仁井道３４８－４",
      "lat": 37.388148434,
      "lng": 140.451242876,
      "geocoding_level": 8,
      "phone": "024-942-1465",
      "license_no": "2-55",
      "license_date": null,
      "expire_date": null
    },
    {
      "name": "ガーデンレストランサララ",
      "name_kana": "",
      "business_type": "そうざい製造業",
      "address": "田村郡三春町大字斎藤字仁井道３４８－４",
      "lat": 37.388148434,
      "lng": 140.451242876,
      "geocoding_level": 8,
      "phone": "024-942-1465",
      "license_no": "1-15",
      "license_date": null,
      "expire_date": null
    },
    {
      "name": "ｍ２３０８０",
      "name_kana": "",
      "business_type": "飲食店営業",
      "address": "田村郡三春町大字山田字クルミヤツ３－３",
      "lat": 37.426603048,
      "lng": 140.448137932,
      "geocoding_level": 8,
      "phone": "0247-62-5051",
      "license_no": "2-20",
      "license_date": null,
      "expire_date": null
    },
    {
      "name": "手作りパン　クレール",
      "name_kana": "",
      "business_type": "飲食店営業",
      "address": "田村郡三春町大字下舞木字石花１２８－１",
      "lat": 37.415193632,
      "lng": 140.425355338,
      "geocoding_level": 8,
      "phone": "024-954-7749",
      "license_no": "2-49",
      "license_date": null,
      "expire_date": null
    },
    {
      "name": "手作りパン　クレール",
      "name_kana": "",
      "business_type": "菓子製造業",
      "address": "田村郡三春町大字下舞木字石花１２８－１",
      "lat": 37.415193632,
      "lng": 140.425355338,
      "geocoding_level": 8,
      "phone": "024-954-7749",
      "license_no": "2-50",
      "license_date": null,
      "expire_date": null
    },
    {
      "name": "さわ市　坂の上店",
      "name_kana": "",
      "business_type": "飲食店営業",
      "address": "田村郡三春町字六升蒔５０－１０",
      "lat": 37.447406923,
      "lng": 140.495721034,
      "geocoding_level": 8,
      "phone": "0247-62-2833",
      "license_no": "2-51",
      "license_date": null,
      "expire_date": null
    },
    {
      "name": "でんでんむし",
      "name_kana": "",
      "business_type": "菓子製造業",
      "address": "田村郡三春町字清水２４２－１",
      "lat": 37.439297868,
      "lng": 140.500037226,
      "geocoding_level": 8,
      "phone": "0247-62-8424",
      "license_no": "2-52",
      "license_date": null,
      "expire_date": null
    },
    {
      "name": "桜工房",
      "name_kana": "",
      "business_type": "飲食店営業",
      "address": "田村郡三春町字小滝１７０",
      "lat": 37.441160627,
      "lng": 140.505233194,
      "geocoding_level": 8,
      "phone": "0247-62-0201",
      "license_no": "2-54",
      "license_date": null,
      "expire_date": null
    },
    {
      "name": "桜工房",
      "name_kana": "",
      "business_type": "菓子製造業",
      "address": "田村郡三春町字小滝１７０",
      "lat": 37.441160627,
      "lng": 140.505233194,
      "geocoding_level": 8,
      "phone": "0247-62-0201",
      "license_no": "1-9",
      "license_date": null,
      "expire_date": null
    },
    {
      "name": "美野苑",
      "name_kana": "",
      "business_type": "飲食店営業",
      "address": "田村郡三春町大字斎藤字仁井道３４８－５",
      "lat": 37.388827351,
      "lng": 140.45181151200003,
      "geocoding_level": 8,
      "phone": "024-943-7121",
      "license_no": "2-54",
      "license_date": null,
      "expire_date": null
    },
    {
      "name": "蔵のカフェ　フローリアン",
      "name_kana": "",
      "business_type": "飲食店営業",
      "address": "田村郡三春町字大町７７－４",
      "lat": 37.442555027,
      "lng": 140.48904655200002,
      "geocoding_level": 8,
      "phone": "0247-62-7739",
      "license_no": "2-59",
      "license_date": null,
      "expire_date": null
    },
    {
      "name": "老饕（ラオタオ）",
      "name_kana": "",
      "business_type": "飲食店営業",
      "address": "田村郡三春町大字上舞木字宮ノ前７－１",
      "lat": 37.418457728,
      "lng": 140.438003193,
      "geocoding_level": 8,
      "phone": "024-942-0606",
      "license_no": "2-23",
      "license_date": null,
      "expire_date": null
    },
    {
      "name": "工房　あさひ",
      "name_kana": "",
      "business_type": "菓子製造業",
      "address": "田村郡三春町大字柴原字柴原３０９",
      "lat": 37.441047,
      "lng": 140.492575,
      "geocoding_level": 2,
      "phone": "0247-62-4329",
      "license_no": "2-25",
      "license_date": null,
      "expire_date": null
    },
    {
      "name": "工房　あさひ",
      "name_kana": "",
      "business_type": "そうざい製造業",
      "address": "田村郡三春町大字柴原字柴原３０９",
      "lat": 37.441047,
      "lng": 140.492575,
      "geocoding_level": 2,
      "phone": "0247-62-4329",
      "license_no": "2-24",
      "license_date": null,
      "expire_date": null
    },
    {
      "name": "工房　あさひ",
      "name_kana": "",
      "business_type": "漬物製造業",
      "address": "田村郡三春町大字柴原字柴原３０９",
      "lat": 37.441047,
      "lng": 140.492575,
      "geocoding_level": 2,
      "phone": "0247-62-4329",
      "license_no": "1-96",
      "license_date": null,
      "expire_date": null
    },
    {
      "name": "石橋加工所",
      "name_kana": "",
      "business_type": "そうざい製造業",
      "address": "田村郡三春町大字富沢字大境１２０－１",
      "lat": 37.47878074900001,
      "lng": 140.530165392,
      "geocoding_level": 8,
      "phone": "0247-62-7469",
      "license_no": "2-62",
      "license_date": null,
      "expire_date": null
    },
    {
      "name": "石橋加工所",
      "name_kana": "",
      "business_type": "漬物製造業",
      "address": "田村郡三春町大字富沢字大境１２０－１",
      "lat": 37.47878074900001,
      "lng": 140.530165392,
      "geocoding_level": 8,
      "phone": "0247-62-7469",
      "license_no": "1-16",
      "license_date": null,
      "expire_date": null
    },
    {
      "name": "特別養護老人ホーム　あぶくま荘",
      "name_kana": "",
      "business_type": "飲食店営業",
      "address": "田村郡三春町字六升蒔６８",
      "lat": 37.447338,
      "lng": 140.495337,
      "geocoding_level": 3,
      "phone": "0247-61-2461",
      "license_no": "2-27",
      "license_date": null,
      "expire_date": null
    },
    {
      "name": "ｎａｒｕｍａｒｉ",
      "name_kana": "",
      "business_type": "飲食店営業",
      "address": "田村郡三春町大字上舞木字明部作３８－２９",
      "lat": 37.423830398,
      "lng": 140.443718623,
      "geocoding_level": 8,
      "phone": "024-973-5841",
      "license_no": "2-29",
      "license_date": null,
      "expire_date": null
    },
    {
      "name": "有限会社山惣",
      "name_kana": "",
      "business_type": "飲食店営業",
      "address": "田村郡三春町字北町９－２",
      "lat": 37.443267813,
      "lng": 140.491081779,
      "geocoding_level": 8,
      "phone": "0247-62-0166",
      "license_no": "2-31",
      "license_date": null,
      "expire_date": null
    },
    {
      "name": "ＣＡＦＥ　ワン",
      "name_kana": "",
      "business_type": "飲食店営業",
      "address": "田村郡三春町大字下舞木字岩本１１７－９",
      "lat": 37.425461551,
      "lng": 140.439586247,
      "geocoding_level": 8,
      "phone": "024-956-2101",
      "license_no": "2-56",
      "license_date": null,
      "expire_date": null
    },
    {
      "name": "ヨークベニマル三春店",
      "name_kana": "",
      "business_type": "魚介類販売業",
      "address": "田村郡三春町字中町８６",
      "lat": 37.441876289,
      "lng": 140.488295253,
      "geocoding_level": 8,
      "phone": "0247-62-2002",
      "license_no": "2-57",
      "license_date": null,
      "expire_date": null
    },
    {
      "name": "ヨークベニマル三春店",
      "name_kana": "",
      "business_type": "食肉販売業",
      "address": "田村郡三春町字中町８６",
      "lat": 37.441876289,
      "lng": 140.488295253,
      "geocoding_level": 8,
      "phone": "0247-62-2002",
      "license_no": "2-58",
      "license_date": null,
      "expire_date": null
    },
    {
      "name": "ヨークベニマル三春店",
      "name_kana": "",
      "business_type": "飲食店営業",
      "address": "田村郡三春町字中町８６",
      "lat": 37.441876289,
      "lng": 140.488295253,
      "geocoding_level": 8,
      "phone": "0247-62-2002",
      "license_no": "2-59",
      "license_date": null,
      "expire_date": null
    },
    {
      "name": "さわ市",
      "name_kana": "",
      "business_type": "飲食店営業",
      "address": "田村郡三春町字大町３２－１",
      "lat": 37.442013452,
      "lng": 140.489782447,
      "geocoding_level": 8,
      "phone": "0247-62-6222",
      "license_no": "2-63",
      "license_date": null,
      "expire_date": null
    },
    {
      "name": "くいしんぼ",
      "name_kana": "",
      "business_type": "飲食店営業",
      "address": "田村郡三春町大字上舞木字明部作３８－６７",
      "lat": 37.424458219,
      "lng": 140.444344762,
      "geocoding_level": 8,
      "phone": "024-942-8776",
      "license_no": "2-82",
      "license_date": null,
      "expire_date": null
    },
    {
      "name": "工房ふくろう",
      "name_kana": "",
      "business_type": "そうざい製造業",
      "address": "田村郡三春町大字蛇石字舞台田２７３",
      "lat": 37.441047,
      "lng": 140.492575,
      "geocoding_level": 2,
      "phone": "0247-62-1409",
      "license_no": "2-67",
      "license_date": null,
      "expire_date": null
    },
    {
      "name": "ＡＱＵＡ",
      "name_kana": "",
      "business_type": "飲食店営業",
      "address": "田村郡三春町字尼ケ谷３－５",
      "lat": 37.439795326,
      "lng": 140.486481885,
      "geocoding_level": 8,
      "phone": "",
      "license_no": "2-84",
      "license_date": null,
      "expire_date": null
    },
    {
      "name": "千秋",
      "name_kana": "",
      "business_type": "飲食店営業",
      "address": "田村郡三春町字尼ケ谷３－５",
      "lat": 37.439795326,
      "lng": 140.486481885,
      "geocoding_level": 8,
      "phone": "0247-62-4710",
      "license_no": "2-85",
      "license_date": null,
      "expire_date": null
    },
    {
      "name": "ん",
      "name_kana": "",
      "business_type": "飲食店営業",
      "address": "田村郡三春町字中町６０－１",
      "lat": 37.441035708,
      "lng": 140.486939045,
      "geocoding_level": 8,
      "phone": "0247-62-5588",
      "license_no": "2-90",
      "license_date": null,
      "expire_date": null
    },
    {
      "name": "たまのや　こころ斎苑　三春",
      "name_kana": "",
      "business_type": "飲食店営業",
      "address": "田村郡三春町八島台４丁目１－１",
      "lat": 37.444065,
      "lng": 140.478157,
      "geocoding_level": 3,
      "phone": "0247-62-1111",
      "license_no": "2-97",
      "license_date": null,
      "expire_date": null
    },
    {
      "name": "かおるブルーベリー園",
      "name_kana": "",
      "business_type": "菓子製造業",
      "address": "田村郡三春町大字西方字中ノ内１７３",
      "lat": 37.441047,
      "lng": 140.492575,
      "geocoding_level": 2,
      "phone": "0247-62-4956",
      "license_no": "2-71",
      "license_date": null,
      "expire_date": null
    },
    {
      "name": "かおるブルーベリー園",
      "name_kana": "",
      "business_type": "かん詰又はびん詰食品製造業",
      "address": "田村郡三春町大字西方字中ノ内１７３",
      "lat": 37.441047,
      "lng": 140.492575,
      "geocoding_level": 2,
      "phone": "0247-62-4956",
      "license_no": "2-72",
      "license_date": null,
      "expire_date": null
    },
    {
      "name": "花かご",
      "name_kana": "",
      "business_type": "飲食店営業",
      "address": "田村郡三春町字中町４　一ノ蔵",
      "lat": 37.441467664,
      "lng": 140.488750209,
      "geocoding_level": 8,
      "phone": "0247-61-2661",
      "license_no": "2-59",
      "license_date": null,
      "expire_date": null
    },
    {
      "name": "エルマール・ガーデン",
      "name_kana": "",
      "business_type": "飲食店営業",
      "address": "田村郡三春町大字山田字クルミヤツ１５－２",
      "lat": 37.426231805,
      "lng": 140.447658175,
      "geocoding_level": 8,
      "phone": "0247-61-6620",
      "license_no": "2-77",
      "license_date": null,
      "expire_date": null
    },
    {
      "name": "エルマール・ガーデン",
      "name_kana": "",
      "business_type": "菓子製造業",
      "address": "田村郡三春町大字山田字クルミヤツ１５－２",
      "lat": 37.426231805,
      "lng": 140.447658175,
      "geocoding_level": 8,
      "phone": "0247-61-6620",
      "license_no": "1-41",
      "license_date": null,
      "expire_date": null
    },
    {
      "name": "エルマール・ガーデン",
      "name_kana": "",
      "business_type": "そうざい製造業",
      "address": "田村郡三春町大字山田字クルミヤツ１５－２",
      "lat": 37.426231805,
      "lng": 140.447658175,
      "geocoding_level": 8,
      "phone": "0247-61-6620",
      "license_no": "1-62",
      "license_date": null,
      "expire_date": null
    },
    {
      "name": "朝日屋",
      "name_kana": "",
      "business_type": "豆腐製造業",
      "address": "田村郡三春町字八幡町４２",
      "lat": 37.439282,
      "lng": 140.484819,
      "geocoding_level": 3,
      "phone": "0247-62-3361",
      "license_no": "2-67",
      "license_date": null,
      "expire_date": null
    },
    {
      "name": "ステンドグラス工房アトリエデコ",
      "name_kana": "",
      "business_type": "飲食店営業",
      "address": "田村郡三春町大字滝字桜久保１１５－２",
      "lat": 37.406694755,
      "lng": 140.499039,
      "geocoding_level": 8,
      "phone": "0247-62-8210",
      "license_no": "2-95",
      "license_date": null,
      "expire_date": null
    },
    {
      "name": "味の郷　こばりどん",
      "name_kana": "",
      "business_type": "飲食店営業",
      "address": "田村郡三春町大字斎藤字場上田２９１－２",
      "lat": 37.392305867,
      "lng": 140.448638654,
      "geocoding_level": 8,
      "phone": "024-956-8333",
      "license_no": "2-36",
      "license_date": null,
      "expire_date": null
    },
    {
      "name": "ｉｎ－ｋｙｏ",
      "name_kana": "",
      "business_type": "飲食店営業",
      "address": "田村郡三春町字中町９",
      "lat": 37.441319962,
      "lng": 140.488444989,
      "geocoding_level": 8,
      "phone": "0247-61-6650",
      "license_no": "2-68",
      "license_date": null,
      "expire_date": null
    },
    {
      "name": "センターオブクラフツマンシップ　ブリトマート",
      "name_kana": "",
      "business_type": "菓子製造業",
      "address": "田村郡三春町大字斎藤字仁井道３４８－４",
      "lat": 37.388148434,
      "lng": 140.451242876,
      "geocoding_level": 8,
      "phone": "024-954-7042",
      "license_no": "2-40",
      "license_date": null,
      "expire_date": null
    },
    {
      "name": "三春デイサービス",
      "name_kana": "",
      "business_type": "飲食店営業",
      "address": "田村郡三春町八島台７丁目５－１７",
      "lat": 37.448824,
      "lng": 140.474411,
      "geocoding_level": 3,
      "phone": "0247-62-0010",
      "license_no": "2-41",
      "license_date": null,
      "expire_date": null
    },
    {
      "name": "イタリア家庭料理　三春　ラ・ベリータ",
      "name_kana": "",
      "business_type": "菓子製造業",
      "address": "田村郡三春町大字春沢字春沢１－２９",
      "lat": 37.417339204,
      "lng": 140.477365872,
      "geocoding_level": 8,
      "phone": "0247-73-8219",
      "license_no": "1-92",
      "license_date": null,
      "expire_date": null
    },
    {
      "name": "イタリア家庭料理　三春　ラ・ベリータ",
      "name_kana": "",
      "business_type": "飲食店営業",
      "address": "田村郡三春町大字春沢字春沢１－２９",
      "lat": 37.417339204,
      "lng": 140.477365872,
      "geocoding_level": 8,
      "phone": "0247-73-8219",
      "license_no": "2-42",
      "license_date": null,
      "expire_date": null
    },
    {
      "name": "有限会社こがね屋",
      "name_kana": "",
      "business_type": "菓子製造業",
      "address": "田村郡三春町字八幡町７０",
      "lat": 37.439282,
      "lng": 140.484819,
      "geocoding_level": 3,
      "phone": "0247-62-2238",
      "license_no": "2-44",
      "license_date": null,
      "expire_date": null
    },
    {
      "name": "こ家",
      "name_kana": "",
      "business_type": "飲食店営業",
      "address": "田村郡三春町大字斎藤字場上田２４８－２",
      "lat": 37.394895588,
      "lng": 140.452265635,
      "geocoding_level": 8,
      "phone": "",
      "license_no": "2-46",
      "license_date": null,
      "expire_date": null
    },
    {
      "name": "セブン－イレブン三春下舞木店",
      "name_kana": "",
      "business_type": "飲食店営業",
      "address": "田村郡三春町大字下舞木字石崎１３８",
      "lat": 37.413938183,
      "lng": 140.424430432,
      "geocoding_level": 8,
      "phone": "024-941-1123",
      "license_no": "2-47",
      "license_date": null,
      "expire_date": null
    },
    {
      "name": "みちのく霊泉やわらぎ乃湯",
      "name_kana": "",
      "business_type": "飲食店営業",
      "address": "田村郡三春町字馬場２４３－１９",
      "lat": 37.434958528,
      "lng": 140.490187202,
      "geocoding_level": 8,
      "phone": "0247-62-2153",
      "license_no": "2-49",
      "license_date": null,
      "expire_date": null
    },
    {
      "name": "きがる湯",
      "name_kana": "",
      "business_type": "飲食店営業",
      "address": "田村郡三春町大字富沢字新舘２４３",
      "lat": 37.441047,
      "lng": 140.492575,
      "geocoding_level": 2,
      "phone": "0247-61-6360",
      "license_no": "2-72",
      "license_date": null,
      "expire_date": null
    },
    {
      "name": "カフェー　ブリキイヌ",
      "name_kana": "",
      "business_type": "飲食店営業",
      "address": "田村郡三春町字中町４　中町蔵　二ノ蔵",
      "lat": 37.441467664,
      "lng": 140.488750209,
      "geocoding_level": 8,
      "phone": "0247-61-6757",
      "license_no": "2-50",
      "license_date": null,
      "expire_date": null
    },
    {
      "name": "カフェ　かくれ茶房",
      "name_kana": "",
      "business_type": "飲食店営業",
      "address": "田村郡三春町大字下舞木字石花４６",
      "lat": 37.417187459,
      "lng": 140.425684242,
      "geocoding_level": 8,
      "phone": "",
      "license_no": "2-74",
      "license_date": null,
      "expire_date": null
    },
    {
      "name": "フラットホワイトコーヒーファクトリー",
      "name_kana": "",
      "business_type": "飲食店営業",
      "address": "田村郡三春町大字斎藤字仁井道３４８－４",
      "lat": 37.388148434,
      "lng": 140.451242876,
      "geocoding_level": 8,
      "phone": "024-954-7042",
      "license_no": "2-72",
      "license_date": null,
      "expire_date": null
    },
    {
      "name": "ミニストップ三春上舞木店",
      "name_kana": "",
      "business_type": "飲食店営業",
      "address": "田村郡三春町大字上舞木字戸ノ内４８番地３",
      "lat": 37.419959213,
      "lng": 140.439687788,
      "geocoding_level": 8,
      "phone": "024-943-6795",
      "license_no": "2-78",
      "license_date": null,
      "expire_date": null
    },
    {
      "name": "カフェーブリキイヌ",
      "name_kana": "",
      "business_type": "菓子製造業",
      "address": "田村郡三春町字大町３２－１　みはる壱番館５Ｆ",
      "lat": 37.442013452,
      "lng": 140.489782447,
      "geocoding_level": 8,
      "phone": "",
      "license_no": "2-79",
      "license_date": null,
      "expire_date": null
    },
    {
      "name": "リベラル食堂",
      "name_kana": "",
      "business_type": "飲食店営業",
      "address": "田村郡三春町大字熊耳字大平１８５－２",
      "lat": 37.441047,
      "lng": 140.492575,
      "geocoding_level": 2,
      "phone": "0247-61-5578",
      "license_no": "2-35",
      "license_date": null,
      "expire_date": null
    },
    {
      "name": "割烹大音",
      "name_kana": "",
      "business_type": "飲食店営業",
      "address": "田村郡三春町字荒町１４１－１",
      "lat": 37.443090481,
      "lng": 140.48796506,
      "geocoding_level": 8,
      "phone": "0247-62-2556",
      "license_no": "2-39",
      "license_date": null,
      "expire_date": null
    },
    {
      "name": "ｏｎｅ　ｚｕ　ｇａｔｅ",
      "name_kana": "",
      "business_type": "飲食店営業",
      "address": "田村郡三春町大字斎藤字仁井道３４８－４",
      "lat": 37.388148434,
      "lng": 140.451242876,
      "geocoding_level": 8,
      "phone": "024-954-3980",
      "license_no": "1-78",
      "license_date": null,
      "expire_date": null
    },
    {
      "name": "Ａ－Ｓｔａｎｄ",
      "name_kana": "",
      "business_type": "飲食店営業",
      "address": "田村郡三春町大字斎藤字仁井道１２６",
      "lat": 37.441047,
      "lng": 140.492575,
      "geocoding_level": 2,
      "phone": "",
      "license_no": "1-88",
      "license_date": null,
      "expire_date": null
    },
    {
      "name": "Ｍｏｎ　ａｍｉ",
      "name_kana": "",
      "business_type": "飲食店営業",
      "address": "田村郡三春町字中町５２",
      "lat": 37.441211,
      "lng": 140.487833,
      "geocoding_level": 3,
      "phone": "0247-61-6777",
      "license_no": "1-107",
      "license_date": null,
      "expire_date": null
    },
    {
      "name": "Ｍｏｎ　ａｍｉ",
      "name_kana": "",
      "business_type": "菓子製造業",
      "address": "田村郡三春町字中町５２",
      "lat": 37.441211,
      "lng": 140.487833,
      "geocoding_level": 3,
      "phone": "0247-61-6777",
      "license_no": "1-108",
      "license_date": null,
      "expire_date": null
    },
    {
      "name": "サマンサの台所",
      "name_kana": "",
      "business_type": "飲食店営業",
      "address": "田村郡三春町字八幡町３",
      "lat": 37.440749526,
      "lng": 140.486093953,
      "geocoding_level": 8,
      "phone": "",
      "license_no": "1-113",
      "license_date": null,
      "expire_date": null
    },
    {
      "name": "伊藤精肉店株式会社",
      "name_kana": "",
      "business_type": "飲食店営業",
      "address": "田村郡三春町字渋池２８",
      "lat": 37.446188,
      "lng": 140.487518,
      "geocoding_level": 3,
      "phone": "0247-62-6161",
      "license_no": "1-138",
      "license_date": null,
      "expire_date": null
    },
    {
      "name": "伊藤精肉店株式会社",
      "name_kana": "",
      "business_type": "食肉販売業",
      "address": "田村郡三春町字渋池２８",
      "lat": 37.446188,
      "lng": 140.487518,
      "geocoding_level": 3,
      "phone": "0247-62-6161",
      "license_no": "1-113",
      "license_date": null,
      "expire_date": null
    },
    {
      "name": "ＲＥＴＯＷＡ（レトワ）",
      "name_kana": "",
      "business_type": "飲食店営業",
      "address": "田村郡三春町字化粧坂８８番地",
      "lat": 37.434252353,
      "lng": 140.496456012,
      "geocoding_level": 8,
      "phone": "0247-73-8521",
      "license_no": "1-146",
      "license_date": null,
      "expire_date": null
    },
    {
      "name": "ＲＥＴＯＷＡ（レトワ）",
      "name_kana": "",
      "business_type": "菓子製造業",
      "address": "田村郡三春町字化粧坂８８番地",
      "lat": 37.434252353,
      "lng": 140.496456012,
      "geocoding_level": 8,
      "phone": "0247-73-8521",
      "license_no": "1-34",
      "license_date": null,
      "expire_date": null
    },
    {
      "name": "デイリーヤマザキ三春町八島台店",
      "name_kana": "",
      "business_type": "飲食店営業",
      "address": "田村郡三春町八島台１丁目５－１０",
      "lat": 37.44726300000001,
      "lng": 140.486276,
      "geocoding_level": 3,
      "phone": "0247-62-8638",
      "license_no": "1-216",
      "license_date": null,
      "expire_date": null
    },
    {
      "name": "デイリーヤマザキ三春町八島台店",
      "name_kana": "",
      "business_type": "菓子製造業",
      "address": "田村郡三春町八島台１丁目５－１０",
      "lat": 37.44726300000001,
      "lng": 140.486276,
      "geocoding_level": 3,
      "phone": "0247-62-8638",
      "license_no": "1-217",
      "license_date": null,
      "expire_date": null
    },
    {
      "name": "えすぺり",
      "name_kana": "",
      "business_type": "飲食店営業",
      "address": "田村郡三春町桜ケ丘３丁目２－３",
      "lat": 37.436298,
      "lng": 140.501737,
      "geocoding_level": 3,
      "phone": "0247-73-8075",
      "license_no": "1-6",
      "license_date": null,
      "expire_date": null
    },
    {
      "name": "ヨークベニマル三春店",
      "name_kana": "",
      "business_type": "菓子製造業",
      "address": "田村郡三春町字中町８６　ヨークベニマル新三春店内",
      "lat": 37.441876289,
      "lng": 140.488295253,
      "geocoding_level": 8,
      "phone": "0247-62-2002",
      "license_no": "1-20",
      "license_date": null,
      "expire_date": null
    },
    {
      "name": "ｃａｆｅ　ｎａｎａｌａ",
      "name_kana": "",
      "business_type": "飲食店営業",
      "address": "田村郡三春町大字西方字浮貝４２８－２",
      "lat": 37.408240595,
      "lng": 140.470199295,
      "geocoding_level": 8,
      "phone": "0247-61-6848",
      "license_no": "1-40",
      "license_date": null,
      "expire_date": null
    },
    {
      "name": "ｃａｆｅ　ｎａｎａｌａ",
      "name_kana": "",
      "business_type": "菓子製造業",
      "address": "田村郡三春町大字西方字浮貝４２８－２",
      "lat": 37.408240595,
      "lng": 140.470199295,
      "geocoding_level": 8,
      "phone": "0247-61-6848",
      "license_no": "1-31",
      "license_date": null,
      "expire_date": null
    },
    {
      "name": "桜工房",
      "name_kana": "",
      "business_type": "飲食店営業",
      "address": "田村郡三春町字荒町３９－１",
      "lat": 37.443571954,
      "lng": 140.486555843,
      "geocoding_level": 8,
      "phone": "0247-62-0201",
      "license_no": "1-52",
      "license_date": null,
      "expire_date": null
    },
    {
      "name": "さくらかふぇ　三春",
      "name_kana": "",
      "business_type": "飲食店営業",
      "address": "田村郡三春町字大町１３０",
      "lat": 37.442335,
      "lng": 140.492584,
      "geocoding_level": 3,
      "phone": "0247-61-4320",
      "license_no": "1-80",
      "license_date": null,
      "expire_date": null
    },
    {
      "name": "ｂｏｕｌａｎｇｅｒｉｅ　ｃａｎｕｒｅ",
      "name_kana": "",
      "business_type": "菓子製造業",
      "address": "田村郡三春町字大平１８２",
      "lat": 37.443834935,
      "lng": 140.505120132,
      "geocoding_level": 8,
      "phone": "",
      "license_no": "1-108",
      "license_date": null,
      "expire_date": null
    },
    {
      "name": "エンジン永作寮",
      "name_kana": "",
      "business_type": "飲食店営業",
      "address": "田村郡三春町字永作２２－１",
      "lat": 37.436231226000004,
      "lng": 140.508121035,
      "geocoding_level": 8,
      "phone": "",
      "license_no": "1-107",
      "license_date": null,
      "expire_date": null
    },
    {
      "name": "三春そば遊膳　たむら屋",
      "name_kana": "",
      "business_type": "飲食店営業",
      "address": "田村郡三春町大字鷹巣字北之内１００－１",
      "lat": 37.42329001,
      "lng": 140.459744372,
      "geocoding_level": 8,
      "phone": "0247-62-6470",
      "license_no": "1-150",
      "license_date": null,
      "expire_date": null
    },
    {
      "name": "ホルモン大豊　三春分店",
      "name_kana": "",
      "business_type": "飲食店営業",
      "address": "田村郡三春町大字山田字越井戸１－３",
      "lat": 37.429926595,
      "lng": 140.461162375,
      "geocoding_level": 8,
      "phone": "0247-73-8883",
      "license_no": "1-167",
      "license_date": null,
      "expire_date": null
    },
    {
      "name": "Ａｌｂａｒｏ",
      "name_kana": "",
      "business_type": "飲食店営業",
      "address": "田村郡三春町字大町１１４",
      "lat": 37.442335,
      "lng": 140.492584,
      "geocoding_level": 3,
      "phone": "",
      "license_no": "1-172",
      "license_date": null,
      "expire_date": null
    },
    {
      "name": "Ａｌｂａｒｏ",
      "name_kana": "",
      "business_type": "菓子製造業",
      "address": "田村郡三春町字大町１１４",
      "lat": 37.442335,
      "lng": 140.492584,
      "geocoding_level": 3,
      "phone": "",
      "license_no": "1-173",
      "license_date": null,
      "expire_date": null
    },
    {
      "name": "売店みはる",
      "name_kana": "",
      "business_type": "喫茶店営業",
      "address": "田村郡三春町字六升蒔５０番地",
      "lat": 37.447338,
      "lng": 140.495337,
      "geocoding_level": 3,
      "phone": "",
      "license_no": "1-6",
      "license_date": null,
      "expire_date": null
    },
    {
      "name": "メフォス５１５７３号店",
      "name_kana": "",
      "business_type": "飲食店営業",
      "address": "田村郡三春町大字柴原字神久保２３５　（三春町さくら共同調理場）",
      "lat": 37.441047,
      "lng": 140.492575,
      "geocoding_level": 2,
      "phone": "0247-62-3091",
      "license_no": "1-19",
      "license_date": null,
      "expire_date": null
    },
    {
      "name": "三春昭進堂",
      "name_kana": "",
      "business_type": "菓子製造業",
      "address": "田村郡三春町字新町１６０－４",
      "lat": 37.436583566,
      "lng": 140.496923039,
      "geocoding_level": 8,
      "phone": "0247-62-2272",
      "license_no": "1-30",
      "license_date": null,
      "expire_date": null
    },
    {
      "name": "メフォス５２３４９号店",
      "name_kana": "",
      "business_type": "飲食店営業",
      "address": "田村郡三春町大字上舞木字向田５３（三春町立岩江中学校）",
      "lat": 37.441047,
      "lng": 140.492575,
      "geocoding_level": 2,
      "phone": "0247-62-8290",
      "license_no": "1-25",
      "license_date": null,
      "expire_date": null
    },
    {
      "name": "メフォス５１５７４号店",
      "name_kana": "",
      "business_type": "飲食店営業",
      "address": "田村郡三春町大字富沢字楢梨池頭７６",
      "lat": 37.488264518,
      "lng": 140.536866661,
      "geocoding_level": 8,
      "phone": "0247-62-3725",
      "license_no": "1-20",
      "license_date": null,
      "expire_date": null
    },
    {
      "name": "メフォス５１８６７号店",
      "name_kana": "",
      "business_type": "飲食店営業",
      "address": "田村郡三春町大字貝山字泉沢１００－４",
      "lat": 37.430020415,
      "lng": 140.492823541,
      "geocoding_level": 8,
      "phone": "0247-62-2181",
      "license_no": "1-21",
      "license_date": null,
      "expire_date": null
    },
    {
      "name": "メフォス５２０３１号店",
      "name_kana": "",
      "business_type": "飲食店営業",
      "address": "田村郡三春町字大町１５７",
      "lat": 37.442335,
      "lng": 140.492584,
      "geocoding_level": 3,
      "phone": "0247-62-3101",
      "license_no": "1-22",
      "license_date": null,
      "expire_date": null
    },
    {
      "name": "メフォス５２３４７号店",
      "name_kana": "",
      "business_type": "飲食店営業",
      "address": "田村郡三春町大字上舞木字大谷ツ２４　（三春町立岩江小学校）",
      "lat": 37.441047,
      "lng": 140.492575,
      "geocoding_level": 2,
      "phone": "024-956-2120",
      "license_no": "1-50",
      "license_date": null,
      "expire_date": null
    },
    {
      "name": "三春インターブルーベリー園",
      "name_kana": "",
      "business_type": "飲食店営業",
      "address": "田村郡三春町大字熊耳字中田２９－１",
      "lat": 37.446436289,
      "lng": 140.524152639,
      "geocoding_level": 8,
      "phone": "",
      "license_no": "1-70",
      "license_date": null,
      "expire_date": null
    },
    {
      "name": "のんちゃん　カラオケ",
      "name_kana": "",
      "business_type": "飲食店営業",
      "address": "田村郡三春町字中町７９－イ",
      "lat": 37.441211,
      "lng": 140.487833,
      "geocoding_level": 3,
      "phone": "",
      "license_no": "1-96",
      "license_date": null,
      "expire_date": null
    },
    {
      "name": "您好",
      "name_kana": "",
      "business_type": "菓子製造業",
      "address": "田村郡三春町大字南成田字白光内１",
      "lat": 37.441047,
      "lng": 140.492575,
      "geocoding_level": 2,
      "phone": "",
      "license_no": "1-133",
      "license_date": null,
      "expire_date": null
    },
    {
      "name": "您好",
      "name_kana": "",
      "business_type": "そうざい製造業",
      "address": "田村郡三春町大字南成田字白光内１",
      "lat": 37.441047,
      "lng": 140.492575,
      "geocoding_level": 2,
      "phone": "",
      "license_no": "1-132",
      "license_date": null,
      "expire_date": null
    },
    {
      "name": "渡辺商店・居酒屋政",
      "name_kana": "",
      "business_type": "飲食店営業",
      "address": "田村郡三春町字恵下越２－１",
      "lat": 37.435990647,
      "lng": 140.492870602,
      "geocoding_level": 8,
      "phone": "",
      "license_no": "1-168",
      "license_date": null,
      "expire_date": null
    },
    {
      "name": "セブン－イレブン三春インター店",
      "name_kana": "",
      "business_type": "飲食店営業",
      "address": "田村郡三春町大字熊耳字神山２５９－１",
      "lat": 37.446141622,
      "lng": 140.520689048,
      "geocoding_level": 8,
      "phone": "0247-62-5711",
      "license_no": "1-177",
      "license_date": null,
      "expire_date": null
    },
    {
      "name": "そばの駅三春門前",
      "name_kana": "",
      "business_type": "飲食店営業",
      "address": "田村郡三春町大字熊耳字古殿１－１",
      "lat": 37.44866792,
      "lng": 140.512979413,
      "geocoding_level": 8,
      "phone": "0247-62-4855",
      "license_no": "1-20",
      "license_date": null,
      "expire_date": null
    },
    {
      "name": "韓国家庭料理　こ家",
      "name_kana": "",
      "business_type": "そうざい製造業",
      "address": "田村郡三春町大字西方字石畑１５２",
      "lat": 37.441047,
      "lng": 140.492575,
      "geocoding_level": 2,
      "phone": "",
      "license_no": "1-26",
      "license_date": null,
      "expire_date": null
    },
    {
      "name": "ＣＲＥＰＥ　ＮＥＣＯ",
      "name_kana": "",
      "business_type": "菓子製造業",
      "address": "田村郡三春町大字御祭字津摩６０－５",
      "lat": 37.468393405,
      "lng": 140.497047009,
      "geocoding_level": 8,
      "phone": "",
      "license_no": "1-101",
      "license_date": null,
      "expire_date": null
    },
    {
      "name": "ジンギスカンＰｅｃｏ",
      "name_kana": "",
      "business_type": "飲食店営業",
      "address": "田村郡三春町大字西方字石畑４８７－１　三春の里田園生活館敷地内",
      "lat": 37.410729026,
      "lng": 140.472024085,
      "geocoding_level": 8,
      "phone": "",
      "license_no": "1-3",
      "license_date": null,
      "expire_date": null
    },
    {
      "name": "Ｇｅｌａｔｅｒｉａ　Ｍａｔｔｅｏ",
      "name_kana": "",
      "business_type": "菓子製造業",
      "address": "田村郡三春町大字西方字石畑４８７－１　三春の里田園生活館敷地内",
      "lat": 37.410729026,
      "lng": 140.472024085,
      "geocoding_level": 8,
      "phone": "070-9131-0415",
      "license_no": "1-4",
      "license_date": null,
      "expire_date": null
    },
    {
      "name": "Ｇｅｌａｔｅｒｉａ　Ｍａｔｔｅｏ",
      "name_kana": "",
      "business_type": "アイスクリーム類製造業",
      "address": "田村郡三春町大字西方字石畑４８７－１　三春の里田園生活館敷地内",
      "lat": 37.410729026,
      "lng": 140.472024085,
      "geocoding_level": 8,
      "phone": "070-9131-0415",
      "license_no": "1-5",
      "license_date": null,
      "expire_date": null
    },
    {
      "name": "メフォス北日本　５２５０２号店",
      "name_kana": "",
      "business_type": "飲食店営業",
      "address": "田村郡三春町字深作２０－１　（三春工業株式会社内）",
      "lat": 37.434496,
      "lng": 140.51891,
      "geocoding_level": 3,
      "phone": "024-762-5121",
      "license_no": "1-15",
      "license_date": null,
      "expire_date": null
    },
    {
      "name": "ふるや農園",
      "name_kana": "",
      "business_type": "飲食店営業",
      "address": "田村郡三春町大字斎藤字仁井道３４８－４　ブリトマート内",
      "lat": 37.388148434,
      "lng": 140.451242876,
      "geocoding_level": 8,
      "phone": "090-8264-5393",
      "license_no": "1-53",
      "license_date": null,
      "expire_date": null
    },
    {
      "name": "セブンイレブン三春斉藤店",
      "name_kana": "",
      "business_type": "飲食店営業",
      "address": "田村郡三春町大字斎藤字場上田２４６－１",
      "lat": 37.395146204,
      "lng": 140.451936392,
      "geocoding_level": 8,
      "phone": "024-956-7707",
      "license_no": "1-81",
      "license_date": null,
      "expire_date": null
    },
    {
      "name": "ミニストップ三春町バイパス店",
      "name_kana": "",
      "business_type": "飲食店営業",
      "address": "田村郡三春町大字貝山字岩田６１－１",
      "lat": 37.435828703,
      "lng": 140.486048853,
      "geocoding_level": 8,
      "phone": "0247-62-8656",
      "license_no": "1-107",
      "license_date": null,
      "expire_date": null
    },
    {
      "name": "多喜の家　アカネサス",
      "name_kana": "",
      "business_type": "飲食店営業",
      "address": "田村郡三春町字中町３４",
      "lat": 37.440888268,
      "lng": 140.487373683,
      "geocoding_level": 8,
      "phone": "0247-61-7333",
      "license_no": "1-155",
      "license_date": null,
      "expire_date": null
    },
    {
      "name": "作業員宿舎",
      "name_kana": "",
      "business_type": "飲食店営業",
      "address": "田村郡三春町大字貝山字沼倉３７０－２５",
      "lat": 37.433870142,
      "lng": 140.475646451,
      "geocoding_level": 8,
      "phone": "0223-35-6616",
      "license_no": "1-71",
      "license_date": null,
      "expire_date": null
    },
    {
      "name": "職員棟",
      "name_kana": "",
      "business_type": "飲食店営業",
      "address": "田村郡三春町大字貝山字沼倉３７０－２５",
      "lat": 37.433870142,
      "lng": 140.475646451,
      "geocoding_level": 8,
      "phone": "0223-35-6616",
      "license_no": "1-72",
      "license_date": null,
      "expire_date": null
    },
    {
      "name": "株式会社フナダスタジオ",
      "name_kana": "",
      "business_type": "菓子製造業",
      "address": "田村郡三春町大字鷹巣字瀬山２１３",
      "lat": 37.41516086,
      "lng": 140.471379444,
      "geocoding_level": 8,
      "phone": "0247-61-7898",
      "license_no": "1-107",
      "license_date": null,
      "expire_date": null
    },
    {
      "name": "株式会社フナダスタジオ",
      "name_kana": "",
      "business_type": "密封包装食品製造業",
      "address": "田村郡三春町大字鷹巣字瀬山２１３",
      "lat": 37.41516086,
      "lng": 140.471379444,
      "geocoding_level": 8,
      "phone": "0247-61-7898",
      "license_no": "1-50",
      "license_date": null,
      "expire_date": null
    },
    {
      "name": "三春キッチンベース",
      "name_kana": "",
      "business_type": "飲食店営業",
      "address": "田村郡三春町大字熊耳字十石窪７８",
      "lat": 37.441047,
      "lng": 140.492575,
      "geocoding_level": 2,
      "phone": "0247-61-7907",
      "license_no": "1-119",
      "license_date": null,
      "expire_date": null
    },
    {
      "name": "ＣｕｒｒｙＣａｆｅ　でここ",
      "name_kana": "",
      "business_type": "飲食店営業",
      "address": "田村郡三春町字大町３２－１　壱番館Ｂ１Ｆ",
      "lat": 37.442013452,
      "lng": 140.489782447,
      "geocoding_level": 8,
      "phone": "",
      "license_no": "1-131",
      "license_date": null,
      "expire_date": null
    },
    {
      "name": "ランチ＆バー　麦",
      "name_kana": "",
      "business_type": "飲食店営業",
      "address": "田村郡三春町桜ケ丘１丁目４－６",
      "lat": 37.434176,
      "lng": 140.49816,
      "geocoding_level": 3,
      "phone": "",
      "license_no": "1-144",
      "license_date": null,
      "expire_date": null
    },
    {
      "name": "４９６５１事業所",
      "name_kana": "",
      "business_type": "飲食店営業",
      "address": "田村郡三春町大字上舞木字戸ノ内１２１－１",
      "lat": 37.42168589,
      "lng": 140.438869055,
      "geocoding_level": 8,
      "phone": "024-956-2727",
      "license_no": "1-150",
      "license_date": null,
      "expire_date": null
    },
    {
      "name": "テイクアウトコーヒー　西村",
      "name_kana": "",
      "business_type": "飲食店営業",
      "address": "田村郡三春町字大町１１１",
      "lat": 37.442603271,
      "lng": 140.490175797,
      "geocoding_level": 8,
      "phone": "0247-62-3268",
      "license_no": "1-160",
      "license_date": null,
      "expire_date": null
    },
    {
      "name": "Ｈｏｎｊｉｎ",
      "name_kana": "",
      "business_type": "飲食店営業",
      "address": "田村郡三春町字中町２　三ノ蔵",
      "lat": 37.441752886,
      "lng": 140.489080665,
      "geocoding_level": 8,
      "phone": "",
      "license_no": "1-161",
      "license_date": null,
      "expire_date": null
    },
    {
      "name": "花と喫茶室　ｓａｎｐｏ",
      "name_kana": "",
      "business_type": "飲食店営業",
      "address": "田村郡三春町字荒町３８－３",
      "lat": 37.443605718,
      "lng": 140.487243277,
      "geocoding_level": 8,
      "phone": "",
      "license_no": "1-13",
      "license_date": null,
      "expire_date": null
    },
    {
      "name": "花と喫茶室　ｓａｎｐｏ",
      "name_kana": "",
      "business_type": "菓子製造業",
      "address": "田村郡三春町字荒町３８－３",
      "lat": 37.443605718,
      "lng": 140.487243277,
      "geocoding_level": 8,
      "phone": "",
      "license_no": "1-18",
      "license_date": null,
      "expire_date": null
    },
    {
      "name": "作業員宿舎Ｂ棟",
      "name_kana": "",
      "business_type": "飲食店営業",
      "address": "田村郡三春町大字貝山字沼倉３７０－２５",
      "lat": 37.433870142,
      "lng": 140.475646451,
      "geocoding_level": 8,
      "phone": "",
      "license_no": "1-19",
      "license_date": null,
      "expire_date": null
    },
    {
      "name": "ｃｈｏｃｏｌａｔｅ　３",
      "name_kana": "",
      "business_type": "菓子製造業",
      "address": "田村郡三春町字中町１５－１",
      "lat": 37.441104857,
      "lng": 140.487983007,
      "geocoding_level": 8,
      "phone": "",
      "license_no": "1-69",
      "license_date": null,
      "expire_date": null
    },
    {
      "name": "こころ斎苑　三春　さくらホール",
      "name_kana": "",
      "business_type": "飲食店営業",
      "address": "田村郡三春町八島台４丁目１－１",
      "lat": 37.444065,
      "lng": 140.478157,
      "geocoding_level": 3,
      "phone": "0247-62-1111",
      "license_no": "1-108",
      "license_date": null,
      "expire_date": null
    },
    {
      "name": "三春センター　デイサービス",
      "name_kana": "",
      "business_type": "飲食店営業",
      "address": "田村郡三春町大字山田字クルミヤツ１５－２－３",
      "lat": 37.441047,
      "lng": 140.492575,
      "geocoding_level": 2,
      "phone": "024-954-6851",
      "license_no": "1-112",
      "license_date": null,
      "expire_date": null
    },
    {
      "name": "三春センター　居住棟",
      "name_kana": "",
      "business_type": "飲食店営業",
      "address": "田村郡三春町大字山田字クルミヤツ１５－２－３",
      "lat": 37.441047,
      "lng": 140.492575,
      "geocoding_level": 2,
      "phone": "024-954-6851",
      "license_no": "1-113",
      "license_date": null,
      "expire_date": null
    },
    {
      "name": "北町酒場",
      "name_kana": "",
      "business_type": "飲食店営業",
      "address": "田村郡三春町字北町３６－１",
      "lat": 37.444189993,
      "lng": 140.492509604,
      "geocoding_level": 8,
      "phone": "",
      "license_no": "1-116",
      "license_date": null,
      "expire_date": null
    },
    {
      "name": "ミルクのおうち",
      "name_kana": "",
      "business_type": "飲食店営業",
      "address": "田村郡三春町大字滝字桜久保１１８",
      "lat": 37.406373248,
      "lng": 140.498754635,
      "geocoding_level": 8,
      "phone": "",
      "license_no": "1-122",
      "license_date": null,
      "expire_date": null
    },
    {
      "name": "ヨークベニマル三春店",
      "name_kana": "ヨークベニマルミハルテン",
      "business_type": "⑪ 百貨店、総合スーパー",
      "address": "福島県田村郡三春町中町86番地",
      "lat": 37.441883,
      "lng": 140.487932,
      "geocoding_level": null,
      "phone": "0247-62-2002",
      "license_no": "",
      "license_date": null,
      "expire_date": null
    },
    {
      "name": "やわらぎの湯",
      "name_kana": "ヤワラギノユ",
      "business_type": "⑫ 自動販売機による販売業（コップ式自動販売機（自動洗浄・屋内設置）及び営業許可の対象となる自動販売機を除く）",
      "address": "福島県田村郡三春町馬場224",
      "lat": 37.434735,
      "lng": 140.489857,
      "geocoding_level": null,
      "phone": "",
      "license_no": "",
      "license_date": null,
      "expire_date": null
    },
    {
      "name": "Coffee Beans No.2",
      "name_kana": "コーヒー　ビーンズ　ナンバーツー",
      "business_type": "⑯ コーヒー製造・加工業（飲料の製造を除く。）",
      "address": "福島県田村郡三春町八島台八丁目1-32",
      "lat": 37.447336,
      "lng": 140.473809,
      "geocoding_level": null,
      "phone": "0247-62-4201",
      "license_no": "",
      "license_date": null,
      "expire_date": null
    },
    {
      "name": "郡山ヤクルト販売三春センター",
      "name_kana": "コオリヤマヤクルトハンバイミハルセンター",
      "business_type": "③ 乳類販売業",
      "address": "福島県田村郡三春町字北町158-4",
      "lat": 37.443155,
      "lng": 140.491639,
      "geocoding_level": null,
      "phone": "",
      "license_no": "",
      "license_date": null,
      "expire_date": null
    }
  ]
}
