{
  "meta": {
    "updated": 1783906731,
    "sources": [
      {
        "source": "奈良県食品営業許可施設一覧（奈良市を除く）",
        "license": "奈良県（出典明示・利用規約に従う）"
      },
      {
        "source": "厚生労働省 食品衛生申請等システム（オープンデータ）",
        "license": "公共データ利用規約（第1.0版, PDL1.0）"
      }
    ]
  },
  "data": [
    {
      "name": "ｕｍｅ，",
      "name_kana": "",
      "business_type": "飲食店営業",
      "address": "山辺郡山添村片平　４５２",
      "lat": 34.67152266,
      "lng": 136.06807283600003,
      "geocoding_level": 8,
      "phone": "",
      "license_no": "第0419273号",
      "license_date": "2019-12-10",
      "expire_date": "2026-10-31"
    },
    {
      "name": "ＩＮｔｏＯＵＴ　ＤＥＳＩＧＮ　ＤＯＯＲＳ",
      "name_kana": "",
      "business_type": "飲食店営業",
      "address": "山辺郡山添村峰寺　１２３－１",
      "lat": 34.679628507,
      "lng": 135.978056225,
      "geocoding_level": 8,
      "phone": "0743-89-1632",
      "license_no": "第0420065号",
      "license_date": "2020-05-26",
      "expire_date": "2026-10-31"
    },
    {
      "name": "ドライブイン　山添",
      "name_kana": "",
      "business_type": "飲食店営業",
      "address": "山辺郡山添村大西　９８４－１",
      "lat": 34.681215804,
      "lng": 136.038609875,
      "geocoding_level": 8,
      "phone": "0743-85-0502",
      "license_no": "第0420209号",
      "license_date": "2020-10-08",
      "expire_date": "2026-10-31"
    },
    {
      "name": "おおだい",
      "name_kana": "",
      "business_type": "飲食店営業",
      "address": "山辺郡山添村大西　７８－１",
      "lat": 34.679462017,
      "lng": 136.044359031,
      "geocoding_level": 8,
      "phone": "0743-85-0953",
      "license_no": "第0420214号",
      "license_date": "2020-10-09",
      "expire_date": "2026-10-31"
    },
    {
      "name": "新瀬醤油醸造場",
      "name_kana": "",
      "business_type": "しょうゆ製造業",
      "address": "山辺郡山添村北野　１３６０",
      "lat": 34.679070282,
      "lng": 135.990613867,
      "geocoding_level": 8,
      "phone": "0743-86-0303",
      "license_no": "第0185766号",
      "license_date": "2020-10-09",
      "expire_date": "2026-10-31"
    },
    {
      "name": "里舎（みちのりのやど）",
      "name_kana": "",
      "business_type": "飲食店営業",
      "address": "山辺郡山添村広代　１２２２",
      "lat": 34.681637687,
      "lng": 136.058818642,
      "geocoding_level": 8,
      "phone": "0743-85-0525",
      "license_no": "第0408036号",
      "license_date": "2020-10-09",
      "expire_date": "2026-10-31"
    },
    {
      "name": "わんぱくどうぶつえん",
      "name_kana": "",
      "business_type": "飲食店営業",
      "address": "山辺郡山添村桐山　３２",
      "lat": 34.679628552,
      "lng": 135.973420767,
      "geocoding_level": 8,
      "phone": "0743-89-0640",
      "license_no": "第0419291号",
      "license_date": "2020-01-09",
      "expire_date": "2026-10-31"
    },
    {
      "name": "チョコレ山添",
      "name_kana": "",
      "business_type": "飲食店営業",
      "address": "山辺郡山添村大字三ヶ谷スノ谷　１６３６－１",
      "lat": 34.654544,
      "lng": 136.020883,
      "geocoding_level": 3,
      "phone": "0743-87-0087",
      "license_no": "第0414249号",
      "license_date": "2020-10-30",
      "expire_date": "2026-10-31"
    },
    {
      "name": "ｃａｆｅぶどう",
      "name_kana": "",
      "business_type": "飲食店営業",
      "address": "山辺郡山添村毛原　１１１０",
      "lat": 34.635659546,
      "lng": 136.042040003,
      "geocoding_level": 8,
      "phone": "0743-89-5154",
      "license_no": "第0420257号",
      "license_date": "2020-12-04",
      "expire_date": "2027-10-31"
    },
    {
      "name": "特定非営利活動法人どうで",
      "name_kana": "",
      "business_type": "そうざい製造業",
      "address": "山辺郡山添村桐山　７４",
      "lat": 34.68063247,
      "lng": 135.973300461,
      "geocoding_level": 8,
      "phone": "",
      "license_no": "第0421099号",
      "license_date": "2021-06-16",
      "expire_date": "2027-10-31"
    },
    {
      "name": "モリのカフェ",
      "name_kana": "",
      "business_type": "露店飲食店営業",
      "address": "山辺郡山添村他県内一円（奈良市を除く）",
      "lat": 34.681261,
      "lng": 136.043797,
      "geocoding_level": 2,
      "phone": "",
      "license_no": "第0421132号",
      "license_date": "2021-08-06",
      "expire_date": "2026-10-31"
    },
    {
      "name": "ホテル山添",
      "name_kana": "",
      "business_type": "飲食店営業",
      "address": "山辺郡山添村遅瀬　９６５",
      "lat": 34.694939969,
      "lng": 136.057073825,
      "geocoding_level": 8,
      "phone": "0743-85-0111",
      "license_no": "第0421198号",
      "license_date": "2021-08-26",
      "expire_date": "2027-10-31"
    },
    {
      "name": "（有）恵夢経恵寿",
      "name_kana": "",
      "business_type": "食品の小分け業",
      "address": "山辺郡山添村岩屋　２１８",
      "lat": 34.649353832,
      "lng": 136.056681327,
      "geocoding_level": 8,
      "phone": "0743-87-0107",
      "license_no": "第0421448号",
      "license_date": "2021-10-22",
      "expire_date": "2027-10-31"
    },
    {
      "name": "福岡豆腐店",
      "name_kana": "",
      "business_type": "豆腐製造業",
      "address": "山辺郡山添村岩屋平瀬　３－１",
      "lat": 34.63660200000001,
      "lng": 136.060356,
      "geocoding_level": 3,
      "phone": "0595-61-1485",
      "license_no": "第0421449号",
      "license_date": "2021-10-22",
      "expire_date": "2027-10-31"
    },
    {
      "name": "ｃａｆｅ　ＳＵＮ　ＷＯＯＤ",
      "name_kana": "",
      "business_type": "飲食店営業",
      "address": "山辺郡山添村三ケ谷　１８１２－１",
      "lat": 34.64319212,
      "lng": 136.011984696,
      "geocoding_level": 8,
      "phone": "0743-87-2012",
      "license_no": "第0421450号",
      "license_date": "2021-10-22",
      "expire_date": "2027-10-31"
    },
    {
      "name": "大矢商店",
      "name_kana": "",
      "business_type": "飲食店営業",
      "address": "山辺郡山添村峰寺　１０５－１０",
      "lat": 34.679893115,
      "lng": 135.976276181,
      "geocoding_level": 8,
      "phone": "0743-86-0022",
      "license_no": "第0421454号",
      "license_date": "2021-10-22",
      "expire_date": "2027-10-31"
    },
    {
      "name": "大矢商店",
      "name_kana": "",
      "business_type": "魚介類販売業",
      "address": "山辺郡山添村峰寺　１０５－１０",
      "lat": 34.679893115,
      "lng": 135.976276181,
      "geocoding_level": 8,
      "phone": "0743-86-0022",
      "license_no": "第0421455号",
      "license_date": "2021-10-22",
      "expire_date": "2027-10-31"
    },
    {
      "name": "福豆",
      "name_kana": "",
      "business_type": "飲食店営業",
      "address": "山辺郡山添村岩屋平瀬　３－１",
      "lat": 34.63660200000001,
      "lng": 136.060356,
      "geocoding_level": 3,
      "phone": "0595-61-1485",
      "license_no": "第0421524号",
      "license_date": "2021-11-05",
      "expire_date": "2028-10-31"
    },
    {
      "name": "奈良白鳳カンツリークラブ",
      "name_kana": "",
      "business_type": "飲食店営業",
      "address": "山辺郡山添村切幡天津山　１３７０－２",
      "lat": 34.635221,
      "lng": 136.006846,
      "geocoding_level": 3,
      "phone": "0743-87-0331",
      "license_no": "第0421499号",
      "license_date": "2021-10-29",
      "expire_date": "2027-10-31"
    },
    {
      "name": "株式会社　やまと蜂蜜　山添工場",
      "name_kana": "",
      "business_type": "清涼飲料水製造業",
      "address": "山辺郡山添村切幡　１３６４",
      "lat": 34.635221,
      "lng": 136.006846,
      "geocoding_level": 3,
      "phone": "0743-87-0324",
      "license_no": "第0421639号",
      "license_date": "2022-01-13",
      "expire_date": "2028-10-31"
    },
    {
      "name": "株式会社　ヤマユー",
      "name_kana": "",
      "business_type": "密封包装食品製造業",
      "address": "山辺郡山添村松尾　５７５－８",
      "lat": 34.679664983,
      "lng": 135.974084475,
      "geocoding_level": 8,
      "phone": "0742-81-9635",
      "license_no": "第0421657号",
      "license_date": "2022-02-04",
      "expire_date": "2029-10-31"
    },
    {
      "name": "株式会社　やまと蜂蜜　山添工場",
      "name_kana": "",
      "business_type": "密封包装食品製造業",
      "address": "山辺郡山添村切幡　１３６４",
      "lat": 34.635221,
      "lng": 136.006846,
      "geocoding_level": 3,
      "phone": "0743-87-0324",
      "license_no": "第0421675号",
      "license_date": "2022-02-22",
      "expire_date": "2028-10-31"
    },
    {
      "name": "やまぞーえ",
      "name_kana": "",
      "business_type": "飲食店営業",
      "address": "山辺郡山添村峰寺　１１９－７",
      "lat": 34.679727806,
      "lng": 135.977758349,
      "geocoding_level": 8,
      "phone": "0743-86-0377",
      "license_no": "第0420129号",
      "license_date": "2020-07-10",
      "expire_date": "2026-10-31"
    },
    {
      "name": "山添村",
      "name_kana": "",
      "business_type": "自動車飲食店営業",
      "address": "山辺郡山添村他県内一円（奈良市を除く）",
      "lat": 34.681261,
      "lng": 136.043797,
      "geocoding_level": 2,
      "phone": "",
      "license_no": "第04220462号",
      "license_date": "2022-10-07",
      "expire_date": "2027-10-31"
    },
    {
      "name": "Ｈａｐｐｙ　Ｈａｐｐｙ　Ｙａｍａｔｏ　ｔｅａ",
      "name_kana": "",
      "business_type": "飲食店営業",
      "address": "山辺郡山添村大西　２７２－１",
      "lat": 34.680270373,
      "lng": 136.042582124,
      "geocoding_level": 8,
      "phone": "",
      "license_no": "第04220367号",
      "license_date": "2022-10-07",
      "expire_date": "2028-10-31"
    },
    {
      "name": "鶏屋サブロー",
      "name_kana": "",
      "business_type": "飲食店営業",
      "address": "山辺郡山添村岩屋　１３３３",
      "lat": 34.645861014,
      "lng": 136.056718568,
      "geocoding_level": 8,
      "phone": "0743-87-0246",
      "license_no": "第04220453号",
      "license_date": "2022-10-21",
      "expire_date": "2028-10-31"
    },
    {
      "name": "ブックカフェ　ひろせ",
      "name_kana": "",
      "business_type": "飲食店営業",
      "address": "山辺郡山添村広瀬　２５５－１",
      "lat": 34.676476385,
      "lng": 136.078488477,
      "geocoding_level": 8,
      "phone": "",
      "license_no": "第04220454号",
      "license_date": "2022-10-21",
      "expire_date": "2028-10-31"
    },
    {
      "name": "タ窪田商店",
      "name_kana": "",
      "business_type": "飲食店営業",
      "address": "山辺郡山添村西波多　１７８",
      "lat": 34.680239453,
      "lng": 136.030355464,
      "geocoding_level": 8,
      "phone": "0743-85-0408",
      "license_no": "第04220455号",
      "license_date": "2022-10-21",
      "expire_date": "2028-10-31"
    },
    {
      "name": "タ窪田商店",
      "name_kana": "",
      "business_type": "魚介類販売業",
      "address": "山辺郡山添村西波多　１７８",
      "lat": 34.680239453,
      "lng": 136.030355464,
      "geocoding_level": 8,
      "phone": "0743-85-0408",
      "license_no": "第04220456号",
      "license_date": "2022-10-21",
      "expire_date": "2028-10-31"
    },
    {
      "name": "名阪スポーツランド",
      "name_kana": "",
      "business_type": "飲食店営業",
      "address": "山辺郡山添村切幡　１３４３－１",
      "lat": 34.635840401,
      "lng": 135.996752795,
      "geocoding_level": 8,
      "phone": "0743-87-0007",
      "license_no": "第04220457号",
      "license_date": "2022-10-21",
      "expire_date": "2028-10-31"
    },
    {
      "name": "セルプたいよう",
      "name_kana": "",
      "business_type": "そうざい製造業",
      "address": "山辺郡山添村切幡　１４３２－１",
      "lat": 34.635221,
      "lng": 136.006846,
      "geocoding_level": 3,
      "phone": "0743-87-0918",
      "license_no": "第04220459号",
      "license_date": "2022-10-21",
      "expire_date": "2028-10-31"
    },
    {
      "name": "株式会社やまと蜂蜜　山添工場",
      "name_kana": "",
      "business_type": "酒類製造業",
      "address": "山辺郡山添村切幡　１３６４",
      "lat": 34.635221,
      "lng": 136.006846,
      "geocoding_level": 3,
      "phone": "0743-87-0324",
      "license_no": "第04220602号",
      "license_date": "2022-11-10",
      "expire_date": "2029-10-31"
    },
    {
      "name": "東豊ベース　ＨＢキッチン",
      "name_kana": "",
      "business_type": "自動車飲食店営業",
      "address": "山辺郡山添村他県内一円（奈良市を除く）",
      "lat": 34.681261,
      "lng": 136.043797,
      "geocoding_level": 2,
      "phone": "",
      "license_no": "第04220648号",
      "license_date": "2022-11-30",
      "expire_date": "2028-10-31"
    },
    {
      "name": "Ｂｅｌｌ　ｇｅｌａｔｅ",
      "name_kana": "",
      "business_type": "露店飲食店営業",
      "address": "山辺郡山添村他県内一円（奈良市を除く）",
      "lat": 34.681261,
      "lng": 136.043797,
      "geocoding_level": 2,
      "phone": "",
      "license_no": "第04220663号",
      "license_date": "2022-12-15",
      "expire_date": "2028-10-31"
    },
    {
      "name": "オークモントゴルフクラブレストラン",
      "name_kana": "",
      "business_type": "食肉販売業",
      "address": "山辺郡山添村岩屋　３３１６",
      "lat": 34.628647494,
      "lng": 136.068571144,
      "geocoding_level": 8,
      "phone": "0743-87-0934",
      "license_no": "第0420266号",
      "license_date": "2020-12-09",
      "expire_date": "2027-10-31"
    },
    {
      "name": "花き振興センター「交流施設」",
      "name_kana": "",
      "business_type": "飲食店営業",
      "address": "山辺郡山添村大西　１１１５－１",
      "lat": 34.682152453,
      "lng": 136.040355125,
      "geocoding_level": 8,
      "phone": "0743-85-0048",
      "license_no": "第04220776号",
      "license_date": "2023-03-24",
      "expire_date": "2029-10-31"
    },
    {
      "name": "なべくら・おやき",
      "name_kana": "",
      "business_type": "露店飲食店営業",
      "address": "山辺郡山添村他県内一円（奈良市を除く）",
      "lat": 34.681261,
      "lng": 136.043797,
      "geocoding_level": 2,
      "phone": "",
      "license_no": "第04220781号",
      "license_date": "2023-03-31",
      "expire_date": "2028-10-31"
    },
    {
      "name": "やまぞーえ",
      "name_kana": "",
      "business_type": "密封包装食品製造業",
      "address": "山辺郡山添村峰寺　１１９－７",
      "lat": 34.679727806,
      "lng": 135.977758349,
      "geocoding_level": 8,
      "phone": "0743-86-0377",
      "license_no": "第04230131号",
      "license_date": "2023-06-29",
      "expire_date": "2029-10-31"
    },
    {
      "name": "Ｒｏｏｔｓ",
      "name_kana": "",
      "business_type": "飲食店営業",
      "address": "山辺郡山添村菅生　１４６８",
      "lat": 34.669204449,
      "lng": 136.041068502,
      "geocoding_level": 8,
      "phone": "",
      "license_no": "第04230145号",
      "license_date": "2023-07-19",
      "expire_date": "2029-10-31"
    },
    {
      "name": "鉄板焼　せぇちゃん",
      "name_kana": "",
      "business_type": "露店飲食店営業",
      "address": "山辺郡山添村他県内一円（奈良市を除く）",
      "lat": 34.681261,
      "lng": 136.043797,
      "geocoding_level": 2,
      "phone": "",
      "license_no": "第04230155号",
      "license_date": "2023-07-28",
      "expire_date": "2028-10-31"
    },
    {
      "name": "アプリコット",
      "name_kana": "",
      "business_type": "自動車飲食店営業",
      "address": "山辺郡山添村他県内一円（奈良市を除く）",
      "lat": 34.681261,
      "lng": 136.043797,
      "geocoding_level": 2,
      "phone": "",
      "license_no": "第04230184号",
      "license_date": "2023-08-25",
      "expire_date": "2028-10-31"
    },
    {
      "name": "カラオケ　乾杯",
      "name_kana": "",
      "business_type": "飲食店営業",
      "address": "山辺郡山添村西波多　５０９６－４",
      "lat": 34.680553445,
      "lng": 136.03569117,
      "geocoding_level": 8,
      "phone": "",
      "license_no": "第04230402号",
      "license_date": "2023-10-17",
      "expire_date": "2029-10-31"
    },
    {
      "name": "大正屋",
      "name_kana": "",
      "business_type": "食肉販売業",
      "address": "山辺郡山添村大字箕輪　７３４",
      "lat": 34.666697,
      "lng": 136.011202,
      "geocoding_level": 3,
      "phone": "0743-87-0039",
      "license_no": "第04230403号",
      "license_date": "2023-10-17",
      "expire_date": "2029-10-31"
    },
    {
      "name": "大正屋",
      "name_kana": "",
      "business_type": "食肉処理業",
      "address": "山辺郡山添村大字箕輪　７３４",
      "lat": 34.666697,
      "lng": 136.011202,
      "geocoding_level": 3,
      "phone": "0743-87-0039",
      "license_no": "第04230404号",
      "license_date": "2023-10-17",
      "expire_date": "2029-10-31"
    },
    {
      "name": "フォレストパーク神野山　生産物直売所",
      "name_kana": "",
      "business_type": "そうざい製造業",
      "address": "山辺郡山添村大字伏拝　８８８－１",
      "lat": 34.659792,
      "lng": 135.996776,
      "geocoding_level": 3,
      "phone": "0743-87-0285",
      "license_no": "第04230406号",
      "license_date": "2023-10-17",
      "expire_date": "2030-10-31"
    },
    {
      "name": "味処　絆",
      "name_kana": "",
      "business_type": "飲食店営業",
      "address": "山辺郡山添村峰寺　１０５－１３",
      "lat": 34.67987635,
      "lng": 135.976834476,
      "geocoding_level": 8,
      "phone": "0743-86-0288",
      "license_no": "第04230407号",
      "license_date": "2023-10-17",
      "expire_date": "2029-10-31"
    },
    {
      "name": "自然派農場　しもかわ",
      "name_kana": "",
      "business_type": "露店飲食店営業",
      "address": "山辺郡山添村他県内一円（奈良市を除く）",
      "lat": 34.681261,
      "lng": 136.043797,
      "geocoding_level": 2,
      "phone": "",
      "license_no": "第04230443号",
      "license_date": "2023-10-30",
      "expire_date": "2028-10-31"
    },
    {
      "name": "Ａｎｎ　ｃａｆｅ　＆　Ｆａｒｍ",
      "name_kana": "",
      "business_type": "飲食店営業",
      "address": "山辺郡山添村毛原　６５４",
      "lat": 34.636083454,
      "lng": 136.038477506,
      "geocoding_level": 8,
      "phone": "",
      "license_no": "第04230567号",
      "license_date": "2023-12-20",
      "expire_date": "2030-10-31"
    },
    {
      "name": "ＨＢ　Ｃａｆｅ",
      "name_kana": "",
      "business_type": "飲食店営業",
      "address": "山辺郡山添村岩屋　２６６５",
      "lat": 34.642490823,
      "lng": 136.050844939,
      "geocoding_level": 8,
      "phone": "0743-87-0302",
      "license_no": "第04230678号",
      "license_date": "2024-03-29",
      "expire_date": "2030-10-31"
    },
    {
      "name": "山水荘",
      "name_kana": "",
      "business_type": "飲食店営業",
      "address": "山辺郡山添村遅瀬　５４７－３",
      "lat": 34.697302,
      "lng": 136.055026,
      "geocoding_level": 3,
      "phone": "",
      "license_no": "第04240063号",
      "license_date": "2024-05-20",
      "expire_date": "2030-10-31"
    },
    {
      "name": "大矢商店",
      "name_kana": "",
      "business_type": "食肉販売業",
      "address": "山辺郡山添村峰寺　１０５－１０",
      "lat": 34.679893115,
      "lng": 135.976276181,
      "geocoding_level": 8,
      "phone": "0743-86-0022",
      "license_no": "第04240089号",
      "license_date": "2024-05-31",
      "expire_date": "2030-10-31"
    },
    {
      "name": "東豊ベース　茶の実オイル研究所",
      "name_kana": "",
      "business_type": "食用油脂製造業",
      "address": "山辺郡山添村岩屋　２６６５",
      "lat": 34.642490823,
      "lng": 136.050844939,
      "geocoding_level": 8,
      "phone": "0743-87-0302",
      "license_no": "第04240093号",
      "license_date": "2024-05-31",
      "expire_date": "2030-10-31"
    },
    {
      "name": "亀谷",
      "name_kana": "",
      "business_type": "漬物製造業",
      "address": "山辺郡山添村大塩　１６４６",
      "lat": 34.678515394,
      "lng": 136.013389093,
      "geocoding_level": 8,
      "phone": "0743-87-0910",
      "license_no": "第04240148号",
      "license_date": "2024-07-03",
      "expire_date": "2030-10-31"
    },
    {
      "name": "一般社団法人東豊",
      "name_kana": "",
      "business_type": "露店飲食店営業",
      "address": "山辺郡山添村他県内一円（奈良市を除く）",
      "lat": 34.681261,
      "lng": 136.043797,
      "geocoding_level": 2,
      "phone": "",
      "license_no": "第04240150号",
      "license_date": "2024-05-31",
      "expire_date": "2029-10-31"
    },
    {
      "name": "魚忠　豊",
      "name_kana": "",
      "business_type": "露店飲食店営業",
      "address": "山辺郡山添村他　県内一円（奈良市を除く）",
      "lat": 34.681261,
      "lng": 136.043797,
      "geocoding_level": 2,
      "phone": "",
      "license_no": "第04240343号",
      "license_date": "2024-09-24",
      "expire_date": "2029-10-31"
    },
    {
      "name": "やまぞーえ",
      "name_kana": "",
      "business_type": "露店飲食店営業",
      "address": "山辺郡山添村他県内一円（奈良市を除く）",
      "lat": 34.681261,
      "lng": 136.043797,
      "geocoding_level": 2,
      "phone": "",
      "license_no": "第04240411号",
      "license_date": "2024-10-10",
      "expire_date": "2029-10-31"
    },
    {
      "name": "Ｂｅｌｌ　ｇｅｌａｔｏ",
      "name_kana": "",
      "business_type": "アイスクリーム類製造業",
      "address": "山辺郡山添村的野　４７９－２",
      "lat": 34.654690003,
      "lng": 135.969638963,
      "geocoding_level": 8,
      "phone": "",
      "license_no": "第04240495号",
      "license_date": "2024-10-28",
      "expire_date": "2030-10-31"
    },
    {
      "name": "中垣製麺株式会社",
      "name_kana": "",
      "business_type": "麺類製造業",
      "address": "山辺郡山添村切幡　６６６",
      "lat": 34.63778093,
      "lng": 136.009060961,
      "geocoding_level": 8,
      "phone": "0743-87-0338",
      "license_no": "第0421452号",
      "license_date": "2021-10-22",
      "expire_date": "2027-10-31"
    },
    {
      "name": "フォレストパーク神野山生産物直売所",
      "name_kana": "",
      "business_type": "食肉処理業",
      "address": "山辺郡山添村大字伏拝　８８８－１",
      "lat": 34.659792,
      "lng": 135.996776,
      "geocoding_level": 3,
      "phone": "0743-87-0285",
      "license_no": "第04240441号",
      "license_date": "2024-10-18",
      "expire_date": "2030-10-31"
    },
    {
      "name": "フォレストパーク神野山生産物直売所",
      "name_kana": "",
      "business_type": "食肉販売業",
      "address": "山辺郡山添村大字伏拝　８８８－１",
      "lat": 34.659792,
      "lng": 135.996776,
      "geocoding_level": 3,
      "phone": "0743-87-0285",
      "license_no": "第04240442号",
      "license_date": "2024-10-18",
      "expire_date": "2030-10-31"
    },
    {
      "name": "フォレストパーク神野山生産物直売所",
      "name_kana": "",
      "business_type": "飲食店営業",
      "address": "山辺郡山添村大字伏拝　８８８－１",
      "lat": 34.659792,
      "lng": 135.996776,
      "geocoding_level": 3,
      "phone": "0743-87-0285",
      "license_no": "第04240443号",
      "license_date": "2024-10-18",
      "expire_date": "2030-10-31"
    },
    {
      "name": "辰巳製麺所",
      "name_kana": "",
      "business_type": "麺類製造業",
      "address": "山辺郡山添村切幡　４４１",
      "lat": 34.636061153,
      "lng": 136.009655908,
      "geocoding_level": 8,
      "phone": "0743-87-0116",
      "license_no": "第04240445号",
      "license_date": "2024-10-18",
      "expire_date": "2030-10-31"
    },
    {
      "name": "里舎",
      "name_kana": "",
      "business_type": "豆腐製造業",
      "address": "山辺郡山添村広代　１２２２",
      "lat": 34.681637687,
      "lng": 136.058818642,
      "geocoding_level": 8,
      "phone": "0743-85-0525",
      "license_no": "第04240447号",
      "license_date": "2024-10-18",
      "expire_date": "2030-10-31"
    },
    {
      "name": "ｓｙｕ－ｋａｊｙｏｕ　ｃａｆｅ",
      "name_kana": "",
      "business_type": "飲食店営業",
      "address": "山辺郡山添村毛原　６２４",
      "lat": 34.632442,
      "lng": 136.038012,
      "geocoding_level": 3,
      "phone": "",
      "license_no": "第04240497号",
      "license_date": "2024-10-28",
      "expire_date": "2030-10-31"
    },
    {
      "name": "油重商店",
      "name_kana": "",
      "business_type": "飲食店営業",
      "address": "山辺郡山添村広代　１３６７－５",
      "lat": 34.68633912,
      "lng": 136.062426455,
      "geocoding_level": 8,
      "phone": "0743-85-0011",
      "license_no": "第0101481号",
      "license_date": "2020-10-09",
      "expire_date": "2026-10-31"
    },
    {
      "name": "油重商店",
      "name_kana": "",
      "business_type": "魚介類販売業",
      "address": "山辺郡山添村広代　１３６７－５",
      "lat": 34.68633912,
      "lng": 136.062426455,
      "geocoding_level": 8,
      "phone": "0743-85-0011",
      "license_no": "第0101482号",
      "license_date": "2020-10-09",
      "expire_date": "2026-10-31"
    },
    {
      "name": "森の焙煎屋",
      "name_kana": "",
      "business_type": "自動車飲食店営業",
      "address": "山辺郡山添村他県内一円（奈良市を除く）",
      "lat": 34.681261,
      "lng": 136.043797,
      "geocoding_level": 2,
      "phone": "",
      "license_no": "第04240575号",
      "license_date": "2025-01-08",
      "expire_date": "2030-10-31"
    },
    {
      "name": "ＲＵＤＥ　ＢＵＲＧＥＲ　ＣＬＵＢ",
      "name_kana": "",
      "business_type": "自動車飲食店営業",
      "address": "山辺郡山添村他県内一円（奈良市を除く）",
      "lat": 34.681261,
      "lng": 136.043797,
      "geocoding_level": 2,
      "phone": "",
      "license_no": "第04240606号",
      "license_date": "2025-02-12",
      "expire_date": "2030-10-31"
    },
    {
      "name": "まつだ食堂",
      "name_kana": "",
      "business_type": "自動車飲食店営業",
      "address": "山辺郡山添村他県内一円（奈良市を除く）",
      "lat": 34.681261,
      "lng": 136.043797,
      "geocoding_level": 2,
      "phone": "",
      "license_no": "第04240632号",
      "license_date": "2025-03-13",
      "expire_date": "2030-10-31"
    },
    {
      "name": "山添モンスーンヴィレッジ",
      "name_kana": "",
      "business_type": "飲食店営業",
      "address": "山辺郡山添村峰寺　１１９－７",
      "lat": 34.679727806,
      "lng": 135.977758349,
      "geocoding_level": 8,
      "phone": "0743-86-0377",
      "license_no": "第04250009号",
      "license_date": "2025-04-07",
      "expire_date": "2031-10-31"
    },
    {
      "name": "万壽ゴルフクラブ　クラブハウスレストラン",
      "name_kana": "",
      "business_type": "飲食店営業",
      "address": "山辺郡山添村切幡　１４２４",
      "lat": 34.635221,
      "lng": 136.006846,
      "geocoding_level": 3,
      "phone": "0743-87-0240",
      "license_no": "第04230408号",
      "license_date": "2023-10-17",
      "expire_date": "2029-10-31"
    },
    {
      "name": "万壽ゴルフクラブ　アウトコース売店",
      "name_kana": "",
      "business_type": "飲食店営業",
      "address": "山辺郡山添村切幡　１４２４",
      "lat": 34.635221,
      "lng": 136.006846,
      "geocoding_level": 3,
      "phone": "0743-87-0221",
      "license_no": "第04230410号",
      "license_date": "2023-10-17",
      "expire_date": "2029-10-31"
    },
    {
      "name": "万壽ゴルフクラブ　インコース売店",
      "name_kana": "",
      "business_type": "飲食店営業",
      "address": "山辺郡山添村切幡　１４２４",
      "lat": 34.635221,
      "lng": 136.006846,
      "geocoding_level": 3,
      "phone": "0743-87-0221",
      "license_no": "第04230409号",
      "license_date": "2023-10-17",
      "expire_date": "2029-10-31"
    },
    {
      "name": "ｏｎｃｅ’",
      "name_kana": "",
      "business_type": "飲食店営業",
      "address": "山辺郡山添村毛原　１３４６－１",
      "lat": 34.636035101,
      "lng": 136.044056954,
      "geocoding_level": 8,
      "phone": "",
      "license_no": "第04250187号",
      "license_date": "2025-08-27",
      "expire_date": "2031-10-31"
    },
    {
      "name": "こんぴら亭",
      "name_kana": "",
      "business_type": "自動車飲食店営業",
      "address": "山辺郡山添村他県内一円（奈良市を除く）",
      "lat": 34.681261,
      "lng": 136.043797,
      "geocoding_level": 2,
      "phone": "",
      "license_no": "第04250238号",
      "license_date": "2025-09-05",
      "expire_date": "2030-10-31"
    },
    {
      "name": "茶の里　映山紅",
      "name_kana": "",
      "business_type": "飲食店営業",
      "address": "山辺郡山添村伏拝　８８８－１",
      "lat": 34.659792,
      "lng": 135.996776,
      "geocoding_level": 3,
      "phone": "0743-87-0670",
      "license_no": "第04250287号",
      "license_date": "2025-09-30",
      "expire_date": "2031-10-31"
    },
    {
      "name": "茶の里　映山紅",
      "name_kana": "",
      "business_type": "食肉販売業",
      "address": "山辺郡山添村伏拝　８８８－１",
      "lat": 34.659792,
      "lng": 135.996776,
      "geocoding_level": 3,
      "phone": "0743-87-0670",
      "license_no": "第04250289号",
      "license_date": "2025-09-30",
      "expire_date": "2031-10-31"
    },
    {
      "name": "久保製麺所",
      "name_kana": "",
      "business_type": "麺類製造業",
      "address": "山辺郡山添村桐山　１５２－２５",
      "lat": 34.682885516,
      "lng": 135.972371998,
      "geocoding_level": 8,
      "phone": "0743-86-0208",
      "license_no": "第04250296号",
      "license_date": "2025-09-30",
      "expire_date": "2031-10-31"
    },
    {
      "name": "Ｌｕａｎａ　ｆｒｏｍ　一服屋",
      "name_kana": "",
      "business_type": "自動車飲食店営業",
      "address": "山辺郡山添村他県内一円（奈良市を除く）",
      "lat": 34.681261,
      "lng": 136.043797,
      "geocoding_level": 2,
      "phone": "",
      "license_no": "第04250347号",
      "license_date": "2025-10-01",
      "expire_date": "2030-10-31"
    },
    {
      "name": "オークモントゴルフクラブ　レストラン",
      "name_kana": "",
      "business_type": "飲食店営業",
      "address": "山辺郡山添村岩屋　３３１６",
      "lat": 34.628647494,
      "lng": 136.068571144,
      "geocoding_level": 8,
      "phone": "0743-87-0931",
      "license_no": "第04250384号",
      "license_date": "2025-10-24",
      "expire_date": "2031-10-31"
    },
    {
      "name": "茶店売店イースト",
      "name_kana": "",
      "business_type": "飲食店営業",
      "address": "山辺郡山添村岩屋　３３１６",
      "lat": 34.628647494,
      "lng": 136.068571144,
      "geocoding_level": 8,
      "phone": "0743-87-0931",
      "license_no": "第04250385号",
      "license_date": "2025-10-24",
      "expire_date": "2031-10-31"
    },
    {
      "name": "茶店売店ウエスト",
      "name_kana": "",
      "business_type": "飲食店営業",
      "address": "山辺郡山添村岩屋　３３１６",
      "lat": 34.628647494,
      "lng": 136.068571144,
      "geocoding_level": 8,
      "phone": "0743-87-0931",
      "license_no": "第04250386号",
      "license_date": "2025-10-24",
      "expire_date": "2031-10-31"
    },
    {
      "name": "茶店売店サウス",
      "name_kana": "",
      "business_type": "飲食店営業",
      "address": "山辺郡山添村岩屋　３３１６",
      "lat": 34.628647494,
      "lng": 136.068571144,
      "geocoding_level": 8,
      "phone": "0743-87-0931",
      "license_no": "第04250387号",
      "license_date": "2025-10-24",
      "expire_date": "2031-10-31"
    },
    {
      "name": "ＫＩＴＣＨＥＮ２６０",
      "name_kana": "",
      "business_type": "露店飲食店営業",
      "address": "山辺郡山添村他県内一円（奈良市を除く）",
      "lat": 34.681261,
      "lng": 136.043797,
      "geocoding_level": 2,
      "phone": "",
      "license_no": "第04250424号",
      "license_date": "2025-11-07",
      "expire_date": "2031-10-31"
    },
    {
      "name": "キッチンカーｍａｍｉ",
      "name_kana": "",
      "business_type": "露店飲食店営業",
      "address": "山辺郡山添村他県内一円（奈良市を除く）",
      "lat": 34.681261,
      "lng": 136.043797,
      "geocoding_level": 2,
      "phone": "",
      "license_no": "第04250571号",
      "license_date": "2026-02-17",
      "expire_date": "2031-10-31"
    },
    {
      "name": "ＩＮｔｏＯＵＴ　ＤＥＳＩＧＮ　ＤＯＯＲＳ",
      "name_kana": "",
      "business_type": "菓子製造業",
      "address": "山辺郡山添村峰寺　１２３－１",
      "lat": 34.679628507,
      "lng": 135.978056225,
      "geocoding_level": 8,
      "phone": "0743-89-1632",
      "license_no": "第0420072号",
      "license_date": "2020-05-29",
      "expire_date": "2026-10-31"
    },
    {
      "name": "上島商店",
      "name_kana": "",
      "business_type": "菓子製造業",
      "address": "山辺郡山添村勝原　６６１",
      "lat": 34.647216542,
      "lng": 136.038767434,
      "geocoding_level": 8,
      "phone": "0743-87-0737",
      "license_no": "第0402227号",
      "license_date": "2020-10-09",
      "expire_date": "2026-10-31"
    },
    {
      "name": "わんぱくどうぶつえん",
      "name_kana": "",
      "business_type": "菓子製造業",
      "address": "山辺郡山添村桐山　３２",
      "lat": 34.679628552,
      "lng": 135.973420767,
      "geocoding_level": 8,
      "phone": "0743-89-0640",
      "license_no": "第0419292号",
      "license_date": "2020-01-09",
      "expire_date": "2026-10-31"
    },
    {
      "name": "甲谷　照代",
      "name_kana": "",
      "business_type": "菓子製造業",
      "address": "山辺郡山添村勝原　１０７０",
      "lat": 34.649759351,
      "lng": 136.041397473,
      "geocoding_level": 8,
      "phone": "0743-87-0557",
      "license_no": "第0421451号",
      "license_date": "2021-10-22",
      "expire_date": "2027-10-31"
    },
    {
      "name": "山添村生活改善グループ菓子製造所",
      "name_kana": "",
      "business_type": "菓子製造業",
      "address": "山辺郡山添村大西　６９　山添村総合スポーツセンター研修棟",
      "lat": 34.679215379,
      "lng": 136.04516083300004,
      "geocoding_level": 8,
      "phone": "0743-85-0206",
      "license_no": "第0421453号",
      "license_date": "2021-10-22",
      "expire_date": "2027-10-31"
    },
    {
      "name": "やまぞーえ",
      "name_kana": "",
      "business_type": "菓子製造業",
      "address": "山辺郡山添村峰寺　１１９－７",
      "lat": 34.679727806,
      "lng": 135.977758349,
      "geocoding_level": 8,
      "phone": "0743-86-0377",
      "license_no": "第0419321号",
      "license_date": "2020-02-12",
      "expire_date": "2026-10-31"
    },
    {
      "name": "株式会社やまと蜂蜜　山添工場",
      "name_kana": "",
      "business_type": "菓子製造業",
      "address": "山辺郡山添村切幡　１３６４",
      "lat": 34.635221,
      "lng": 136.006846,
      "geocoding_level": 3,
      "phone": "0743-87-0324",
      "license_no": "第04220436号",
      "license_date": "2022-10-13",
      "expire_date": "2028-10-31"
    },
    {
      "name": "セルプたいよう",
      "name_kana": "",
      "business_type": "菓子製造業",
      "address": "山辺郡山添村切幡　１４３２－１",
      "lat": 34.635221,
      "lng": 136.006846,
      "geocoding_level": 3,
      "phone": "0743-87-0918",
      "license_no": "第04220458号",
      "license_date": "2022-10-21",
      "expire_date": "2028-10-31"
    },
    {
      "name": "オークモントゴルフクラブレストラン",
      "name_kana": "",
      "business_type": "菓子製造業",
      "address": "山辺郡山添村岩屋　３３１６",
      "lat": 34.628647494,
      "lng": 136.068571144,
      "geocoding_level": 8,
      "phone": "0743-87-0934",
      "license_no": "第0420265号",
      "license_date": "2020-12-09",
      "expire_date": "2027-10-31"
    },
    {
      "name": "花き振興センター「交流施設」",
      "name_kana": "",
      "business_type": "菓子製造業",
      "address": "山辺郡山添村大西　１１１５－１",
      "lat": 34.682152453,
      "lng": 136.040355125,
      "geocoding_level": 8,
      "phone": "0743-85-0048",
      "license_no": "第04220777号",
      "license_date": "2023-03-24",
      "expire_date": "2029-10-31"
    },
    {
      "name": "（有）恵夢経恵寿",
      "name_kana": "",
      "business_type": "菓子製造業",
      "address": "山辺郡山添村岩屋　２３７",
      "lat": 34.648797478,
      "lng": 136.057151867,
      "geocoding_level": 8,
      "phone": "0743-87-0107",
      "license_no": "第04230399号",
      "license_date": "2023-10-17",
      "expire_date": "2029-10-31"
    },
    {
      "name": "茶谷　いず美",
      "name_kana": "",
      "business_type": "菓子製造業",
      "address": "山辺郡山添村助命　３００",
      "lat": 34.654171,
      "lng": 136.004599,
      "geocoding_level": 3,
      "phone": "0743-87-0744",
      "license_no": "第04230400号",
      "license_date": "2023-10-17",
      "expire_date": "2029-10-31"
    },
    {
      "name": "中上　千代子",
      "name_kana": "",
      "business_type": "菓子製造業",
      "address": "山辺郡山添村大字菅生　１４４２",
      "lat": 34.668679129,
      "lng": 136.040842564,
      "geocoding_level": 8,
      "phone": "0743-85-0007",
      "license_no": "第04230401号",
      "license_date": "2023-10-17",
      "expire_date": "2029-10-31"
    },
    {
      "name": "Ｂｅｌｌ　ｇｅｌａｔｏ",
      "name_kana": "",
      "business_type": "菓子製造業",
      "address": "山辺郡山添村的野　４７９－２",
      "lat": 34.654690003,
      "lng": 135.969638963,
      "geocoding_level": 8,
      "phone": "",
      "license_no": "第04240496号",
      "license_date": "2024-10-28",
      "expire_date": "2030-10-31"
    },
    {
      "name": "フォレストパーク神野山生産物直売所",
      "name_kana": "",
      "business_type": "菓子製造業",
      "address": "山辺郡山添村大字伏拝　８８８－１",
      "lat": 34.659792,
      "lng": 135.996776,
      "geocoding_level": 3,
      "phone": "0743-87-0285",
      "license_no": "第04240444号",
      "license_date": "2024-10-18",
      "expire_date": "2030-10-31"
    },
    {
      "name": "茶の里　映山紅",
      "name_kana": "",
      "business_type": "菓子製造業",
      "address": "山辺郡山添村伏拝　８８８－１",
      "lat": 34.659792,
      "lng": 135.996776,
      "geocoding_level": 3,
      "phone": "0743-87-0670",
      "license_no": "第04250288号",
      "license_date": "2025-09-30",
      "expire_date": "2031-10-31"
    },
    {
      "name": "かくしあじの会",
      "name_kana": "",
      "business_type": "菓子製造業",
      "address": "山辺郡山添村勝原　８５６",
      "lat": 34.648581447,
      "lng": 136.038444678,
      "geocoding_level": 8,
      "phone": "0743-87-0727",
      "license_no": "第04250290号",
      "license_date": "2025-09-30",
      "expire_date": "2031-10-31"
    },
    {
      "name": "萩本　佐千代",
      "name_kana": "",
      "business_type": "菓子製造業",
      "address": "山辺郡山添村大塩　９５９",
      "lat": 34.673739651,
      "lng": 136.008498846,
      "geocoding_level": 8,
      "phone": "0743-87-0782",
      "license_no": "第04250291号",
      "license_date": "2025-09-30",
      "expire_date": "2031-10-31"
    },
    {
      "name": "浦久保　政代",
      "name_kana": "",
      "business_type": "菓子製造業",
      "address": "山辺郡山添村大塩　１０４６－２",
      "lat": 34.673328352,
      "lng": 136.0094804,
      "geocoding_level": 8,
      "phone": "0743-87-0892",
      "license_no": "第04250300号",
      "license_date": "2025-09-30",
      "expire_date": "2031-10-31"
    },
    {
      "name": "株式会社やまと蜂蜜　山添工場",
      "name_kana": "カブシキガイシャヤマトハチミツ　ヤマゾエコウジョウ",
      "business_type": "⑥ 弁当販売業",
      "address": "奈良県山辺郡山添村切幡1364",
      "lat": 34.630492,
      "lng": 135.993199,
      "geocoding_level": null,
      "phone": "",
      "license_no": "",
      "license_date": null,
      "expire_date": null
    },
    {
      "name": "株式会社やまと蜂蜜　山添工場",
      "name_kana": "カブシキガイシャヤマトハチミツ　ヤマゾエコウジョウ",
      "business_type": "⑦ 野菜果物販売業",
      "address": "奈良県山辺郡山添村切幡1364",
      "lat": 34.630492,
      "lng": 135.993199,
      "geocoding_level": null,
      "phone": "",
      "license_no": "",
      "license_date": null,
      "expire_date": null
    },
    {
      "name": "株式会社やまと蜂蜜　山添工場",
      "name_kana": "カブシキガイシャヤマトハチミツ　ヤマゾエコウジョウ",
      "business_type": "⑨ 通信販売・訪問販売による販売業",
      "address": "奈良県山辺郡山添村切幡1364",
      "lat": 34.630492,
      "lng": 135.993199,
      "geocoding_level": null,
      "phone": "",
      "license_no": "",
      "license_date": null,
      "expire_date": null
    },
    {
      "name": "株式会社やまと蜂蜜　山添工場",
      "name_kana": "カブシキガイシャヤマトハチミツ　ヤマゾエコウジョウ",
      "business_type": "⑩ コンビニエンスストア",
      "address": "奈良県山辺郡山添村切幡1364",
      "lat": 34.630492,
      "lng": 135.993199,
      "geocoding_level": null,
      "phone": "",
      "license_no": "",
      "license_date": null,
      "expire_date": null
    },
    {
      "name": "株式会社やまと蜂蜜　山添工場",
      "name_kana": "カブシキガイシャヤマトハチミツ　ヤマゾエコウジョウ",
      "business_type": "⑬ その他の食料・飲料販売業",
      "address": "奈良県山辺郡山添村切幡1364",
      "lat": 34.630492,
      "lng": 135.993199,
      "geocoding_level": null,
      "phone": "",
      "license_no": "",
      "license_date": null,
      "expire_date": null
    },
    {
      "name": "株式会社やまと蜂蜜　山添工場",
      "name_kana": "カブシキガイシャヤマトハチミツ　ヤマゾエコウジョウ",
      "business_type": "⑮ いわゆる健康食品の製造・加工業",
      "address": "奈良県山辺郡山添村切幡1364",
      "lat": 34.630492,
      "lng": 135.993199,
      "geocoding_level": null,
      "phone": "",
      "license_no": "",
      "license_date": null,
      "expire_date": null
    },
    {
      "name": "株式会社やまと蜂蜜　山添工場",
      "name_kana": "カブシキガイシャヤマトハチミツ　ヤマゾエコウジョウ",
      "business_type": "⑯ コーヒー製造・加工業（飲料の製造を除く。）",
      "address": "奈良県山辺郡山添村切幡1364",
      "lat": 34.630492,
      "lng": 135.993199,
      "geocoding_level": null,
      "phone": "",
      "license_no": "",
      "license_date": null,
      "expire_date": null
    },
    {
      "name": "株式会社やまと蜂蜜　山添工場",
      "name_kana": "カブシキガイシャヤマトハチミツ　ヤマゾエコウジョウ",
      "business_type": "⑱ 調味料製造・加工業",
      "address": "奈良県山辺郡山添村切幡1364",
      "lat": 34.630492,
      "lng": 135.993199,
      "geocoding_level": null,
      "phone": "",
      "license_no": "",
      "license_date": null,
      "expire_date": null
    },
    {
      "name": "株式会社やまと蜂蜜　山添工場",
      "name_kana": "カブシキガイシャヤマトハチミツ　ヤマゾエコウジョウ",
      "business_type": "⑲ 糖類製造・加工業",
      "address": "奈良県山辺郡山添村切幡1364",
      "lat": 34.630492,
      "lng": 135.993199,
      "geocoding_level": null,
      "phone": "",
      "license_no": "",
      "license_date": null,
      "expire_date": null
    },
    {
      "name": "株式会社やまと蜂蜜　山添工場",
      "name_kana": "カブシキガイシャヤマトハチミツ　ヤマゾエコウジョウ",
      "business_type": "㉑ 製茶業",
      "address": "奈良県山辺郡山添村切幡1364",
      "lat": 34.630492,
      "lng": 135.993199,
      "geocoding_level": null,
      "phone": "",
      "license_no": "",
      "license_date": null,
      "expire_date": null
    },
    {
      "name": "株式会社やまと蜂蜜　山添工場",
      "name_kana": "カブシキガイシャヤマトハチミツ　ヤマゾエコウジョウ",
      "business_type": "㉔ その他の食料品製造・加工業",
      "address": "奈良県山辺郡山添村切幡1364",
      "lat": 34.630492,
      "lng": 135.993199,
      "geocoding_level": null,
      "phone": "",
      "license_no": "",
      "license_date": null,
      "expire_date": null
    },
    {
      "name": "株式会社やまと蜂蜜　山添工場",
      "name_kana": "カブシキガイシャヤマトハチミツ　ヤマゾエコウジョウ",
      "business_type": "㉘ 露店、仮設店舗等における飲食の提供のうち、営業とみなされないもの",
      "address": "奈良県山辺郡山添村切幡1364",
      "lat": 34.630492,
      "lng": 135.993199,
      "geocoding_level": null,
      "phone": "",
      "license_no": "",
      "license_date": null,
      "expire_date": null
    },
    {
      "name": "株式会社やまと蜂蜜　山添工場",
      "name_kana": "カブシキガイシャヤマトハチミツ　ヤマゾエコウジョウ",
      "business_type": "㉙ その他",
      "address": "奈良県山辺郡山添村切幡1364",
      "lat": 34.630492,
      "lng": 135.993199,
      "geocoding_level": null,
      "phone": "",
      "license_no": "",
      "license_date": null,
      "expire_date": null
    },
    {
      "name": "オークモントゴルフクラブ　レストラン",
      "name_kana": "オークモントゴルフクラブ　レストラン",
      "business_type": "① 飲食店営業",
      "address": "奈良県山辺郡山添村岩屋3316",
      "lat": 34.641162,
      "lng": 136.053712,
      "geocoding_level": null,
      "phone": "0743-87-0931",
      "license_no": "第4250384号",
      "license_date": "2025-10-24",
      "expire_date": "2031-10-31"
    },
    {
      "name": "茶店売店イースト",
      "name_kana": "チャミセバイテンイースト",
      "business_type": "① 飲食店営業",
      "address": "奈良県山辺郡山添村岩屋3316",
      "lat": 34.641162,
      "lng": 136.053712,
      "geocoding_level": null,
      "phone": "0743-87-0931",
      "license_no": "第4250385号",
      "license_date": "2025-10-24",
      "expire_date": "2031-10-31"
    },
    {
      "name": "茶店売店ウエスト",
      "name_kana": "チャミセバイテンウエスト",
      "business_type": "① 飲食店営業",
      "address": "奈良県山辺郡山添村岩屋3316",
      "lat": 34.641162,
      "lng": 136.053712,
      "geocoding_level": null,
      "phone": "0743-87-0931",
      "license_no": "第4250386号",
      "license_date": "2025-10-24",
      "expire_date": "2031-10-31"
    },
    {
      "name": "茶店売店サウス",
      "name_kana": "チャミセバイテンサウス",
      "business_type": "① 飲食店営業",
      "address": "奈良県山辺郡山添村岩屋3316",
      "lat": 34.641162,
      "lng": 136.053712,
      "geocoding_level": null,
      "phone": "0743-87-0931",
      "license_no": "第4250387号",
      "license_date": "2025-10-24",
      "expire_date": "2031-10-31"
    },
    {
      "name": "浦久保忠雄",
      "name_kana": "ウラクボタダオ",
      "business_type": "⑬ その他の食料・飲料販売業",
      "address": "奈良県山辺郡山添村広瀬423",
      "lat": 34.678134,
      "lng": 136.079012,
      "geocoding_level": null,
      "phone": "09041882620",
      "license_no": "",
      "license_date": null,
      "expire_date": null
    },
    {
      "name": "ひがしとよ営農組合",
      "name_kana": "ヒガシトヨエイノウクミアイ",
      "business_type": "⑬ その他の食料・飲料販売業",
      "address": "奈良県山辺郡山添村岩屋2665",
      "lat": 34.642612,
      "lng": 136.050727,
      "geocoding_level": null,
      "phone": "0743-87-0302",
      "license_no": "",
      "license_date": null,
      "expire_date": null
    }
  ]
}
