{
  "meta": {
    "updated": 1783906731,
    "sources": [
      {
        "source": "福島県食品営業許可施設一覧",
        "license": "CC BY 2.1 JP"
      },
      {
        "source": "厚生労働省 食品衛生申請等システム（オープンデータ）",
        "license": "公共データ利用規約（第1.0版, PDL1.0）"
      }
    ]
  },
  "data": [
    {
      "name": "鍛治内の里　なでしこ館",
      "name_kana": "",
      "business_type": "みそ又はしょうゆ製造業",
      "address": "相馬郡飯舘村深谷字鍛治内２３",
      "lat": 37.698552576,
      "lng": 140.72715044,
      "geocoding_level": 8,
      "phone": "0244-42-0728",
      "license_no": "2-95",
      "license_date": null,
      "expire_date": null
    },
    {
      "name": "ゑびす庵",
      "name_kana": "",
      "business_type": "飲食店営業",
      "address": "相馬郡飯舘村飯樋字町３７４－１",
      "lat": 37.678947,
      "lng": 140.735091,
      "geocoding_level": 2,
      "phone": "0244-43-2018",
      "license_no": "2-139",
      "license_date": null,
      "expire_date": null
    },
    {
      "name": "セブン－イレブン　いいたて村の道の駅までい館店",
      "name_kana": "",
      "business_type": "飲食店営業",
      "address": "相馬郡飯舘村深谷字深谷前１２番地１",
      "lat": 37.678947,
      "lng": 140.735091,
      "geocoding_level": 2,
      "phone": "0244-42-1087",
      "license_no": "2-145",
      "license_date": null,
      "expire_date": null
    },
    {
      "name": "いいたて村の道の駅までい館",
      "name_kana": "",
      "business_type": "飲食店営業",
      "address": "相馬郡飯舘村深谷字深谷前１２番地１",
      "lat": 37.678947,
      "lng": 140.735091,
      "geocoding_level": 2,
      "phone": "0244-42-1080",
      "license_no": "2-146",
      "license_date": null,
      "expire_date": null
    },
    {
      "name": "なまえのないお店",
      "name_kana": "",
      "business_type": "飲食店営業",
      "address": "相馬郡飯舘村前田字広平６６",
      "lat": 37.718369122,
      "lng": 140.688578736,
      "geocoding_level": 8,
      "phone": "",
      "license_no": "2-149",
      "license_date": null,
      "expire_date": null
    },
    {
      "name": "氣まぐれ茶屋ちえこ",
      "name_kana": "",
      "business_type": "酒類製造業",
      "address": "相馬郡飯舘村佐須字佐須２００",
      "lat": 37.748361207,
      "lng": 140.707658231,
      "geocoding_level": 8,
      "phone": "",
      "license_no": "2-155",
      "license_date": null,
      "expire_date": null
    },
    {
      "name": "和（なごみ）の家",
      "name_kana": "",
      "business_type": "飲食店営業",
      "address": "相馬郡飯舘村飯樋字大平３１",
      "lat": 37.678947,
      "lng": 140.735091,
      "geocoding_level": 2,
      "phone": "",
      "license_no": "2-159",
      "license_date": null,
      "expire_date": null
    },
    {
      "name": "氣まぐれ茶屋ちえこ",
      "name_kana": "",
      "business_type": "飲食店営業",
      "address": "相馬郡飯舘村佐須字佐須２００",
      "lat": 37.748361207,
      "lng": 140.707658231,
      "geocoding_level": 8,
      "phone": "",
      "license_no": "2-162",
      "license_date": null,
      "expire_date": null
    },
    {
      "name": "氣まぐれ茶屋ちえこ",
      "name_kana": "",
      "business_type": "菓子製造業",
      "address": "相馬郡飯舘村佐須字佐須２００",
      "lat": 37.748361207,
      "lng": 140.707658231,
      "geocoding_level": 8,
      "phone": "",
      "license_no": "2-163",
      "license_date": null,
      "expire_date": null
    },
    {
      "name": "氣まぐれ茶屋ちえこ",
      "name_kana": "",
      "business_type": "そうざい製造業",
      "address": "相馬郡飯舘村佐須字佐須２００",
      "lat": 37.748361207,
      "lng": 140.707658231,
      "geocoding_level": 8,
      "phone": "",
      "license_no": "1-58",
      "license_date": null,
      "expire_date": null
    },
    {
      "name": "氣まぐれ茶屋ちえこ",
      "name_kana": "",
      "business_type": "漬物製造業",
      "address": "相馬郡飯舘村佐須字佐須２００",
      "lat": 37.748361207,
      "lng": 140.707658231,
      "geocoding_level": 8,
      "phone": "",
      "license_no": "1-59",
      "license_date": null,
      "expire_date": null
    },
    {
      "name": "やまぼうし",
      "name_kana": "",
      "business_type": "飲食店営業",
      "address": "相馬郡飯舘村深谷字市沢１６６－６",
      "lat": 37.701754293,
      "lng": 140.714251798,
      "geocoding_level": 8,
      "phone": "0244-42-1012",
      "license_no": "2-102",
      "license_date": null,
      "expire_date": null
    },
    {
      "name": "宿泊体験館きこり",
      "name_kana": "",
      "business_type": "飲食店営業",
      "address": "相馬郡飯舘村深谷字市沢１６６－６",
      "lat": 37.701754293,
      "lng": 140.714251798,
      "geocoding_level": 8,
      "phone": "0244-42-1012",
      "license_no": "2-103",
      "license_date": null,
      "expire_date": null
    },
    {
      "name": "メモリアルホールいいたて",
      "name_kana": "",
      "business_type": "飲食店営業",
      "address": "相馬郡飯舘村伊丹沢字伊丹沢８３４－５",
      "lat": 37.681567353,
      "lng": 140.736984134,
      "geocoding_level": 8,
      "phone": "0244-32-1590",
      "license_no": "2-110",
      "license_date": null,
      "expire_date": null
    },
    {
      "name": "753",
      "name_kana": "",
      "business_type": "飲食店営業",
      "address": "相馬郡飯舘村深谷字市沢１９３番１",
      "lat": 37.69692146,
      "lng": 140.719560768,
      "geocoding_level": 8,
      "phone": "0244-26-7536",
      "license_no": "1-217",
      "license_date": null,
      "expire_date": null
    },
    {
      "name": "753",
      "name_kana": "",
      "business_type": "菓子製造業",
      "address": "相馬郡飯舘村深谷字市沢１９３番１",
      "lat": 37.69692146,
      "lng": 140.719560768,
      "geocoding_level": 8,
      "phone": "0244-26-7536",
      "license_no": "1-110",
      "license_date": null,
      "expire_date": null
    },
    {
      "name": "やまぶき味噌の会",
      "name_kana": "",
      "business_type": "みそ製造業",
      "address": "相馬郡飯舘村前田字福田１６０",
      "lat": 37.722633148,
      "lng": 140.688386223,
      "geocoding_level": 8,
      "phone": "0244-42-1366",
      "license_no": "1-11",
      "license_date": null,
      "expire_date": null
    },
    {
      "name": "いいたて結い農園",
      "name_kana": "",
      "business_type": "食用油脂製造業",
      "address": "相馬郡飯舘村飯樋字大久保６５－１",
      "lat": 37.678947,
      "lng": 140.735091,
      "geocoding_level": 2,
      "phone": "090-7330-2115",
      "license_no": "1-68",
      "license_date": null,
      "expire_date": null
    },
    {
      "name": "君美ちゃん工房",
      "name_kana": "",
      "business_type": "菓子製造業",
      "address": "相馬郡飯舘村前田字広平６６",
      "lat": 37.718369122,
      "lng": 140.688578736,
      "geocoding_level": 8,
      "phone": "",
      "license_no": "1-75",
      "license_date": null,
      "expire_date": null
    },
    {
      "name": "までいな家",
      "name_kana": "",
      "business_type": "飲食店営業",
      "address": "相馬郡飯舘村伊丹沢字伊丹沢５７８－１",
      "lat": 37.678917187,
      "lng": 140.733847168,
      "geocoding_level": 8,
      "phone": "0244-68-2850",
      "license_no": "1-124",
      "license_date": null,
      "expire_date": null
    },
    {
      "name": "Ｌａ　Ｋａｓｓｅ",
      "name_kana": "",
      "business_type": "飲食店営業",
      "address": "相馬郡飯舘村二枚橋字本町１９３－３",
      "lat": 37.692414416,
      "lng": 140.681025552,
      "geocoding_level": 8,
      "phone": "",
      "license_no": "1-38",
      "license_date": null,
      "expire_date": null
    },
    {
      "name": "ＢＩ向押",
      "name_kana": "",
      "business_type": "飲食店営業",
      "address": "相馬郡飯舘村草野字向押２５－１",
      "lat": 37.692718045,
      "lng": 140.751427343,
      "geocoding_level": 8,
      "phone": "0244-26-4463",
      "license_no": "1-82",
      "license_date": null,
      "expire_date": null
    },
    {
      "name": "飯舘村産地形成促進施設もりの駅まごころ",
      "name_kana": "",
      "business_type": "菓子製造業",
      "address": "相馬郡飯舘村関根字谷地向１６９－９",
      "lat": 37.696403386,
      "lng": 140.711728249,
      "geocoding_level": 8,
      "phone": "0244-42-1105",
      "license_no": "1-155",
      "license_date": null,
      "expire_date": null
    },
    {
      "name": "飯舘村産地形成促進施設もりの駅まごころ",
      "name_kana": "",
      "business_type": "麺類製造業",
      "address": "相馬郡飯舘村関根字谷地向１６９－９",
      "lat": 37.696403386,
      "lng": 140.711728249,
      "geocoding_level": 8,
      "phone": "0244-42-1105",
      "license_no": "1-157",
      "license_date": null,
      "expire_date": null
    },
    {
      "name": "飯舘村産地形成促進施設もりの駅まごころ",
      "name_kana": "",
      "business_type": "そうざい製造業",
      "address": "相馬郡飯舘村関根字谷地向１６９－９",
      "lat": 37.696403386,
      "lng": 140.711728249,
      "geocoding_level": 8,
      "phone": "0244-42-1105",
      "license_no": "1-154",
      "license_date": null,
      "expire_date": null
    },
    {
      "name": "飯舘村産地形成促進施設もりの駅まごころ",
      "name_kana": "",
      "business_type": "漬物製造業",
      "address": "相馬郡飯舘村関根字谷地向１６９－９",
      "lat": 37.696403386,
      "lng": 140.711728249,
      "geocoding_level": 8,
      "phone": "0244-42-1105",
      "license_no": "1-156",
      "license_date": null,
      "expire_date": null
    },
    {
      "name": "コーヒーポアハウス",
      "name_kana": "",
      "business_type": "飲食店営業",
      "address": "相馬郡飯舘村草野字大師堂６５",
      "lat": 37.695986407,
      "lng": 140.750120556,
      "geocoding_level": 8,
      "phone": "",
      "license_no": "1-176",
      "license_date": null,
      "expire_date": null
    },
    {
      "name": "コーヒーポアハウス",
      "name_kana": "",
      "business_type": "菓子製造業",
      "address": "相馬郡飯舘村草野字大師堂６５",
      "lat": 37.695986407,
      "lng": 140.750120556,
      "geocoding_level": 8,
      "phone": "",
      "license_no": "1-177",
      "license_date": null,
      "expire_date": null
    },
    {
      "name": "モノからはじまる",
      "name_kana": "",
      "business_type": "飲食店営業",
      "address": "相馬郡飯舘村草野字大師堂１１３－３７",
      "lat": 37.698600433,
      "lng": 140.747574594,
      "geocoding_level": 8,
      "phone": "",
      "license_no": "1-24",
      "license_date": null,
      "expire_date": null
    },
    {
      "name": "モノからはじまる",
      "name_kana": "",
      "business_type": "菓子製造業",
      "address": "相馬郡飯舘村草野字大師堂１１３－３７",
      "lat": 37.698600433,
      "lng": 140.747574594,
      "geocoding_level": 8,
      "phone": "",
      "license_no": "1-25",
      "license_date": null,
      "expire_date": null
    },
    {
      "name": "までい工房美彩恋人",
      "name_kana": "",
      "business_type": "そうざい製造業",
      "address": "相馬郡飯舘村飯樋字大橋１８０",
      "lat": 37.678947,
      "lng": 140.735091,
      "geocoding_level": 2,
      "phone": "",
      "license_no": "1-26",
      "license_date": null,
      "expire_date": null
    },
    {
      "name": "株式会社ゆーとぴあ",
      "name_kana": "",
      "business_type": "食肉処理業",
      "address": "相馬郡飯舘村松塚字松塚６３",
      "lat": 37.691582113,
      "lng": 140.720195859,
      "geocoding_level": 8,
      "phone": "090-2993-6062",
      "license_no": "1-56",
      "license_date": null,
      "expire_date": null
    },
    {
      "name": "つどい茶屋・Ｊａｚｚ喫茶　くま",
      "name_kana": "",
      "business_type": "飲食店営業",
      "address": "相馬郡飯舘村飯樋字大火１１５－３",
      "lat": 37.678947,
      "lng": 140.735091,
      "geocoding_level": 2,
      "phone": "",
      "license_no": "1-122",
      "license_date": null,
      "expire_date": null
    },
    {
      "name": "古今呂の宿　福とみ",
      "name_kana": "",
      "business_type": "飲食店営業",
      "address": "相馬郡飯舘村飯樋字大橋１８０",
      "lat": 37.678947,
      "lng": 140.735091,
      "geocoding_level": 2,
      "phone": "",
      "license_no": "1-25",
      "license_date": null,
      "expire_date": null
    },
    {
      "name": "飯舘村立いいたて希望の里学園",
      "name_kana": "",
      "business_type": "飲食店営業",
      "address": "相馬郡飯舘村伊丹沢字山田３８０番地",
      "lat": 37.67686244200001,
      "lng": 140.738341,
      "geocoding_level": 8,
      "phone": "0244-42-1545",
      "license_no": "1-70",
      "license_date": null,
      "expire_date": null
    },
    {
      "name": "菓子工房　ｃｏｃｉｔｔｏ",
      "name_kana": "",
      "business_type": "菓子製造業",
      "address": "相馬郡飯舘村草野字大師堂６５",
      "lat": 37.695986407,
      "lng": 140.750120556,
      "geocoding_level": 8,
      "phone": "",
      "license_no": "1-99",
      "license_date": null,
      "expire_date": null
    },
    {
      "name": "菓子工房　ｃｏｃｉｔｔｏ",
      "name_kana": "",
      "business_type": "密封包装食品製造業",
      "address": "相馬郡飯舘村草野字大師堂６５",
      "lat": 37.695986407,
      "lng": 140.750120556,
      "geocoding_level": 8,
      "phone": "",
      "license_no": "1-100",
      "license_date": null,
      "expire_date": null
    },
    {
      "name": "マデイズカフェ",
      "name_kana": "",
      "business_type": "飲食店営業",
      "address": "相馬郡飯舘村小宮字山辺沢２５－１",
      "lat": 37.65071388,
      "lng": 140.75248158100004,
      "geocoding_level": 8,
      "phone": "",
      "license_no": "1-160",
      "license_date": null,
      "expire_date": null
    },
    {
      "name": "ハシドラッグ飯舘店",
      "name_kana": "",
      "business_type": "そうざい製造業",
      "address": "相馬郡飯舘村草野字大師堂１",
      "lat": 37.678947,
      "lng": 140.735091,
      "geocoding_level": 2,
      "phone": "0244-26-6975",
      "license_no": "1-35",
      "license_date": null,
      "expire_date": null
    },
    {
      "name": "食事処　柿の木",
      "name_kana": "",
      "business_type": "飲食店営業",
      "address": "相馬郡飯舘村草野字大師堂４４",
      "lat": 37.678947,
      "lng": 140.735091,
      "geocoding_level": 2,
      "phone": "",
      "license_no": "1-43",
      "license_date": null,
      "expire_date": null
    },
    {
      "name": "農家民宿　Ｄｏｃｏｄａ",
      "name_kana": "",
      "business_type": "飲食店営業",
      "address": "相馬郡飯舘村飯樋字原３６１",
      "lat": 37.678947,
      "lng": 140.735091,
      "geocoding_level": 2,
      "phone": "",
      "license_no": "1-83",
      "license_date": null,
      "expire_date": null
    },
    {
      "name": "葉山",
      "name_kana": "",
      "business_type": "飲食店営業",
      "address": "相馬郡飯舘村大倉字大倉５１１",
      "lat": 37.73317034,
      "lng": 140.806772562,
      "geocoding_level": 8,
      "phone": "",
      "license_no": "1-111",
      "license_date": null,
      "expire_date": null
    },
    {
      "name": "麺屋　骨道",
      "name_kana": "",
      "business_type": "飲食店営業",
      "address": "相馬郡飯舘村草野字大師堂６５",
      "lat": 37.695986407,
      "lng": 140.750120556,
      "geocoding_level": 8,
      "phone": "",
      "license_no": "1-115",
      "license_date": null,
      "expire_date": null
    },
    {
      "name": "神八",
      "name_kana": "",
      "business_type": "飲食店営業",
      "address": "相馬郡飯舘村草野字大師堂６５",
      "lat": 37.695986407,
      "lng": 140.750120556,
      "geocoding_level": 8,
      "phone": "",
      "license_no": "1-137",
      "license_date": null,
      "expire_date": null
    },
    {
      "name": "松尾洋輝",
      "name_kana": "マツオヒロキ",
      "business_type": "⑯ コーヒー製造・加工業（飲料の製造を除く。）",
      "address": "福島県相馬郡飯舘村草野字本町81-2",
      "lat": 37.6945,
      "lng": 140.756637,
      "geocoding_level": null,
      "phone": "",
      "license_no": "",
      "license_date": null,
      "expire_date": null
    }
  ]
}
