{
  "meta": {
    "updated": 1783906731,
    "sources": [
      {
        "source": "岐阜県食品営業許可施設情報",
        "license": "CC BY 2.0"
      },
      {
        "source": "厚生労働省 食品衛生申請等システム（オープンデータ）",
        "license": "公共データ利用規約（第1.0版, PDL1.0）"
      }
    ]
  },
  "data": [
    {
      "name": "バッカス",
      "name_kana": "",
      "business_type": "菓子製造業",
      "address": "岐阜県中津川市蛭川５２５１－１",
      "lat": 35.523642,
      "lng": 137.38301,
      "geocoding_level": 3,
      "phone": "0573-45-3003",
      "license_no": "60000003",
      "license_date": "2021-06-15",
      "expire_date": "2027-02-28"
    },
    {
      "name": "ストーンパーク株式会社",
      "name_kana": "",
      "business_type": "清涼飲料水製造業",
      "address": "岐阜県中津川市蛭川５２６３－３",
      "lat": 35.523642,
      "lng": 137.38301,
      "geocoding_level": 3,
      "phone": "0573-45-3003",
      "license_no": "60000004",
      "license_date": "2021-06-15",
      "expire_date": "2027-02-28"
    },
    {
      "name": "ジャパンレンタカー株式会社　中津川店",
      "name_kana": "",
      "business_type": "飲食店営業",
      "address": "岐阜県中津川市中津川字新田１３０７－１",
      "lat": 35.455883,
      "lng": 137.544713,
      "geocoding_level": 3,
      "phone": "0573-66-2825",
      "license_no": "60000009",
      "license_date": "2021-06-23",
      "expire_date": "2026-11-30"
    },
    {
      "name": "株式会社悦造",
      "name_kana": "",
      "business_type": "アイスクリーム類製造業",
      "address": "岐阜県中津川市付知町１０２１７－５",
      "lat": 35.644571878,
      "lng": 137.441029559,
      "geocoding_level": 8,
      "phone": "0573-82-4999",
      "license_no": "60000010",
      "license_date": "2021-06-23",
      "expire_date": "2026-08-31"
    },
    {
      "name": "くりくりの里中津川　手づくり館夢工房",
      "name_kana": "",
      "business_type": "漬物製造業",
      "address": "岐阜県中津川市苗木字柿野４８－５２２",
      "lat": 35.531772000000004,
      "lng": 137.472815,
      "geocoding_level": 3,
      "phone": "0573-67-9028",
      "license_no": "60000013",
      "license_date": "2021-07-07",
      "expire_date": "2026-11-30"
    },
    {
      "name": "ＲＯＸ　美沙門天",
      "name_kana": "",
      "business_type": "飲食店営業",
      "address": "岐阜県中津川市新町１－１２　スガイビル１号棟２Ｆ",
      "lat": 35.498365364,
      "lng": 137.505656767,
      "geocoding_level": 8,
      "phone": "0573-64-2272",
      "license_no": "60000014",
      "license_date": "2021-07-07",
      "expire_date": "2026-11-30"
    },
    {
      "name": "アオキーズ・ピザ中津川店",
      "name_kana": "",
      "business_type": "飲食店営業",
      "address": "岐阜県中津川市かやの木町３－６　八百健ビル１Ｆ",
      "lat": 35.486456,
      "lng": 137.500888,
      "geocoding_level": 3,
      "phone": "0573-62-2288",
      "license_no": "60000015",
      "license_date": "2021-07-07",
      "expire_date": "2026-11-30"
    },
    {
      "name": "横山農園",
      "name_kana": "",
      "business_type": "飲食店営業",
      "address": "岐阜県中津川市駒場１６６０－６３",
      "lat": 35.494965,
      "lng": 137.478459,
      "geocoding_level": 3,
      "phone": "090-8861-9921",
      "license_no": "60000016",
      "license_date": "2021-07-07",
      "expire_date": "2026-11-30"
    },
    {
      "name": "かしも産直市加工場",
      "name_kana": "",
      "business_type": "漬物製造業",
      "address": "岐阜県中津川市加子母６４４５",
      "lat": 35.745479773,
      "lng": 137.332778101,
      "geocoding_level": 8,
      "phone": "0573-79-3601",
      "license_no": "60000017",
      "license_date": "2021-07-07",
      "expire_date": "2026-08-31"
    },
    {
      "name": "から揚げ専門店　から助　中津川店",
      "name_kana": "",
      "business_type": "飲食店営業",
      "address": "岐阜県中津川市中津川上金１１３５－５",
      "lat": 35.455883,
      "lng": 137.544713,
      "geocoding_level": 3,
      "phone": "0573-65-1101",
      "license_no": "60000018",
      "license_date": "2021-07-08",
      "expire_date": "2026-11-30"
    },
    {
      "name": "銀シャリ・和牛・串料理　うしぼれ",
      "name_kana": "",
      "business_type": "飲食店営業",
      "address": "岐阜県中津川市太田町２丁目６－７　１Ｆ",
      "lat": 35.499742111,
      "lng": 137.505066175,
      "geocoding_level": 8,
      "phone": "",
      "license_no": "60000025",
      "license_date": "2021-07-15",
      "expire_date": "2026-11-30"
    },
    {
      "name": "銀シャリ・和牛・串料理　うしぼれ",
      "name_kana": "",
      "business_type": "食肉販売業",
      "address": "岐阜県中津川市太田町２丁目６－７　１Ｆ",
      "lat": 35.499742111,
      "lng": 137.505066175,
      "geocoding_level": 8,
      "phone": "",
      "license_no": "60000026",
      "license_date": "2021-07-15",
      "expire_date": "2026-11-30"
    },
    {
      "name": "Ｔｈｅ　ＲＹＯＫＡＮ　Ｏ　　Ｃａｆｅ　Ｏ",
      "name_kana": "",
      "business_type": "飲食店営業",
      "address": "岐阜県中津川市太田町２丁目２－２４",
      "lat": 35.499632244,
      "lng": 137.504894275,
      "geocoding_level": 8,
      "phone": "0573-84-0829",
      "license_no": "60000030",
      "license_date": "2021-07-20",
      "expire_date": "2026-11-30"
    },
    {
      "name": "ふれあいいちば",
      "name_kana": "",
      "business_type": "漬物製造業",
      "address": "岐阜県中津川市坂下２９７５－２",
      "lat": 35.56916683,
      "lng": 137.526542539,
      "geocoding_level": 8,
      "phone": "0573-75-3060",
      "license_no": "60000033",
      "license_date": "2021-08-03",
      "expire_date": "2026-08-31"
    },
    {
      "name": "やまもと",
      "name_kana": "",
      "business_type": "菓子製造業",
      "address": "岐阜県中津川市加子母１２６２－３",
      "lat": 35.744301381,
      "lng": 137.338506466,
      "geocoding_level": 8,
      "phone": "0573-79-2358",
      "license_no": "60000036",
      "license_date": "2021-08-11",
      "expire_date": "2026-08-31"
    },
    {
      "name": "よりみち茶屋　童神",
      "name_kana": "",
      "business_type": "飲食店営業",
      "address": "岐阜県中津川市付知町２９７９",
      "lat": 35.664541,
      "lng": 137.439574,
      "geocoding_level": 3,
      "phone": "090-6617-3734",
      "license_no": "60000037",
      "license_date": "2021-08-03",
      "expire_date": "2026-08-31"
    },
    {
      "name": "杣人の里　挽家",
      "name_kana": "",
      "business_type": "飲食店営業",
      "address": "岐阜県中津川市加子母6406",
      "lat": 35.746253854,
      "lng": 137.33396799,
      "geocoding_level": 8,
      "phone": "0573-79-2301",
      "license_no": "60000039",
      "license_date": "2021-08-11",
      "expire_date": "2026-08-31"
    },
    {
      "name": "ほかほか弁当＆ミニ１１市民病院前店",
      "name_kana": "",
      "business_type": "そうざい製造業",
      "address": "岐阜県中津川市駒場１６６６－３６０４",
      "lat": 35.494965,
      "lng": 137.478459,
      "geocoding_level": 3,
      "phone": "090-2133-5059",
      "license_no": "60000040",
      "license_date": "2021-08-03",
      "expire_date": "2026-11-30"
    },
    {
      "name": "山木戸",
      "name_kana": "",
      "business_type": "そうざい製造業",
      "address": "岐阜県中津川市加子母７７８",
      "lat": 35.749118544,
      "lng": 137.335348741,
      "geocoding_level": 8,
      "phone": "0573-79-2297",
      "license_no": "60000041",
      "license_date": "2021-08-11",
      "expire_date": "2026-08-31"
    },
    {
      "name": "農家民宿「なかよし家族」",
      "name_kana": "",
      "business_type": "飲食店営業",
      "address": "岐阜県中津川市加子母７５４－２",
      "lat": 35.750895146,
      "lng": 137.337766625,
      "geocoding_level": 8,
      "phone": "0573-79-3148",
      "license_no": "60000042",
      "license_date": "2021-08-11",
      "expire_date": "2026-08-31"
    },
    {
      "name": "農家民宿「なかよし家族」",
      "name_kana": "",
      "business_type": "菓子製造業",
      "address": "岐阜県中津川市加子母７５４－２",
      "lat": 35.750895146,
      "lng": 137.337766625,
      "geocoding_level": 8,
      "phone": "0573-79-3148",
      "license_no": "60000043",
      "license_date": "2021-08-11",
      "expire_date": "2026-08-31"
    },
    {
      "name": "農家民宿「なかよし家族」",
      "name_kana": "",
      "business_type": "そうざい製造業",
      "address": "岐阜県中津川市加子母７５４－２",
      "lat": 35.750895146,
      "lng": 137.337766625,
      "geocoding_level": 8,
      "phone": "0573-79-3148",
      "license_no": "60000044",
      "license_date": "2021-08-11",
      "expire_date": "2026-08-31"
    },
    {
      "name": "こざと",
      "name_kana": "",
      "business_type": "飲食店営業",
      "address": "岐阜県中津川市加子母２２３",
      "lat": 35.758708511,
      "lng": 137.339896361,
      "geocoding_level": 8,
      "phone": "0573-79-3618",
      "license_no": "60000045",
      "license_date": "2021-08-11",
      "expire_date": "2026-08-31"
    },
    {
      "name": "喫茶・軽食　望",
      "name_kana": "",
      "business_type": "飲食店営業",
      "address": "岐阜県中津川市加子母２１５４－４",
      "lat": 35.733616244,
      "lng": 137.345880789,
      "geocoding_level": 8,
      "phone": "0573-79-3330",
      "license_no": "60000046",
      "license_date": "2021-08-11",
      "expire_date": "2026-08-31"
    },
    {
      "name": "すしの六助",
      "name_kana": "",
      "business_type": "飲食店営業",
      "address": "岐阜県中津川市加子母２３３３－１３",
      "lat": 35.725712753,
      "lng": 137.351713391,
      "geocoding_level": 8,
      "phone": "0573-79-3366",
      "license_no": "60000048",
      "license_date": "2021-08-11",
      "expire_date": "2026-08-31"
    },
    {
      "name": "Ｙショップ　桂川",
      "name_kana": "",
      "business_type": "そうざい製造業",
      "address": "岐阜県中津川市加子母２８４５－３",
      "lat": 35.723188989,
      "lng": 137.35624699,
      "geocoding_level": 8,
      "phone": "0573-79-3145",
      "license_no": "60000049",
      "license_date": "2021-08-11",
      "expire_date": "2026-08-31"
    },
    {
      "name": "中華菜館　鈴鈴",
      "name_kana": "",
      "business_type": "飲食店営業",
      "address": "岐阜県中津川市加子母古薙４３２０－５",
      "lat": 35.733716,
      "lng": 137.401406,
      "geocoding_level": 3,
      "phone": "0573-79-3773",
      "license_no": "60000050",
      "license_date": "2021-08-11",
      "expire_date": "2026-08-31"
    },
    {
      "name": "小秀荘そうざい部",
      "name_kana": "",
      "business_type": "飲食店営業",
      "address": "岐阜県中津川市加子母４３５０",
      "lat": 35.733716,
      "lng": 137.401406,
      "geocoding_level": 3,
      "phone": "0573-79-2020",
      "license_no": "60000051",
      "license_date": "2021-08-11",
      "expire_date": "2026-08-31"
    },
    {
      "name": "ライフ　タッチ",
      "name_kana": "",
      "business_type": "飲食店営業",
      "address": "岐阜県中津川市加子母４３１６－１",
      "lat": 35.733716,
      "lng": 137.401406,
      "geocoding_level": 3,
      "phone": "0573-79-2013",
      "license_no": "60000052",
      "license_date": "2021-08-11",
      "expire_date": "2026-08-31"
    },
    {
      "name": "万福亭",
      "name_kana": "",
      "business_type": "そうざい製造業",
      "address": "岐阜県中津川市付知町１９８２－１",
      "lat": 35.664541,
      "lng": 137.439574,
      "geocoding_level": 3,
      "phone": "0573-82-2387",
      "license_no": "60000053",
      "license_date": "2021-08-11",
      "expire_date": "2026-08-31"
    },
    {
      "name": "Ｃｏｆｆｅｅ　Ｓｈｏｐ　ＬＡＭＵ",
      "name_kana": "",
      "business_type": "飲食店営業",
      "address": "岐阜県中津川市付知町２１３５－１",
      "lat": 35.664541,
      "lng": 137.439574,
      "geocoding_level": 3,
      "phone": "0573-82-4377",
      "license_no": "60000054",
      "license_date": "2021-08-11",
      "expire_date": "2026-08-31"
    },
    {
      "name": "株式会社　日本海",
      "name_kana": "",
      "business_type": "清涼飲料水製造業",
      "address": "岐阜県中津川市付知町２６６７－３",
      "lat": 35.670940988,
      "lng": 137.423822976,
      "geocoding_level": 8,
      "phone": "0573-82-4446",
      "license_no": "60000056",
      "license_date": "2021-08-11",
      "expire_date": "2026-08-31"
    },
    {
      "name": "亀利屋",
      "name_kana": "",
      "business_type": "飲食店営業",
      "address": "岐阜県中津川市付知町５７５２－３",
      "lat": 35.664541,
      "lng": 137.439574,
      "geocoding_level": 3,
      "phone": "0573-82-2151",
      "license_no": "60000057",
      "license_date": "2021-08-11",
      "expire_date": "2026-08-31"
    },
    {
      "name": "そば茶屋付知店",
      "name_kana": "",
      "business_type": "飲食店営業",
      "address": "岐阜県中津川市付知町８５９４－２",
      "lat": 35.659035205,
      "lng": 137.432043272,
      "geocoding_level": 8,
      "phone": "0573-82-5270",
      "license_no": "60000058",
      "license_date": "2021-08-11",
      "expire_date": "2026-08-31"
    },
    {
      "name": "株式会社飛扇",
      "name_kana": "",
      "business_type": "食肉販売業",
      "address": "岐阜県中津川市付知町６８１２－４８",
      "lat": 35.664541,
      "lng": 137.439574,
      "geocoding_level": 3,
      "phone": "0573-82-2988",
      "license_no": "60000060",
      "license_date": "2021-08-11",
      "expire_date": "2026-08-31"
    },
    {
      "name": "守田精肉店　西店",
      "name_kana": "",
      "business_type": "食肉処理業",
      "address": "岐阜県中津川市付知町６９０６－５５",
      "lat": 35.664541,
      "lng": 137.439574,
      "geocoding_level": 3,
      "phone": "0573-82-3142",
      "license_no": "60000061",
      "license_date": "2021-08-11",
      "expire_date": "2026-08-31"
    },
    {
      "name": "有限会社南陽軒",
      "name_kana": "",
      "business_type": "菓子製造業",
      "address": "岐阜県中津川市付知町６９５１－２７",
      "lat": 35.664541,
      "lng": 137.439574,
      "geocoding_level": 3,
      "phone": "0573-82-2035",
      "license_no": "60000064",
      "license_date": "2021-08-11",
      "expire_date": "2026-08-31"
    },
    {
      "name": "旅館　準坊池",
      "name_kana": "",
      "business_type": "飲食店営業",
      "address": "岐阜県中津川市付知町８５９３－２４",
      "lat": 35.643793599,
      "lng": 137.439721982,
      "geocoding_level": 8,
      "phone": "0573-82-3184",
      "license_no": "60000065",
      "license_date": "2021-08-11",
      "expire_date": "2026-08-31"
    },
    {
      "name": "旅館　準坊池",
      "name_kana": "",
      "business_type": "飲食店営業",
      "address": "岐阜県中津川市付知町８５９３－２４",
      "lat": 35.643793599,
      "lng": 137.439721982,
      "geocoding_level": 8,
      "phone": "0573-82-3184",
      "license_no": "60000066",
      "license_date": "2021-08-11",
      "expire_date": "2026-08-31"
    },
    {
      "name": "スマイル付知店",
      "name_kana": "",
      "business_type": "食肉販売業",
      "address": "岐阜県中津川市付知町河原８５９０－２０",
      "lat": 35.664541,
      "lng": 137.439574,
      "geocoding_level": 3,
      "phone": "0573-82-3454",
      "license_no": "60000068",
      "license_date": "2021-08-11",
      "expire_date": "2026-08-31"
    },
    {
      "name": "スマイル付知店",
      "name_kana": "",
      "business_type": "魚介類販売業",
      "address": "岐阜県中津川市付知町河原８５９０－２０",
      "lat": 35.664541,
      "lng": 137.439574,
      "geocoding_level": 3,
      "phone": "0573-82-3454",
      "license_no": "60000069",
      "license_date": "2021-08-11",
      "expire_date": "2026-08-31"
    },
    {
      "name": "満珍軒",
      "name_kana": "",
      "business_type": "飲食店営業",
      "address": "岐阜県中津川市付知町１０９３５－１６",
      "lat": 35.664541,
      "lng": 137.439574,
      "geocoding_level": 3,
      "phone": "0573-82-3175",
      "license_no": "60000070",
      "license_date": "2021-08-11",
      "expire_date": "2026-08-31"
    },
    {
      "name": "かつら",
      "name_kana": "",
      "business_type": "飲食店営業",
      "address": "岐阜県中津川市付知町１０９３５－２１",
      "lat": 35.640855371,
      "lng": 137.443969528,
      "geocoding_level": 8,
      "phone": "0573-82-2748",
      "license_no": "60000071",
      "license_date": "2021-08-11",
      "expire_date": "2026-08-31"
    },
    {
      "name": "かつら",
      "name_kana": "",
      "business_type": "そうざい製造業",
      "address": "岐阜県中津川市付知町１０９３５－２１",
      "lat": 35.640855371,
      "lng": 137.443969528,
      "geocoding_level": 8,
      "phone": "0573-82-2748",
      "license_no": "60000072",
      "license_date": "2021-08-11",
      "expire_date": "2026-08-31"
    },
    {
      "name": "岐阜県裏木曽花街道センター",
      "name_kana": "",
      "business_type": "飲食店営業",
      "address": "岐阜県中津川市付知町８５８１－１",
      "lat": 35.642774916,
      "lng": 137.441425915,
      "geocoding_level": 8,
      "phone": "0573-82-2000",
      "license_no": "60000074",
      "license_date": "2021-08-11",
      "expire_date": "2026-08-31"
    },
    {
      "name": "渡合温泉",
      "name_kana": "",
      "business_type": "飲食店営業",
      "address": "岐阜県中津川市加子母１０１",
      "lat": 35.733716,
      "lng": 137.401406,
      "geocoding_level": 3,
      "phone": "09010928588",
      "license_no": "60000075",
      "license_date": "2021-08-11",
      "expire_date": "2026-08-31"
    },
    {
      "name": "岡本屋",
      "name_kana": "",
      "business_type": "みそ又はしょうゆ製造業",
      "address": "岐阜県中津川市加子母５２３４",
      "lat": 35.695031017,
      "lng": 137.386309217,
      "geocoding_level": 8,
      "phone": "0573-79-2575",
      "license_no": "60000076",
      "license_date": "2021-08-11",
      "expire_date": "2026-08-31"
    },
    {
      "name": "岡本屋",
      "name_kana": "",
      "business_type": "漬物製造業",
      "address": "岐阜県中津川市加子母５２３４",
      "lat": 35.695031017,
      "lng": 137.386309217,
      "geocoding_level": 8,
      "phone": "0573-79-2575",
      "license_no": "60000077",
      "license_date": "2021-08-11",
      "expire_date": "2026-08-31"
    },
    {
      "name": "かねいま食品",
      "name_kana": "",
      "business_type": "飲食店営業",
      "address": "岐阜県中津川市加子母５４５６－３",
      "lat": 35.694036506,
      "lng": 137.38403528,
      "geocoding_level": 8,
      "phone": "0573-79-2026",
      "license_no": "60000078",
      "license_date": "2021-08-11",
      "expire_date": "2026-08-31"
    },
    {
      "name": "ころぼっくる",
      "name_kana": "",
      "business_type": "飲食店営業",
      "address": "岐阜県中津川市加子母二渡２１２５－３",
      "lat": 35.733716,
      "lng": 137.401406,
      "geocoding_level": 3,
      "phone": "0573-79-2258",
      "license_no": "60000079",
      "license_date": "2021-08-11",
      "expire_date": "2026-08-31"
    },
    {
      "name": "ころぼっくる",
      "name_kana": "",
      "business_type": "菓子製造業",
      "address": "岐阜県中津川市加子母二渡２１２５－３",
      "lat": 35.733716,
      "lng": 137.401406,
      "geocoding_level": 3,
      "phone": "0573-79-2258",
      "license_no": "60000080",
      "license_date": "2021-08-11",
      "expire_date": "2026-08-31"
    },
    {
      "name": "北原こうじ店",
      "name_kana": "",
      "business_type": "みそ又はしょうゆ製造業",
      "address": "岐阜県中津川市田瀬１１１０",
      "lat": 35.629438,
      "lng": 137.473364,
      "geocoding_level": 3,
      "phone": "0573723566",
      "license_no": "60000081",
      "license_date": "2021-08-11",
      "expire_date": "2026-08-31"
    },
    {
      "name": "芝ヶ瀬食堂",
      "name_kana": "",
      "business_type": "飲食店営業",
      "address": "岐阜県中津川市田瀬１０３８－１１",
      "lat": 35.624351522,
      "lng": 137.46002688900003,
      "geocoding_level": 8,
      "phone": "0573-72-3635",
      "license_no": "60000082",
      "license_date": "2021-08-11",
      "expire_date": "2026-08-31"
    },
    {
      "name": "Ｃａｆｅ．Ｓａｃｏｎｏｍｉ",
      "name_kana": "",
      "business_type": "飲食店営業",
      "address": "岐阜県中津川市茄子川３８７－１５",
      "lat": 35.465086,
      "lng": 137.456551,
      "geocoding_level": 3,
      "phone": "0573-68-7487",
      "license_no": "60000084",
      "license_date": "2021-08-10",
      "expire_date": "2026-11-30"
    },
    {
      "name": "Ｃａｆｅ．Ｓａｃｏｎｏｍｉ",
      "name_kana": "",
      "business_type": "菓子製造業",
      "address": "岐阜県中津川市茄子川３８７－１５",
      "lat": 35.465086,
      "lng": 137.456551,
      "geocoding_level": 3,
      "phone": "0573-68-7487",
      "license_no": "60000085",
      "license_date": "2021-08-10",
      "expire_date": "2026-11-30"
    },
    {
      "name": "居酒屋もちや",
      "name_kana": "",
      "business_type": "飲食店営業",
      "address": "岐阜県中津川市川上１６２９－２",
      "lat": 35.607410567,
      "lng": 137.496034656,
      "geocoding_level": 8,
      "phone": "0573-74-2155",
      "license_no": "60000086",
      "license_date": "2021-08-11",
      "expire_date": "2026-08-31"
    },
    {
      "name": "恵那醸造株式会社",
      "name_kana": "",
      "business_type": "酒類製造業",
      "address": "岐阜県中津川市福岡２９９２－１",
      "lat": 35.578346,
      "lng": 137.427377,
      "geocoding_level": 3,
      "phone": "0573-72-2055",
      "license_no": "60000088",
      "license_date": "2021-08-11",
      "expire_date": "2026-08-31"
    },
    {
      "name": "株式会社福岡城",
      "name_kana": "",
      "business_type": "飲食店営業",
      "address": "岐阜県中津川市下野４０８－１",
      "lat": 35.58125835,
      "lng": 137.458794552,
      "geocoding_level": 8,
      "phone": "0573-72-2811",
      "license_no": "60000090",
      "license_date": "2021-08-11",
      "expire_date": "2026-08-31"
    },
    {
      "name": "Ｃａｆｅ　Ｖｉｅｎｔｏ",
      "name_kana": "",
      "business_type": "飲食店営業",
      "address": "岐阜県中津川市坂下２５１４－１",
      "lat": 35.574018,
      "lng": 137.512804,
      "geocoding_level": 3,
      "phone": "0573-64-8556",
      "license_no": "60000092",
      "license_date": "2021-08-10",
      "expire_date": "2026-08-31"
    },
    {
      "name": "ユーワン福岡斎苑",
      "name_kana": "",
      "business_type": "飲食店営業",
      "address": "岐阜県中津川市福岡９２７－１９",
      "lat": 35.578346,
      "lng": 137.427377,
      "geocoding_level": 3,
      "phone": "0573-72-3859",
      "license_no": "60000093",
      "license_date": "2021-08-11",
      "expire_date": "2026-08-31"
    },
    {
      "name": "有限会社　カネマス福丸屋",
      "name_kana": "",
      "business_type": "飲食店営業",
      "address": "岐阜県中津川市福岡９７８－１８",
      "lat": 35.578346,
      "lng": 137.427377,
      "geocoding_level": 3,
      "phone": "0573-72-2013",
      "license_no": "60000094",
      "license_date": "2021-08-11",
      "expire_date": "2026-08-31"
    },
    {
      "name": "五平餅のれいちゃん",
      "name_kana": "",
      "business_type": "飲食店営業",
      "address": "岐阜県中津川市福岡１０６６－１６",
      "lat": 35.578346,
      "lng": 137.427377,
      "geocoding_level": 3,
      "phone": "0573-72-2311",
      "license_no": "60000096",
      "license_date": "2021-08-11",
      "expire_date": "2026-08-31"
    },
    {
      "name": "ふぁんふぁん",
      "name_kana": "",
      "business_type": "飲食店営業",
      "address": "岐阜県中津川市福岡１２２５－３６",
      "lat": 35.578346,
      "lng": 137.427377,
      "geocoding_level": 3,
      "phone": "0573-72-3095",
      "license_no": "60000097",
      "license_date": "2021-08-11",
      "expire_date": "2026-08-31"
    },
    {
      "name": "坂下病院内　辰巳",
      "name_kana": "",
      "business_type": "飲食店営業",
      "address": "岐阜県中津川市坂下７２２－１",
      "lat": 35.574959601,
      "lng": 137.53255177700004,
      "geocoding_level": 8,
      "phone": "0573-75-5202",
      "license_no": "60000099",
      "license_date": "2021-08-11",
      "expire_date": "2026-08-31"
    },
    {
      "name": "御食事処　宵の風",
      "name_kana": "",
      "business_type": "飲食店営業",
      "address": "岐阜県中津川市坂下８７２－１",
      "lat": 35.574018,
      "lng": 137.512804,
      "geocoding_level": 3,
      "phone": "0573-75-3555",
      "license_no": "60000100",
      "license_date": "2021-08-11",
      "expire_date": "2026-08-31"
    },
    {
      "name": "まざあぐうす",
      "name_kana": "",
      "business_type": "飲食店営業",
      "address": "岐阜県中津川市坂下７３０－１",
      "lat": 35.574018,
      "lng": 137.512804,
      "geocoding_level": 3,
      "phone": "0573-75-2011",
      "license_no": "60000101",
      "license_date": "2021-08-11",
      "expire_date": "2026-08-31"
    },
    {
      "name": "初音食堂",
      "name_kana": "",
      "business_type": "飲食店営業",
      "address": "岐阜県中津川市坂下８５７－２",
      "lat": 35.574018,
      "lng": 137.512804,
      "geocoding_level": 3,
      "phone": "0573-75-2051",
      "license_no": "60000102",
      "license_date": "2021-08-11",
      "expire_date": "2026-08-31"
    },
    {
      "name": "大和屋製菓店",
      "name_kana": "",
      "business_type": "菓子製造業",
      "address": "岐阜県中津川市坂下８４６－４",
      "lat": 35.574018,
      "lng": 137.512804,
      "geocoding_level": 3,
      "phone": "0573-75-2337",
      "license_no": "60000103",
      "license_date": "2021-08-11",
      "expire_date": "2026-08-31"
    },
    {
      "name": "有限会社田丸屋商店",
      "name_kana": "",
      "business_type": "菓子製造業",
      "address": "岐阜県中津川市坂下８７２－１",
      "lat": 35.574018,
      "lng": 137.512804,
      "geocoding_level": 3,
      "phone": "0573-75-2038",
      "license_no": "60000104",
      "license_date": "2021-08-11",
      "expire_date": "2026-08-31"
    },
    {
      "name": "タグベーカリー",
      "name_kana": "",
      "business_type": "菓子製造業",
      "address": "岐阜県中津川市坂下８４６－１",
      "lat": 35.574018,
      "lng": 137.512804,
      "geocoding_level": 3,
      "phone": "0573-67-8834",
      "license_no": "60000105",
      "license_date": "2021-08-11",
      "expire_date": "2026-08-31"
    },
    {
      "name": "しゅくりん",
      "name_kana": "",
      "business_type": "飲食店営業",
      "address": "岐阜県中津川市坂下１６５８－２４",
      "lat": 35.574018,
      "lng": 137.512804,
      "geocoding_level": 3,
      "phone": "0573-75-3270",
      "license_no": "60000106",
      "license_date": "2021-08-11",
      "expire_date": "2026-08-31"
    },
    {
      "name": "ＲＯＣＣＯ",
      "name_kana": "",
      "business_type": "飲食店営業",
      "address": "岐阜県中津川市坂下１７５４－２",
      "lat": 35.574018,
      "lng": 137.512804,
      "geocoding_level": 3,
      "phone": "0573-75-4395",
      "license_no": "60000107",
      "license_date": "2021-08-11",
      "expire_date": "2026-08-31"
    },
    {
      "name": "ＲＯＣＣＯ",
      "name_kana": "",
      "business_type": "菓子製造業",
      "address": "岐阜県中津川市坂下１７５４－２",
      "lat": 35.574018,
      "lng": 137.512804,
      "geocoding_level": 3,
      "phone": "0573-75-4395",
      "license_no": "60000108",
      "license_date": "2021-08-11",
      "expire_date": "2026-08-31"
    },
    {
      "name": "ＡＬＬＵＲＥ",
      "name_kana": "",
      "business_type": "飲食店営業",
      "address": "岐阜県中津川市太田町３丁目４－１５　太田町ビル３階",
      "lat": 35.498146303,
      "lng": 137.503363378,
      "geocoding_level": 8,
      "phone": "070-2172-9969",
      "license_no": "60000110",
      "license_date": "2021-08-12",
      "expire_date": "2026-11-30"
    },
    {
      "name": "柿の木",
      "name_kana": "",
      "business_type": "菓子製造業",
      "address": "岐阜県中津川市千旦林１３９３－１",
      "lat": 35.476103,
      "lng": 137.46798000000004,
      "geocoding_level": 3,
      "phone": "0573-68-5651",
      "license_no": "60000118",
      "license_date": "2021-09-13",
      "expire_date": "2026-11-30"
    },
    {
      "name": "ｖａｎ　ｃａｆｅ",
      "name_kana": "",
      "business_type": "飲食店営業",
      "address": "岐阜県中津川市駒場１２１２－１",
      "lat": 35.494965,
      "lng": 137.478459,
      "geocoding_level": 3,
      "phone": "090-7310-1774",
      "license_no": "60000119",
      "license_date": "2021-09-22",
      "expire_date": "2026-11-30"
    },
    {
      "name": "ｖａｎ　ｃａｆｅ",
      "name_kana": "",
      "business_type": "菓子製造業",
      "address": "岐阜県中津川市駒場１２１２－１",
      "lat": 35.494965,
      "lng": 137.478459,
      "geocoding_level": 3,
      "phone": "090-7310-1774",
      "license_no": "60000120",
      "license_date": "2021-09-22",
      "expire_date": "2026-11-30"
    },
    {
      "name": "ひさご",
      "name_kana": "",
      "business_type": "飲食店営業",
      "address": "岐阜県中津川市千旦林１６３２－１８３",
      "lat": 35.476103,
      "lng": 137.46798000000004,
      "geocoding_level": 3,
      "phone": "0573-68-5262",
      "license_no": "60000131",
      "license_date": "2021-10-15",
      "expire_date": "2026-11-30"
    },
    {
      "name": "森の巣びと",
      "name_kana": "",
      "business_type": "飲食店営業",
      "address": "岐阜県中津川市付知町３１－３７８",
      "lat": 35.701290481,
      "lng": 137.42708376600004,
      "geocoding_level": 8,
      "phone": "090-1833-1996",
      "license_no": "60000132",
      "license_date": "2021-10-15",
      "expire_date": "2027-08-31"
    },
    {
      "name": "ｏｎｅ’ｓ　Ｗｉｓｈ　ｋｉｔｃｈｅｎ",
      "name_kana": "",
      "business_type": "飲食店営業",
      "address": "岐阜県中津川市えびす町２－１２　ハイムエビス１F",
      "lat": 35.496472831,
      "lng": 137.505595564,
      "geocoding_level": 8,
      "phone": "",
      "license_no": "60000138",
      "license_date": "2021-10-21",
      "expire_date": "2026-11-30"
    },
    {
      "name": "ｏｎｅ’ｓ　Ｗｉｓｈ　ｋｉｔｃｈｅｎ",
      "name_kana": "",
      "business_type": "そうざい製造業",
      "address": "岐阜県中津川市えびす町２－１２　ハイムエビス１F",
      "lat": 35.496472831,
      "lng": 137.505595564,
      "geocoding_level": 8,
      "phone": "",
      "license_no": "60000139",
      "license_date": "2021-10-21",
      "expire_date": "2026-11-30"
    },
    {
      "name": "ｏｎｅ’ｓ　Ｗｉｓｈ　ｋｉｔｃｈｅｎ",
      "name_kana": "",
      "business_type": "漬物製造業",
      "address": "岐阜県中津川市えびす町２－１２　ハイムエビス１F",
      "lat": 35.496472831,
      "lng": 137.505595564,
      "geocoding_level": 8,
      "phone": "",
      "license_no": "60000140",
      "license_date": "2021-10-21",
      "expire_date": "2026-11-30"
    },
    {
      "name": "山小屋　カフェ＆バー　太郎の家",
      "name_kana": "",
      "business_type": "飲食店営業",
      "address": "岐阜県中津川市加子母１８１２",
      "lat": 35.734185969,
      "lng": 137.341501979,
      "geocoding_level": 8,
      "phone": "090-8070-6039",
      "license_no": "60000142",
      "license_date": "2021-10-29",
      "expire_date": "2027-08-31"
    },
    {
      "name": "樹らり",
      "name_kana": "",
      "business_type": "飲食店営業",
      "address": "岐阜県中津川市加子母１５９０－１",
      "lat": 35.7380428,
      "lng": 137.335650034,
      "geocoding_level": 8,
      "phone": "0573-64-2644",
      "license_no": "60000144",
      "license_date": "2021-11-08",
      "expire_date": "2027-08-31"
    },
    {
      "name": "ＪＡなかちゃん加工部",
      "name_kana": "",
      "business_type": "菓子製造業",
      "address": "岐阜県中津川市茄子川１６４６－１９",
      "lat": 35.465013296,
      "lng": 137.469840848,
      "geocoding_level": 8,
      "phone": "0573-68-7977",
      "license_no": "60000145",
      "license_date": "2021-11-15",
      "expire_date": "2026-11-30"
    },
    {
      "name": "ＪＡなかちゃん加工部",
      "name_kana": "",
      "business_type": "そうざい製造業",
      "address": "岐阜県中津川市茄子川１６４６－１９",
      "lat": 35.465013296,
      "lng": 137.469840848,
      "geocoding_level": 8,
      "phone": "0573-68-7977",
      "license_no": "60000146",
      "license_date": "2021-11-15",
      "expire_date": "2026-11-30"
    },
    {
      "name": "ＪＡなかちゃん加工部",
      "name_kana": "",
      "business_type": "漬物製造業",
      "address": "岐阜県中津川市茄子川１６４６－１９",
      "lat": 35.465013296,
      "lng": 137.469840848,
      "geocoding_level": 8,
      "phone": "0573-68-7977",
      "license_no": "60000147",
      "license_date": "2021-11-15",
      "expire_date": "2026-11-30"
    },
    {
      "name": "くりくりの里中津川和食処なかつ川",
      "name_kana": "",
      "business_type": "飲食店営業",
      "address": "岐阜県中津川市苗木字柿野４８ー５２２",
      "lat": 35.531772000000004,
      "lng": 137.472815,
      "geocoding_level": 3,
      "phone": "0573-67-8930",
      "license_no": "60000151",
      "license_date": "2021-11-15",
      "expire_date": "2026-11-30"
    },
    {
      "name": "近藤豆腐店",
      "name_kana": "",
      "business_type": "豆腐製造業",
      "address": "岐阜県中津川市苗木４８－４６１",
      "lat": 35.531772000000004,
      "lng": 137.472815,
      "geocoding_level": 3,
      "phone": "0573-67-2726",
      "license_no": "60000152",
      "license_date": "2021-11-15",
      "expire_date": "2026-11-30"
    },
    {
      "name": "ひだ路元起",
      "name_kana": "",
      "business_type": "飲食店営業",
      "address": "岐阜県中津川市苗木１８２６－１",
      "lat": 35.531772000000004,
      "lng": 137.472815,
      "geocoding_level": 3,
      "phone": "0573-66-7511",
      "license_no": "60000153",
      "license_date": "2021-11-15",
      "expire_date": "2026-11-30"
    },
    {
      "name": "ひだ路元起",
      "name_kana": "",
      "business_type": "飲食店営業",
      "address": "岐阜県中津川市苗木１８２６－１",
      "lat": 35.531772000000004,
      "lng": 137.472815,
      "geocoding_level": 3,
      "phone": "0573-66-7511",
      "license_no": "60000154",
      "license_date": "2021-11-15",
      "expire_date": "2026-11-30"
    },
    {
      "name": "ひだ路元起",
      "name_kana": "",
      "business_type": "飲食店営業",
      "address": "岐阜県中津川市苗木１８２６－１",
      "lat": 35.531772000000004,
      "lng": 137.472815,
      "geocoding_level": 3,
      "phone": "0573-66-7511",
      "license_no": "60000155",
      "license_date": "2021-11-15",
      "expire_date": "2026-11-30"
    },
    {
      "name": "シティ",
      "name_kana": "",
      "business_type": "飲食店営業",
      "address": "岐阜県中津川市苗木１７１４－１",
      "lat": 35.531772000000004,
      "lng": 137.472815,
      "geocoding_level": 3,
      "phone": "0573-66-7216",
      "license_no": "60000156",
      "license_date": "2021-11-15",
      "expire_date": "2026-11-30"
    },
    {
      "name": "恵那福堂工場",
      "name_kana": "",
      "business_type": "菓子製造業",
      "address": "岐阜県中津川市中津川９０５－１",
      "lat": 35.455883,
      "lng": 137.544713,
      "geocoding_level": 3,
      "phone": "0573-65-7000",
      "license_no": "60000157",
      "license_date": "2021-11-15",
      "expire_date": "2026-11-30"
    },
    {
      "name": "恵那福堂",
      "name_kana": "",
      "business_type": "菓子製造業",
      "address": "岐阜県中津川市中津川９１３－１０",
      "lat": 35.455883,
      "lng": 137.544713,
      "geocoding_level": 3,
      "phone": "0573-65-7000",
      "license_no": "60000158",
      "license_date": "2021-11-15",
      "expire_date": "2026-11-30"
    },
    {
      "name": "ガスト中津川店",
      "name_kana": "",
      "business_type": "飲食店営業",
      "address": "岐阜県中津川市中津川字法導寺３１１９－１",
      "lat": 35.455883,
      "lng": 137.544713,
      "geocoding_level": 3,
      "phone": "0573-62-0281",
      "license_no": "60000159",
      "license_date": "2021-11-15",
      "expire_date": "2026-11-30"
    },
    {
      "name": "コメダ珈琲中津川店",
      "name_kana": "",
      "business_type": "飲食店営業",
      "address": "岐阜県中津川市中津川上金１１４２－１",
      "lat": 35.455883,
      "lng": 137.544713,
      "geocoding_level": 3,
      "phone": "0573-65-6650",
      "license_no": "60000161",
      "license_date": "2021-11-15",
      "expire_date": "2026-11-30"
    },
    {
      "name": "加工場　菜菜",
      "name_kana": "",
      "business_type": "飲食店営業",
      "address": "岐阜県中津川市苗木３７３２－１６",
      "lat": 35.531772000000004,
      "lng": 137.472815,
      "geocoding_level": 3,
      "phone": "0573-65-6529",
      "license_no": "60000163",
      "license_date": "2021-11-15",
      "expire_date": "2026-11-30"
    },
    {
      "name": "絆　中津川斎苑",
      "name_kana": "",
      "business_type": "飲食店営業",
      "address": "岐阜県中津川市中津川１２２０－６",
      "lat": 35.455883,
      "lng": 137.544713,
      "geocoding_level": 3,
      "phone": "0573-62-0004",
      "license_no": "60000165",
      "license_date": "2021-11-15",
      "expire_date": "2026-11-30"
    },
    {
      "name": "ｚａｋｋａ　ｍ",
      "name_kana": "",
      "business_type": "飲食店営業",
      "address": "岐阜県中津川市中津川２９０６－４",
      "lat": 35.455883,
      "lng": 137.544713,
      "geocoding_level": 3,
      "phone": "0573-66-3525",
      "license_no": "60000166",
      "license_date": "2021-11-15",
      "expire_date": "2026-11-30"
    },
    {
      "name": "三菱電機株式会社　胞山荘",
      "name_kana": "",
      "business_type": "飲食店営業",
      "address": "岐阜県中津川市中津川２３６３－２",
      "lat": 35.494829369,
      "lng": 137.512583605,
      "geocoding_level": 8,
      "phone": "0573-65-2414",
      "license_no": "60000170",
      "license_date": "2021-11-15",
      "expire_date": "2026-11-30"
    },
    {
      "name": "有限会社塚田商店",
      "name_kana": "",
      "business_type": "飲食店営業",
      "address": "岐阜県中津川市中津川９９８－６",
      "lat": 35.455883,
      "lng": 137.544713,
      "geocoding_level": 3,
      "phone": "0573-66-0923",
      "license_no": "60000171",
      "license_date": "2021-11-15",
      "expire_date": "2026-11-30"
    },
    {
      "name": "有限会社塚田商店",
      "name_kana": "",
      "business_type": "魚介類販売業",
      "address": "岐阜県中津川市中津川９９８－６",
      "lat": 35.455883,
      "lng": 137.544713,
      "geocoding_level": 3,
      "phone": "0573-66-0923",
      "license_no": "60000172",
      "license_date": "2021-11-15",
      "expire_date": "2026-11-30"
    },
    {
      "name": "鈴屋",
      "name_kana": "",
      "business_type": "飲食店営業",
      "address": "岐阜県中津川市千旦林１４５１－６",
      "lat": 35.476103,
      "lng": 137.46798000000004,
      "geocoding_level": 3,
      "phone": "0573-68-3404",
      "license_no": "60000173",
      "license_date": "2021-11-15",
      "expire_date": "2026-11-30"
    },
    {
      "name": "そばや幸",
      "name_kana": "",
      "business_type": "飲食店営業",
      "address": "岐阜県中津川市千旦林１５８５－４４",
      "lat": 35.476103,
      "lng": 137.46798000000004,
      "geocoding_level": 3,
      "phone": "0573-67-9917",
      "license_no": "60000174",
      "license_date": "2021-11-15",
      "expire_date": "2026-11-30"
    },
    {
      "name": "とみ",
      "name_kana": "",
      "business_type": "飲食店営業",
      "address": "岐阜県中津川市千旦林１７５３－２",
      "lat": 35.476103,
      "lng": 137.46798000000004,
      "geocoding_level": 3,
      "phone": "0573-68-5432",
      "license_no": "60000176",
      "license_date": "2021-11-15",
      "expire_date": "2026-11-30"
    },
    {
      "name": "カラオケサロン　まいまい",
      "name_kana": "",
      "business_type": "飲食店営業",
      "address": "岐阜県中津川市千旦林５９５－１１",
      "lat": 35.476103,
      "lng": 137.46798000000004,
      "geocoding_level": 3,
      "phone": "0573-68-7511",
      "license_no": "60000180",
      "license_date": "2021-11-15",
      "expire_date": "2026-11-30"
    },
    {
      "name": "セントラルキッチン",
      "name_kana": "",
      "business_type": "飲食店営業",
      "address": "岐阜県中津川市駒場４７６－１",
      "lat": 35.494965,
      "lng": 137.478459,
      "geocoding_level": 3,
      "phone": "0573-66-7788",
      "license_no": "60000181",
      "license_date": "2021-11-15",
      "expire_date": "2026-11-30"
    },
    {
      "name": "マジョリカ",
      "name_kana": "",
      "business_type": "菓子製造業",
      "address": "岐阜県中津川市駒場８０１－１",
      "lat": 35.494965,
      "lng": 137.478459,
      "geocoding_level": 3,
      "phone": "0573-66-7211",
      "license_no": "60000182",
      "license_date": "2021-11-15",
      "expire_date": "2026-11-30"
    },
    {
      "name": "スマイル駒場店",
      "name_kana": "",
      "business_type": "飲食店営業",
      "address": "岐阜県中津川市駒場４５６－１",
      "lat": 35.494965,
      "lng": 137.478459,
      "geocoding_level": 3,
      "phone": "0573-66-5116",
      "license_no": "60000185",
      "license_date": "2021-11-15",
      "expire_date": "2026-11-30"
    },
    {
      "name": "有限会社澤田屋　賤母店",
      "name_kana": "",
      "business_type": "菓子製造業",
      "address": "岐阜県中津川市山口２－１",
      "lat": 35.56018,
      "lng": 137.552868,
      "geocoding_level": 3,
      "phone": "0573-70-3005",
      "license_no": "60000190",
      "license_date": "2021-11-15",
      "expire_date": "2026-11-30"
    },
    {
      "name": "グリル　オデッサ",
      "name_kana": "",
      "business_type": "飲食店営業",
      "address": "岐阜県中津川市栄町３－３",
      "lat": 35.500702969,
      "lng": 137.50466990600003,
      "geocoding_level": 8,
      "phone": "0573-64-8282",
      "license_no": "60000194",
      "license_date": "2021-11-10",
      "expire_date": "2026-11-30"
    },
    {
      "name": "うどんのたから",
      "name_kana": "",
      "business_type": "飲食店営業",
      "address": "岐阜県中津川市手賀野２３５－１",
      "lat": 35.463705,
      "lng": 137.501971,
      "geocoding_level": 3,
      "phone": "0573-65-5796",
      "license_no": "60000197",
      "license_date": "2021-11-15",
      "expire_date": "2026-11-30"
    },
    {
      "name": "五平餅ぬのや",
      "name_kana": "",
      "business_type": "飲食店営業",
      "address": "岐阜県中津川市手賀野１５６－１４",
      "lat": 35.463705,
      "lng": 137.501971,
      "geocoding_level": 3,
      "phone": "0573-66-3091",
      "license_no": "60000198",
      "license_date": "2021-11-15",
      "expire_date": "2026-11-30"
    },
    {
      "name": "ギャルリ・ド・ショパン",
      "name_kana": "",
      "business_type": "飲食店営業",
      "address": "岐阜県中津川市八幡町５－２９",
      "lat": 35.48947973600001,
      "lng": 137.502544469,
      "geocoding_level": 8,
      "phone": "0573-66-2880",
      "license_no": "60000199",
      "license_date": "2021-11-15",
      "expire_date": "2026-11-30"
    },
    {
      "name": "ダイニングキッチン咲桜",
      "name_kana": "",
      "business_type": "飲食店営業",
      "address": "岐阜県中津川市手賀野３８７",
      "lat": 35.463705,
      "lng": 137.501971,
      "geocoding_level": 3,
      "phone": "0573-66-1425",
      "license_no": "60000201",
      "license_date": "2021-11-15",
      "expire_date": "2026-11-30"
    },
    {
      "name": "中津川グリーンセンター　食菜まめな倶楽部",
      "name_kana": "",
      "business_type": "飲食店営業",
      "address": "岐阜県中津川市手賀野３４０－１",
      "lat": 35.463705,
      "lng": 137.501971,
      "geocoding_level": 3,
      "phone": "0573-62-4147",
      "license_no": "60000202",
      "license_date": "2021-11-15",
      "expire_date": "2026-11-30"
    },
    {
      "name": "中津川グリーンセンター　食菜まめな倶楽部",
      "name_kana": "",
      "business_type": "菓子製造業",
      "address": "岐阜県中津川市手賀野３４０－１",
      "lat": 35.463705,
      "lng": 137.501971,
      "geocoding_level": 3,
      "phone": "0573-62-4147",
      "license_no": "60000203",
      "license_date": "2021-11-15",
      "expire_date": "2026-11-30"
    },
    {
      "name": "中津川グリーンセンター　食菜まめな倶楽部",
      "name_kana": "",
      "business_type": "そうざい製造業",
      "address": "岐阜県中津川市手賀野３４０－１",
      "lat": 35.463705,
      "lng": 137.501971,
      "geocoding_level": 3,
      "phone": "0573-62-4147",
      "license_no": "60000204",
      "license_date": "2021-11-15",
      "expire_date": "2026-11-30"
    },
    {
      "name": "株式会社新杵堂",
      "name_kana": "",
      "business_type": "菓子製造業",
      "address": "岐阜県中津川市千旦林１－１５",
      "lat": 35.476103,
      "lng": 137.46798000000004,
      "geocoding_level": 3,
      "phone": "0573-65-2809",
      "license_no": "60000205",
      "license_date": "2021-11-15",
      "expire_date": "2026-11-30"
    },
    {
      "name": "株式会社新杵堂",
      "name_kana": "",
      "business_type": "アイスクリーム類製造業",
      "address": "岐阜県中津川市千旦林１－１５",
      "lat": 35.476103,
      "lng": 137.46798000000004,
      "geocoding_level": 3,
      "phone": "0573-65-2809",
      "license_no": "60000206",
      "license_date": "2021-11-15",
      "expire_date": "2026-11-30"
    },
    {
      "name": "ファミリーマート新中津川落合店",
      "name_kana": "",
      "business_type": "飲食店営業",
      "address": "岐阜県中津川市落合７２９－３",
      "lat": 35.497236,
      "lng": 137.550542,
      "geocoding_level": 3,
      "phone": "0573-61-0180",
      "license_no": "60000207",
      "license_date": "2021-11-15",
      "expire_date": "2026-11-30"
    },
    {
      "name": "有限会社槌馬屋",
      "name_kana": "",
      "business_type": "菓子製造業",
      "address": "岐阜県中津川市神坂字土馬屋１３－８",
      "lat": 35.489982,
      "lng": 137.596985,
      "geocoding_level": 3,
      "phone": "0573-69-4324",
      "license_no": "60000210",
      "license_date": "2021-11-15",
      "expire_date": "2026-11-30"
    },
    {
      "name": "有限会社槌馬屋",
      "name_kana": "",
      "business_type": "そうざい製造業",
      "address": "岐阜県中津川市神坂字土馬屋１３－８",
      "lat": 35.489982,
      "lng": 137.596985,
      "geocoding_level": 3,
      "phone": "0573-69-4324",
      "license_no": "60000211",
      "license_date": "2021-11-15",
      "expire_date": "2026-11-30"
    },
    {
      "name": "農業生産法人（有）恵那栗",
      "name_kana": "",
      "business_type": "菓子製造業",
      "address": "岐阜県中津川市落合１４５９－２３０",
      "lat": 35.497236,
      "lng": 137.550542,
      "geocoding_level": 3,
      "phone": "0573-61-1700",
      "license_no": "60000213",
      "license_date": "2021-11-15",
      "expire_date": "2026-11-30"
    },
    {
      "name": "農業生産法人（有）恵那栗",
      "name_kana": "",
      "business_type": "そうざい製造業",
      "address": "岐阜県中津川市落合１４５９－２３０",
      "lat": 35.497236,
      "lng": 137.550542,
      "geocoding_level": 3,
      "phone": "0573-61-1700",
      "license_no": "60000214",
      "license_date": "2021-11-15",
      "expire_date": "2026-11-30"
    },
    {
      "name": "農業生産法人（有）恵那栗",
      "name_kana": "",
      "business_type": "密封包装食品製造業",
      "address": "岐阜県中津川市落合１４５９－２３０",
      "lat": 35.497236,
      "lng": 137.550542,
      "geocoding_level": 3,
      "phone": "0573-61-1700",
      "license_no": "60000215",
      "license_date": "2021-11-15",
      "expire_date": "2026-11-30"
    },
    {
      "name": "白樺食堂",
      "name_kana": "",
      "business_type": "飲食店営業",
      "address": "岐阜県中津川市落合２３２１",
      "lat": 35.497236,
      "lng": 137.550542,
      "geocoding_level": 3,
      "phone": "0573-69-4802",
      "license_no": "60000217",
      "license_date": "2021-11-15",
      "expire_date": "2026-11-30"
    },
    {
      "name": "藍",
      "name_kana": "",
      "business_type": "飲食店営業",
      "address": "岐阜県中津川市落合３２３－１",
      "lat": 35.497236,
      "lng": 137.550542,
      "geocoding_level": 3,
      "phone": "0573-69-5566",
      "license_no": "60000218",
      "license_date": "2021-11-15",
      "expire_date": "2026-11-30"
    },
    {
      "name": "日清医療食品株式会社城山病院事業所",
      "name_kana": "",
      "business_type": "飲食店営業",
      "address": "岐阜県中津川市苗木字那木３７２５－２",
      "lat": 35.531772000000004,
      "lng": 137.472815,
      "geocoding_level": 3,
      "phone": "0573-62-1210",
      "license_no": "60000221",
      "license_date": "2021-11-15",
      "expire_date": "2026-11-30"
    },
    {
      "name": "ベストライフ中津川",
      "name_kana": "",
      "business_type": "飲食店営業",
      "address": "岐阜県中津川市北野町６７０－１３",
      "lat": 35.504147,
      "lng": 137.501243,
      "geocoding_level": 3,
      "phone": "0573-65-7053",
      "license_no": "60000222",
      "license_date": "2021-11-15",
      "expire_date": "2026-11-30"
    },
    {
      "name": "中津川食堂",
      "name_kana": "",
      "business_type": "飲食店営業",
      "address": "岐阜県中津川市駒場１６６６－３５３４　大同特殊鋼中津川ハイム内",
      "lat": 35.494965,
      "lng": 137.478459,
      "geocoding_level": 3,
      "phone": "0573-66-3512",
      "license_no": "60000223",
      "license_date": "2021-11-15",
      "expire_date": "2026-11-30"
    },
    {
      "name": "丸誠物産　惣菜加工室",
      "name_kana": "",
      "business_type": "そうざい製造業",
      "address": "岐阜県中津川市茄子川１６４２－７３",
      "lat": 35.464956821,
      "lng": 137.466440889,
      "geocoding_level": 8,
      "phone": "0573-68-8021",
      "license_no": "60000224",
      "license_date": "2021-11-15",
      "expire_date": "2026-11-30"
    },
    {
      "name": "相撲茶屋ちゃんこ櫻家",
      "name_kana": "",
      "business_type": "飲食店営業",
      "address": "岐阜県中津川市手賀野１８２－３",
      "lat": 35.463705,
      "lng": 137.501971,
      "geocoding_level": 3,
      "phone": "0573-66-8922",
      "license_no": "60000226",
      "license_date": "2021-11-15",
      "expire_date": "2026-11-30"
    },
    {
      "name": "コーヒーハウス　ぺぱーみんと",
      "name_kana": "",
      "business_type": "飲食店営業",
      "address": "岐阜県中津川市苗木４９００－５",
      "lat": 35.531772000000004,
      "lng": 137.472815,
      "geocoding_level": 3,
      "phone": "0573-66-6312",
      "license_no": "60000227",
      "license_date": "2021-11-15",
      "expire_date": "2026-11-30"
    },
    {
      "name": "有限会社つちや商店",
      "name_kana": "",
      "business_type": "菓子製造業",
      "address": "岐阜県中津川市茄子川１６４４－１１５",
      "lat": 35.46705236700001,
      "lng": 137.467092555,
      "geocoding_level": 8,
      "phone": "0573682720",
      "license_no": "60000228",
      "license_date": "2021-11-15",
      "expire_date": "2026-11-30"
    },
    {
      "name": "カラオケ喫茶ちっぷいん",
      "name_kana": "",
      "business_type": "飲食店営業",
      "address": "岐阜県中津川市茄子川１９９４－２３",
      "lat": 35.461123769,
      "lng": 137.453026865,
      "geocoding_level": 8,
      "phone": "0573-68-8037",
      "license_no": "60000233",
      "license_date": "2021-11-15",
      "expire_date": "2026-11-30"
    },
    {
      "name": "小麦酵房ルヴァン・ドォル",
      "name_kana": "",
      "business_type": "菓子製造業",
      "address": "岐阜県中津川市千旦林１３５６",
      "lat": 35.476103,
      "lng": 137.46798000000004,
      "geocoding_level": 3,
      "phone": "0573-68-2879",
      "license_no": "60000235",
      "license_date": "2021-11-15",
      "expire_date": "2026-11-30"
    },
    {
      "name": "株式会社トーノーデリカ",
      "name_kana": "",
      "business_type": "食肉販売業",
      "address": "岐阜県中津川市かやの木町４－３０",
      "lat": 35.486456,
      "lng": 137.500888,
      "geocoding_level": 3,
      "phone": "0573-66-2810",
      "license_no": "60000236",
      "license_date": "2021-11-15",
      "expire_date": "2026-11-30"
    },
    {
      "name": "十九上",
      "name_kana": "",
      "business_type": "飲食店営業",
      "address": "岐阜県中津川市茄子川２０８２－１９２",
      "lat": 35.465086,
      "lng": 137.456551,
      "geocoding_level": 3,
      "phone": "0573-68-7855",
      "license_no": "60000239",
      "license_date": "2021-11-15",
      "expire_date": "2026-11-30"
    },
    {
      "name": "美濃工業株式会社　坂本第二工場内　株式会社魚国総本社",
      "name_kana": "",
      "business_type": "飲食店営業",
      "address": "岐阜県中津川市茄子川１６４６－３７",
      "lat": 35.462390309,
      "lng": 137.473121839,
      "geocoding_level": 8,
      "phone": "0573-68-4180",
      "license_no": "60000240",
      "license_date": "2021-11-15",
      "expire_date": "2026-11-30"
    },
    {
      "name": "株式会社サラダコスモ",
      "name_kana": "",
      "business_type": "酒類製造業",
      "address": "岐阜県中津川市千旦林１－１５",
      "lat": 35.476103,
      "lng": 137.46798000000004,
      "geocoding_level": 3,
      "phone": "0573-66-5111",
      "license_no": "60000244",
      "license_date": "2021-11-15",
      "expire_date": "2026-11-30"
    },
    {
      "name": "松月堂",
      "name_kana": "",
      "business_type": "菓子製造業",
      "address": "岐阜県中津川市太田町３丁目５－１",
      "lat": 35.49855459700001,
      "lng": 137.503930156,
      "geocoding_level": 8,
      "phone": "0573-65-3008",
      "license_no": "60000247",
      "license_date": "2021-11-15",
      "expire_date": "2026-11-30"
    },
    {
      "name": "源八",
      "name_kana": "",
      "business_type": "飲食店営業",
      "address": "岐阜県中津川市太田町３丁目３－２",
      "lat": 35.498119661,
      "lng": 137.502748772,
      "geocoding_level": 8,
      "phone": "0573-65-6659",
      "license_no": "60000254",
      "license_date": "2021-11-15",
      "expire_date": "2026-11-30"
    },
    {
      "name": "スナック美々",
      "name_kana": "",
      "business_type": "飲食店営業",
      "address": "岐阜県中津川市太田町２丁目３－２２",
      "lat": 35.499761,
      "lng": 137.503849,
      "geocoding_level": 3,
      "phone": "0573-66-7929",
      "license_no": "60000257",
      "license_date": "2021-11-15",
      "expire_date": "2026-11-30"
    },
    {
      "name": "喫茶ゆう",
      "name_kana": "",
      "business_type": "飲食店営業",
      "address": "岐阜県中津川市太田町２－５－３６",
      "lat": 35.499128542,
      "lng": 137.504454667,
      "geocoding_level": 8,
      "phone": "0573-65-2966",
      "license_no": "60000258",
      "license_date": "2021-11-15",
      "expire_date": "2026-11-30"
    },
    {
      "name": "（株）熊崎畜産中津川店",
      "name_kana": "",
      "business_type": "食肉販売業",
      "address": "岐阜県中津川市淀川町３－８",
      "lat": 35.497308619,
      "lng": 137.506927211,
      "geocoding_level": 8,
      "phone": "0573-65-8387",
      "license_no": "60000260",
      "license_date": "2021-11-15",
      "expire_date": "2026-11-30"
    },
    {
      "name": "さくら屋",
      "name_kana": "",
      "business_type": "飲食店営業",
      "address": "岐阜県中津川市茄子川１９９３－５",
      "lat": 35.462026283,
      "lng": 137.452800759,
      "geocoding_level": 8,
      "phone": "0573-68-7922",
      "license_no": "60000261",
      "license_date": "2021-11-15",
      "expire_date": "2026-11-30"
    },
    {
      "name": "山ｃａｆｅ’ピアットウーニコ",
      "name_kana": "",
      "business_type": "飲食店営業",
      "address": "岐阜県中津川市駒場１６０２－７３",
      "lat": 35.494965,
      "lng": 137.478459,
      "geocoding_level": 3,
      "phone": "0573-65-6307",
      "license_no": "60000262",
      "license_date": "2021-11-15",
      "expire_date": "2026-11-30"
    },
    {
      "name": "スガキヤ",
      "name_kana": "",
      "business_type": "飲食店営業",
      "address": "岐阜県中津川市淀川町３－８　ルビットタウン中津川",
      "lat": 35.497308619,
      "lng": 137.506927211,
      "geocoding_level": 8,
      "phone": "0522-61-6523",
      "license_no": "60000268",
      "license_date": "2021-11-15",
      "expire_date": "2026-11-30"
    },
    {
      "name": "ＳＡＴＯＨＫＵＮ",
      "name_kana": "",
      "business_type": "飲食店営業",
      "address": "岐阜県中津川市東宮町８－４０",
      "lat": 35.495602283,
      "lng": 137.510690411,
      "geocoding_level": 8,
      "phone": "0573-66-7849",
      "license_no": "60000269",
      "license_date": "2021-11-15",
      "expire_date": "2026-11-30"
    },
    {
      "name": "ないき",
      "name_kana": "",
      "business_type": "飲食店営業",
      "address": "岐阜県中津川市本町２丁目６－３７",
      "lat": 35.495135139,
      "lng": 137.501285442,
      "geocoding_level": 8,
      "phone": "0573-66-2580",
      "license_no": "60000271",
      "license_date": "2021-11-15",
      "expire_date": "2026-11-30"
    },
    {
      "name": "ないき",
      "name_kana": "",
      "business_type": "魚介類販売業",
      "address": "岐阜県中津川市本町２丁目６－３７",
      "lat": 35.495135139,
      "lng": 137.501285442,
      "geocoding_level": 8,
      "phone": "0573-66-2580",
      "license_no": "60000272",
      "license_date": "2021-11-15",
      "expire_date": "2026-11-30"
    },
    {
      "name": "喫茶　日曜日",
      "name_kana": "",
      "business_type": "飲食店営業",
      "address": "岐阜県中津川市太田町２丁目２－１－１６　Ａ３ビル２Ｆ",
      "lat": 35.499761,
      "lng": 137.503849,
      "geocoding_level": 3,
      "phone": "0573-66-4280",
      "license_no": "60000275",
      "license_date": "2021-11-15",
      "expire_date": "2026-11-30"
    },
    {
      "name": "大容堂",
      "name_kana": "",
      "business_type": "飲食店営業",
      "address": "岐阜県中津川市太田町２－１－７",
      "lat": 35.499883031,
      "lng": 137.503465725,
      "geocoding_level": 8,
      "phone": "0573-65-2557",
      "license_no": "60000276",
      "license_date": "2021-11-15",
      "expire_date": "2026-11-30"
    },
    {
      "name": "梅信亭弁当部",
      "name_kana": "",
      "business_type": "飲食店営業",
      "address": "岐阜県中津川市太田町２丁目１－３",
      "lat": 35.499761,
      "lng": 137.503849,
      "geocoding_level": 3,
      "phone": "",
      "license_no": "60000277",
      "license_date": "2021-11-15",
      "expire_date": "2026-11-30"
    },
    {
      "name": "旬味　三喜屋",
      "name_kana": "",
      "business_type": "飲食店営業",
      "address": "岐阜県中津川市栄町５－５",
      "lat": 35.501375517,
      "lng": 137.504171106,
      "geocoding_level": 8,
      "phone": "0573-65-2342",
      "license_no": "60000282",
      "license_date": "2021-11-15",
      "expire_date": "2026-11-30"
    },
    {
      "name": "LASA",
      "name_kana": "",
      "business_type": "飲食店営業",
      "address": "岐阜県中津川市小川町１－５１",
      "lat": 35.502082317,
      "lng": 137.502981906,
      "geocoding_level": 8,
      "phone": "0573-67-9727",
      "license_no": "60000283",
      "license_date": "2021-11-15",
      "expire_date": "2026-11-30"
    },
    {
      "name": "スナック　グリーンカップ",
      "name_kana": "",
      "business_type": "飲食店営業",
      "address": "岐阜県中津川市栄町８－３０",
      "lat": 35.50248200000001,
      "lng": 137.504549,
      "geocoding_level": 3,
      "phone": "0573-66-4571",
      "license_no": "60000284",
      "license_date": "2021-11-15",
      "expire_date": "2026-11-30"
    },
    {
      "name": "ＢＬＡＣＫ　ＳＥＡ",
      "name_kana": "",
      "business_type": "飲食店営業",
      "address": "岐阜県中津川市栄町３－３",
      "lat": 35.500702969,
      "lng": 137.50466990600003,
      "geocoding_level": 8,
      "phone": "0573-65-8601",
      "license_no": "60000285",
      "license_date": "2021-11-15",
      "expire_date": "2026-11-30"
    },
    {
      "name": "焼肉　りん",
      "name_kana": "",
      "business_type": "飲食店営業",
      "address": "岐阜県中津川市栄町７－２",
      "lat": 35.501520203,
      "lng": 137.504604322,
      "geocoding_level": 8,
      "phone": "0573-65-0129",
      "license_no": "60000287",
      "license_date": "2021-11-15",
      "expire_date": "2026-11-30"
    },
    {
      "name": "ぎふ村地域支え合いセンター",
      "name_kana": "",
      "business_type": "飲食店営業",
      "address": "岐阜県中津川市茄子川１１２－１６３",
      "lat": 35.465086,
      "lng": 137.456551,
      "geocoding_level": 3,
      "phone": "0573-68-5211",
      "license_no": "60000289",
      "license_date": "2021-11-15",
      "expire_date": "2026-11-30"
    },
    {
      "name": "奄",
      "name_kana": "",
      "business_type": "飲食店営業",
      "address": "岐阜県中津川市茄子川１０６２－１４",
      "lat": 35.465086,
      "lng": 137.456551,
      "geocoding_level": 3,
      "phone": "0573-68-2551",
      "license_no": "60000290",
      "license_date": "2021-11-15",
      "expire_date": "2026-11-30"
    },
    {
      "name": "クオーター",
      "name_kana": "",
      "business_type": "飲食店営業",
      "address": "岐阜県中津川市新町５－１８　提燈横町ビル１Ｆ",
      "lat": 35.497252417,
      "lng": 137.504528872,
      "geocoding_level": 8,
      "phone": "0573-66-8590",
      "license_no": "60000292",
      "license_date": "2021-11-15",
      "expire_date": "2026-11-30"
    },
    {
      "name": "山彦",
      "name_kana": "",
      "business_type": "飲食店営業",
      "address": "岐阜県中津川市茄子川１０６２－１４",
      "lat": 35.465086,
      "lng": 137.456551,
      "geocoding_level": 3,
      "phone": "0573-68-2707",
      "license_no": "60000293",
      "license_date": "2021-11-15",
      "expire_date": "2026-11-30"
    },
    {
      "name": "めし・酒処　あき彦",
      "name_kana": "",
      "business_type": "飲食店営業",
      "address": "岐阜県中津川市茄子川１５３４－２０",
      "lat": 35.465086,
      "lng": 137.456551,
      "geocoding_level": 3,
      "phone": "0573-68-7234",
      "license_no": "60000295",
      "license_date": "2021-11-15",
      "expire_date": "2026-11-30"
    },
    {
      "name": "峯山",
      "name_kana": "",
      "business_type": "飲食店営業",
      "address": "岐阜県中津川市茄子川２０４８－１５",
      "lat": 35.463505411,
      "lng": 137.44467416,
      "geocoding_level": 8,
      "phone": "0573-68-5703",
      "license_no": "60000296",
      "license_date": "2021-11-15",
      "expire_date": "2026-11-30"
    },
    {
      "name": "中央食堂",
      "name_kana": "",
      "business_type": "飲食店営業",
      "address": "岐阜県中津川市えびす町６－２５",
      "lat": 35.494826261,
      "lng": 137.504468181,
      "geocoding_level": 8,
      "phone": "0573-65-3519",
      "license_no": "60000300",
      "license_date": "2021-11-15",
      "expire_date": "2026-11-30"
    },
    {
      "name": "琥珀",
      "name_kana": "",
      "business_type": "飲食店営業",
      "address": "岐阜県中津川市茄子川２０７６－６６",
      "lat": 35.461312721,
      "lng": 137.447535037,
      "geocoding_level": 8,
      "phone": "0573-68-2856",
      "license_no": "60000301",
      "license_date": "2021-11-15",
      "expire_date": "2026-11-30"
    },
    {
      "name": "旬彩洋食バル　Ｎａｔｕｒａ",
      "name_kana": "",
      "business_type": "飲食店営業",
      "address": "岐阜県中津川市茄子川４０３－２３",
      "lat": 35.465086,
      "lng": 137.456551,
      "geocoding_level": 3,
      "phone": "0573-68-3993",
      "license_no": "60000302",
      "license_date": "2021-11-15",
      "expire_date": "2026-11-30"
    },
    {
      "name": "ｂ’　ｃｏｆｆｅｅ（ビーダッシュコーヒー）",
      "name_kana": "",
      "business_type": "飲食店営業",
      "address": "岐阜県中津川市茄子川６５４－２",
      "lat": 35.465086,
      "lng": 137.456551,
      "geocoding_level": 3,
      "phone": "0573-68-8086",
      "license_no": "60000304",
      "license_date": "2021-11-15",
      "expire_date": "2026-11-30"
    },
    {
      "name": "帆志乃",
      "name_kana": "",
      "business_type": "飲食店営業",
      "address": "岐阜県中津川市柳町１－２８　ハイツ柳町１０２",
      "lat": 35.493934142,
      "lng": 137.498244564,
      "geocoding_level": 8,
      "phone": "0573-66-8577",
      "license_no": "60000305",
      "license_date": "2021-11-15",
      "expire_date": "2026-11-30"
    },
    {
      "name": "コーヒーショップふじ",
      "name_kana": "",
      "business_type": "飲食店営業",
      "address": "岐阜県中津川市茄子川字堤下２０７７－５３",
      "lat": 35.465086,
      "lng": 137.456551,
      "geocoding_level": 3,
      "phone": "0573-68-4844",
      "license_no": "60000306",
      "license_date": "2021-11-15",
      "expire_date": "2026-11-30"
    },
    {
      "name": "魚民",
      "name_kana": "",
      "business_type": "飲食店営業",
      "address": "岐阜県中津川市太田町２丁目２－３６　山口ビル　２階",
      "lat": 35.499761,
      "lng": 137.503849,
      "geocoding_level": 3,
      "phone": "0573-65-7688",
      "license_no": "60000309",
      "license_date": "2021-11-15",
      "expire_date": "2026-11-30"
    },
    {
      "name": "株式会社大東食品",
      "name_kana": "",
      "business_type": "食肉処理業",
      "address": "岐阜県中津川市茄子川１６４２－８４",
      "lat": 35.465851907,
      "lng": 137.465606464,
      "geocoding_level": 8,
      "phone": "0573-68-4111",
      "license_no": "60000311",
      "license_date": "2021-11-15",
      "expire_date": "2026-11-30"
    },
    {
      "name": "株式会社馬籠館",
      "name_kana": "",
      "business_type": "そうざい製造業",
      "address": "岐阜県中津川市馬籠４６４２－１",
      "lat": 35.528394,
      "lng": 137.56527,
      "geocoding_level": 3,
      "phone": "0573-69-2211",
      "license_no": "60000312",
      "license_date": "2021-11-15",
      "expire_date": "2026-11-30"
    },
    {
      "name": "株式会社馬籠館",
      "name_kana": "",
      "business_type": "密封包装食品製造業",
      "address": "岐阜県中津川市馬籠４６４２－１",
      "lat": 35.528394,
      "lng": 137.56527,
      "geocoding_level": 3,
      "phone": "0573-69-2211",
      "license_no": "60000313",
      "license_date": "2021-11-15",
      "expire_date": "2026-11-30"
    },
    {
      "name": "ｃａｆｅ　Ｎａｔｕｌｌｙ",
      "name_kana": "",
      "business_type": "飲食店営業",
      "address": "岐阜県中津川市桃山町２－１１",
      "lat": 35.497363606,
      "lng": 137.498806361,
      "geocoding_level": 8,
      "phone": "080-5120-4750",
      "license_no": "60000314",
      "license_date": "2021-11-15",
      "expire_date": "2026-11-30"
    },
    {
      "name": "スシロー中津川店",
      "name_kana": "",
      "business_type": "飲食店営業",
      "address": "岐阜県中津川市茄子川字津戸井１６９８－１",
      "lat": 35.465086,
      "lng": 137.456551,
      "geocoding_level": 3,
      "phone": "0573-78-0015",
      "license_no": "60000316",
      "license_date": "2021-11-15",
      "expire_date": "2026-11-30"
    },
    {
      "name": "株式会社馬籠館",
      "name_kana": "",
      "business_type": "菓子製造業",
      "address": "岐阜県中津川市馬籠４６４２－１",
      "lat": 35.528394,
      "lng": 137.56527,
      "geocoding_level": 3,
      "phone": "0573-69-2211",
      "license_no": "60000321",
      "license_date": "2021-11-15",
      "expire_date": "2026-11-30"
    },
    {
      "name": "中村屋",
      "name_kana": "",
      "business_type": "飲食店営業",
      "address": "岐阜県中津川市中津川２９４６－２１",
      "lat": 35.455883,
      "lng": 137.544713,
      "geocoding_level": 3,
      "phone": "090-7911-1262",
      "license_no": "60000322",
      "license_date": "2021-11-15",
      "expire_date": "2026-11-30"
    },
    {
      "name": "株式会社ヤヨイ",
      "name_kana": "",
      "business_type": "食肉処理業",
      "address": "岐阜県中津川市茄子川字中垣外１６７７－３６",
      "lat": 35.465086,
      "lng": 137.456551,
      "geocoding_level": 3,
      "phone": "",
      "license_no": "60000325",
      "license_date": "2021-11-25",
      "expire_date": "2026-11-30"
    },
    {
      "name": "株式会社ヤヨイ",
      "name_kana": "",
      "business_type": "そうざい製造業",
      "address": "岐阜県中津川市茄子川字中垣外１６７７－３６",
      "lat": 35.465086,
      "lng": 137.456551,
      "geocoding_level": 3,
      "phone": "",
      "license_no": "60000326",
      "license_date": "2021-11-25",
      "expire_date": "2026-11-30"
    },
    {
      "name": "クラブ　レイン",
      "name_kana": "",
      "business_type": "飲食店営業",
      "address": "岐阜県中津川市本町１丁目２－８",
      "lat": 35.495375636,
      "lng": 137.501544281,
      "geocoding_level": 8,
      "phone": "0573-66-6688",
      "license_no": "60000329",
      "license_date": "2021-11-26",
      "expire_date": "2026-11-30"
    },
    {
      "name": "ｇｉｒｌｓ ｂａｒ ３９",
      "name_kana": "",
      "business_type": "飲食店営業",
      "address": "岐阜県中津川市太田町２－６－３４　中津川グリーンビル１Ｆ",
      "lat": 35.499761,
      "lng": 137.503849,
      "geocoding_level": 3,
      "phone": "080-2643-5104",
      "license_no": "60000339",
      "license_date": "2021-12-15",
      "expire_date": "2027-11-30"
    },
    {
      "name": "カレーハウスＣｏＣｏ壱番屋　中津川インター店",
      "name_kana": "",
      "business_type": "飲食店営業",
      "address": "岐阜県中津川市中津川２９４６－２２",
      "lat": 35.455883,
      "lng": 137.544713,
      "geocoding_level": 3,
      "phone": "0573-62-3212",
      "license_no": "60000340",
      "license_date": "2021-12-20",
      "expire_date": "2027-11-30"
    },
    {
      "name": "株式会社銀の森コーポレーション　銀の森キャンパス",
      "name_kana": "",
      "business_type": "そうざい製造業",
      "address": "岐阜県中津川市茄子川１１２－２",
      "lat": 35.465086,
      "lng": 137.456551,
      "geocoding_level": 3,
      "phone": "0573-64-2501",
      "license_no": "60000342",
      "license_date": "2021-12-21",
      "expire_date": "2027-11-30"
    },
    {
      "name": "ピッツァ＆スウィーツ　Ｃｏｒｄｉａｌｅ",
      "name_kana": "",
      "business_type": "菓子製造業",
      "address": "岐阜県中津川市加子母２８２２－９",
      "lat": 35.720387024,
      "lng": 137.360335388,
      "geocoding_level": 8,
      "phone": "",
      "license_no": "60000344",
      "license_date": "2021-12-27",
      "expire_date": "2027-08-31"
    },
    {
      "name": "ピッツァ＆スウィーツ　Ｃｏｒｄｉａｌｅ",
      "name_kana": "",
      "business_type": "飲食店営業",
      "address": "岐阜県中津川市加子母２８２２－９",
      "lat": 35.720387024,
      "lng": 137.360335388,
      "geocoding_level": 8,
      "phone": "",
      "license_no": "60000345",
      "license_date": "2021-12-27",
      "expire_date": "2027-08-31"
    },
    {
      "name": "カラオケ喫茶歌音",
      "name_kana": "",
      "business_type": "飲食店営業",
      "address": "岐阜県中津川市蛭川４３３－２",
      "lat": 35.53775371300001,
      "lng": 137.369430471,
      "geocoding_level": 8,
      "phone": "0573-45-3378",
      "license_no": "60000383",
      "license_date": "2022-02-07",
      "expire_date": "2027-02-28"
    },
    {
      "name": "スマイル駒場店",
      "name_kana": "",
      "business_type": "魚介類販売業",
      "address": "岐阜県中津川市駒場４５６－１",
      "lat": 35.494965,
      "lng": 137.478459,
      "geocoding_level": 3,
      "phone": "0573-66-5116",
      "license_no": "60000407",
      "license_date": "2022-02-03",
      "expire_date": "2027-11-30"
    },
    {
      "name": "スマイル駒場店",
      "name_kana": "",
      "business_type": "食肉販売業",
      "address": "岐阜県中津川市駒場４５６－１",
      "lat": 35.494965,
      "lng": 137.478459,
      "geocoding_level": 3,
      "phone": "0573-66-5116",
      "license_no": "60000408",
      "license_date": "2022-02-03",
      "expire_date": "2027-11-30"
    },
    {
      "name": "みぃみぃの店",
      "name_kana": "",
      "business_type": "そうざい製造業",
      "address": "岐阜県中津川市千旦林４３１－２",
      "lat": 35.476103,
      "lng": 137.46798000000004,
      "geocoding_level": 3,
      "phone": "0573-67-8741",
      "license_no": "60000411",
      "license_date": "2022-02-08",
      "expire_date": "2027-11-30"
    },
    {
      "name": "みぃみぃの店",
      "name_kana": "",
      "business_type": "漬物製造業",
      "address": "岐阜県中津川市千旦林４３１－２",
      "lat": 35.476103,
      "lng": 137.46798000000004,
      "geocoding_level": 3,
      "phone": "0573-67-8741",
      "license_no": "60000412",
      "license_date": "2022-02-08",
      "expire_date": "2027-11-30"
    },
    {
      "name": "みぃみぃの店",
      "name_kana": "",
      "business_type": "飲食店営業",
      "address": "岐阜県中津川市千旦林４３１－２",
      "lat": 35.476103,
      "lng": 137.46798000000004,
      "geocoding_level": 3,
      "phone": "0573-67-8741",
      "license_no": "60000413",
      "license_date": "2022-02-08",
      "expire_date": "2027-11-30"
    },
    {
      "name": "オークワ中津川中村店",
      "name_kana": "",
      "business_type": "食肉販売業",
      "address": "岐阜県中津川市中津川２７３０－２",
      "lat": 35.455883,
      "lng": 137.544713,
      "geocoding_level": 3,
      "phone": "0573-66-3011",
      "license_no": "60000430",
      "license_date": "2022-02-28",
      "expire_date": "2027-11-30"
    },
    {
      "name": "オークワ中津川中村店",
      "name_kana": "",
      "business_type": "魚介類販売業",
      "address": "岐阜県中津川市中津川２７３０－２",
      "lat": 35.455883,
      "lng": 137.544713,
      "geocoding_level": 3,
      "phone": "0573-66-3011",
      "license_no": "60000431",
      "license_date": "2022-02-28",
      "expire_date": "2027-11-30"
    },
    {
      "name": "オークワ中津川中村店",
      "name_kana": "",
      "business_type": "飲食店営業",
      "address": "岐阜県中津川市中津川２７３０－２",
      "lat": 35.455883,
      "lng": 137.544713,
      "geocoding_level": 3,
      "phone": "0573-66-3011",
      "license_no": "60000432",
      "license_date": "2022-02-28",
      "expire_date": "2027-11-30"
    },
    {
      "name": "オークワ中津川中村店",
      "name_kana": "",
      "business_type": "飲食店営業",
      "address": "岐阜県中津川市中津川２７３０－２",
      "lat": 35.455883,
      "lng": 137.544713,
      "geocoding_level": 3,
      "phone": "0573-66-3011",
      "license_no": "60000433",
      "license_date": "2022-02-28",
      "expire_date": "2027-11-30"
    },
    {
      "name": "オークワ中津川中村店",
      "name_kana": "",
      "business_type": "飲食店営業",
      "address": "岐阜県中津川市中津川２７３０－２",
      "lat": 35.455883,
      "lng": 137.544713,
      "geocoding_level": 3,
      "phone": "0573-66-3011",
      "license_no": "60000434",
      "license_date": "2022-02-28",
      "expire_date": "2027-11-30"
    },
    {
      "name": "オークワ中津川中村店",
      "name_kana": "",
      "business_type": "飲食店営業",
      "address": "岐阜県中津川市中津川２７３０－２",
      "lat": 35.455883,
      "lng": 137.544713,
      "geocoding_level": 3,
      "phone": "0573-66-3011",
      "license_no": "60000435",
      "license_date": "2022-02-28",
      "expire_date": "2027-11-30"
    },
    {
      "name": "オークワ中津川中村店",
      "name_kana": "",
      "business_type": "菓子製造業",
      "address": "岐阜県中津川市中津川２７３０－２",
      "lat": 35.455883,
      "lng": 137.544713,
      "geocoding_level": 3,
      "phone": "0573-66-3011",
      "license_no": "60000436",
      "license_date": "2022-02-28",
      "expire_date": "2027-11-30"
    },
    {
      "name": "五平餅カフェ　どうだん",
      "name_kana": "",
      "business_type": "飲食店営業",
      "address": "岐阜県中津川市駒場１５４９－４３",
      "lat": 35.494965,
      "lng": 137.478459,
      "geocoding_level": 3,
      "phone": "080-6410-0001",
      "license_no": "60000439",
      "license_date": "2022-03-02",
      "expire_date": "2027-11-30"
    },
    {
      "name": "株式会社和菓子処一茶堂",
      "name_kana": "",
      "business_type": "飲食店営業",
      "address": "岐阜県中津川市付知町１０２０１－１",
      "lat": 35.647013551,
      "lng": 137.438893923,
      "geocoding_level": 8,
      "phone": "0573-82-4389",
      "license_no": "60000441",
      "license_date": "2022-03-04",
      "expire_date": "2027-08-31"
    },
    {
      "name": "げんさいや",
      "name_kana": "",
      "business_type": "菓子製造業",
      "address": "岐阜県中津川市千旦林字西林１６５５－３９",
      "lat": 35.476103,
      "lng": 137.46798000000004,
      "geocoding_level": 3,
      "phone": "0573-68-6262",
      "license_no": "60000445",
      "license_date": "2022-03-15",
      "expire_date": "2027-11-30"
    },
    {
      "name": "へちまる酒場",
      "name_kana": "",
      "business_type": "飲食店営業",
      "address": "岐阜県中津川市栄町２－１４",
      "lat": 35.50248200000001,
      "lng": 137.504549,
      "geocoding_level": 3,
      "phone": "0573-67-8926",
      "license_no": "60000449",
      "license_date": "2022-03-18",
      "expire_date": "2027-11-30"
    },
    {
      "name": "スターバックスコーヒー　ルビットタウン中津川店",
      "name_kana": "",
      "business_type": "飲食店営業",
      "address": "岐阜県中津川市淀川町３－８",
      "lat": 35.497308619,
      "lng": 137.506927211,
      "geocoding_level": 8,
      "phone": "0573-67-7096",
      "license_no": "60000455",
      "license_date": "2022-03-29",
      "expire_date": "2027-11-30"
    },
    {
      "name": "孫八",
      "name_kana": "",
      "business_type": "飲食店営業",
      "address": "岐阜県中津川市阿木２６６４－２３０",
      "lat": 35.401929,
      "lng": 137.516414,
      "geocoding_level": 3,
      "phone": "0573-63-2456",
      "license_no": "60000458",
      "license_date": "2022-05-09",
      "expire_date": "2027-05-31"
    },
    {
      "name": "カラオケ喫茶　るみ",
      "name_kana": "",
      "business_type": "飲食店営業",
      "address": "岐阜県中津川市阿木６６８６",
      "lat": 35.401929,
      "lng": 137.516414,
      "geocoding_level": 3,
      "phone": "0573-63-2007",
      "license_no": "60000459",
      "license_date": "2022-05-09",
      "expire_date": "2027-05-31"
    },
    {
      "name": "フォーティーンヒルズカントリークラブ ホテルウィンザー",
      "name_kana": "",
      "business_type": "飲食店営業",
      "address": "岐阜県中津川市飯沼１１５１－４５６",
      "lat": 35.42266,
      "lng": 137.472622,
      "geocoding_level": 3,
      "phone": "0573-64-9414",
      "license_no": "60000460",
      "license_date": "2022-05-17",
      "expire_date": "2027-05-31"
    },
    {
      "name": "キュルティヴァトゥール",
      "name_kana": "",
      "business_type": "密封包装食品製造業",
      "address": "岐阜県中津川市阿木２６６４－２７０",
      "lat": 35.401929,
      "lng": 137.516414,
      "geocoding_level": 3,
      "phone": "0573-63-3707",
      "license_no": "60000468",
      "license_date": "2022-05-09",
      "expire_date": "2027-05-31"
    },
    {
      "name": "キュルティヴァトゥール",
      "name_kana": "",
      "business_type": "菓子製造業",
      "address": "岐阜県中津川市阿木２６６４－２７０",
      "lat": 35.401929,
      "lng": 137.516414,
      "geocoding_level": 3,
      "phone": "0573-63-3707",
      "license_no": "60000469",
      "license_date": "2022-05-09",
      "expire_date": "2027-05-31"
    },
    {
      "name": "家族葬ホール織想",
      "name_kana": "",
      "business_type": "飲食店営業",
      "address": "岐阜県中津川市茄子川６８１－１",
      "lat": 35.465086,
      "lng": 137.456551,
      "geocoding_level": 3,
      "phone": "0573-78-0440",
      "license_no": "60000493",
      "license_date": "2022-04-21",
      "expire_date": "2027-11-30"
    },
    {
      "name": "雑穀米の弁当屋",
      "name_kana": "",
      "business_type": "飲食店営業",
      "address": "岐阜県中津川市茄子川１６４３－４６",
      "lat": 35.466360476,
      "lng": 137.466563475,
      "geocoding_level": 8,
      "phone": "0573-67-8727",
      "license_no": "60000505",
      "license_date": "2022-04-27",
      "expire_date": "2027-11-30"
    },
    {
      "name": "中京学院大学　学生会館",
      "name_kana": "",
      "business_type": "飲食店営業",
      "address": "岐阜県中津川市手賀野２３７－５",
      "lat": 35.463705,
      "lng": 137.501971,
      "geocoding_level": 3,
      "phone": "0573-68-6615",
      "license_no": "60000506",
      "license_date": "2022-04-27",
      "expire_date": "2027-11-30"
    },
    {
      "name": "三花月庵",
      "name_kana": "",
      "business_type": "飲食店営業",
      "address": "岐阜県中津川市馬籠４２９５",
      "lat": 35.528394,
      "lng": 137.56527,
      "geocoding_level": 3,
      "phone": "",
      "license_no": "60000507",
      "license_date": "2022-04-28",
      "expire_date": "2027-11-30"
    },
    {
      "name": "Ｆａｒｍ Ｃｒｅａｍ",
      "name_kana": "",
      "business_type": "アイスクリーム類製造業",
      "address": "岐阜県中津川市茄子川４０３－２３",
      "lat": 35.465086,
      "lng": 137.456551,
      "geocoding_level": 3,
      "phone": "0573-68-3993",
      "license_no": "60000508",
      "license_date": "2022-04-27",
      "expire_date": "2027-11-30"
    },
    {
      "name": "エスエスキッチン",
      "name_kana": "",
      "business_type": "菓子製造業",
      "address": "岐阜県中津川市中津川２３６５－２７",
      "lat": 35.490256904,
      "lng": 137.516228106,
      "geocoding_level": 8,
      "phone": "070-8576-1783",
      "license_no": "60000523",
      "license_date": "2022-05-10",
      "expire_date": "2027-11-30"
    },
    {
      "name": "やさいのあおぞら",
      "name_kana": "",
      "business_type": "みそ又はしょうゆ製造業",
      "address": "岐阜県中津川市苗木６３７６－２",
      "lat": 35.528063993,
      "lng": 137.469647125,
      "geocoding_level": 8,
      "phone": "0573-65-7788",
      "license_no": "60000527",
      "license_date": "2022-05-12",
      "expire_date": "2027-11-30"
    },
    {
      "name": "麺場よしき",
      "name_kana": "",
      "business_type": "飲食店営業",
      "address": "岐阜県中津川市太田町２－６－３４　中津川グリーンビル１階",
      "lat": 35.499761,
      "lng": 137.503849,
      "geocoding_level": 3,
      "phone": "",
      "license_no": "60000529",
      "license_date": "2022-05-16",
      "expire_date": "2027-11-30"
    },
    {
      "name": "ひだまりⅡ",
      "name_kana": "",
      "business_type": "菓子製造業",
      "address": "岐阜県中津川市付知町８４５１－１８",
      "lat": 35.631610834,
      "lng": 137.43938801900003,
      "geocoding_level": 8,
      "phone": "080-6988-1590",
      "license_no": "60000534",
      "license_date": "2022-05-25",
      "expire_date": "2027-08-31"
    },
    {
      "name": "手打ちうどん　桔梗家",
      "name_kana": "",
      "business_type": "飲食店営業",
      "address": "岐阜県中津川市苗木４９１０－３",
      "lat": 35.531772000000004,
      "lng": 137.472815,
      "geocoding_level": 3,
      "phone": "0573-65-5985",
      "license_no": "60000536",
      "license_date": "2022-05-31",
      "expire_date": "2027-11-30"
    },
    {
      "name": "ローソン道の駅花街道付知店",
      "name_kana": "",
      "business_type": "飲食店営業",
      "address": "岐阜県中津川市付知町字河原８５９３－１０",
      "lat": 35.664541,
      "lng": 137.439574,
      "geocoding_level": 3,
      "phone": "0573-83-0071",
      "license_no": "60000542",
      "license_date": "2022-06-16",
      "expire_date": "2027-08-31"
    },
    {
      "name": "道の駅　きりら坂下売店",
      "name_kana": "",
      "business_type": "飲食店営業",
      "address": "岐阜県中津川市坂下４５０－２",
      "lat": 35.574018,
      "lng": 137.512804,
      "geocoding_level": 3,
      "phone": "0573-70-0050",
      "license_no": "60000550",
      "license_date": "2022-07-04",
      "expire_date": "2027-08-31"
    },
    {
      "name": "ぽん太の五平餅　本店",
      "name_kana": "",
      "business_type": "飲食店営業",
      "address": "岐阜県中津川市落合７５５－１４",
      "lat": 35.497236,
      "lng": 137.550542,
      "geocoding_level": 3,
      "phone": "0573-69-3001",
      "license_no": "60000551",
      "license_date": "2022-07-04",
      "expire_date": "2027-11-30"
    },
    {
      "name": "有限会社あさひ",
      "name_kana": "",
      "business_type": "そうざい製造業",
      "address": "岐阜県中津川市坂下４３５－２８",
      "lat": 35.574018,
      "lng": 137.512804,
      "geocoding_level": 3,
      "phone": "0573-75-2205",
      "license_no": "60000552",
      "license_date": "2022-07-05",
      "expire_date": "2027-08-31"
    },
    {
      "name": "かわうえ農産物加工クラブ",
      "name_kana": "",
      "business_type": "菓子製造業",
      "address": "岐阜県中津川市川上１８４０－５",
      "lat": 35.636974,
      "lng": 137.50819200000004,
      "geocoding_level": 3,
      "phone": "0573-74-2282",
      "license_no": "60000558",
      "license_date": "2022-07-13",
      "expire_date": "2027-08-31"
    },
    {
      "name": "かわうえ農産物加工クラブ",
      "name_kana": "",
      "business_type": "みそ又はしょうゆ製造業",
      "address": "岐阜県中津川市川上１８４０－５",
      "lat": 35.636974,
      "lng": 137.50819200000004,
      "geocoding_level": 3,
      "phone": "0573-74-2282",
      "license_no": "60000559",
      "license_date": "2022-07-13",
      "expire_date": "2027-08-31"
    },
    {
      "name": "かわうえ農産物加工クラブ",
      "name_kana": "",
      "business_type": "そうざい製造業",
      "address": "岐阜県中津川市川上１８４０－５",
      "lat": 35.636974,
      "lng": 137.50819200000004,
      "geocoding_level": 3,
      "phone": "0573-74-2282",
      "license_no": "60000560",
      "license_date": "2022-07-13",
      "expire_date": "2027-08-31"
    },
    {
      "name": "かわうえ農産物加工クラブ",
      "name_kana": "",
      "business_type": "漬物製造業",
      "address": "岐阜県中津川市川上１８４０－５",
      "lat": 35.636974,
      "lng": 137.50819200000004,
      "geocoding_level": 3,
      "phone": "0573-74-2282",
      "license_no": "60000561",
      "license_date": "2022-07-13",
      "expire_date": "2027-08-31"
    },
    {
      "name": "保護猫カフェ‘Ｏｈａｎａ",
      "name_kana": "",
      "business_type": "飲食店営業",
      "address": "岐阜県中津川市中津川３０２２－１６",
      "lat": 35.455883,
      "lng": 137.544713,
      "geocoding_level": 3,
      "phone": "070-9008-7087",
      "license_no": "60000562",
      "license_date": "2022-07-19",
      "expire_date": "2027-11-30"
    },
    {
      "name": "ショッピングプラザアトラ生鮮館",
      "name_kana": "",
      "business_type": "食肉処理業",
      "address": "岐阜県中津川市加子母４９４４",
      "lat": 35.696393272,
      "lng": 137.3805166,
      "geocoding_level": 8,
      "phone": "0573-79-3737",
      "license_no": "60000565",
      "license_date": "2022-07-20",
      "expire_date": "2027-08-31"
    },
    {
      "name": "じいばあず",
      "name_kana": "",
      "business_type": "みそ又はしょうゆ製造業",
      "address": "岐阜県中津川市付知町１８４５",
      "lat": 35.677868062,
      "lng": 137.414272374,
      "geocoding_level": 8,
      "phone": "090-4799-8954",
      "license_no": "60000566",
      "license_date": "2022-07-20",
      "expire_date": "2027-08-31"
    },
    {
      "name": "付知峡倉屋温泉",
      "name_kana": "",
      "business_type": "飲食店営業",
      "address": "岐阜県中津川市付知町１９２９－１",
      "lat": 35.664541,
      "lng": 137.439574,
      "geocoding_level": 3,
      "phone": "0573-82-5311",
      "license_no": "60000567",
      "license_date": "2022-07-20",
      "expire_date": "2027-08-31"
    },
    {
      "name": "有限会社　いろり火",
      "name_kana": "",
      "business_type": "飲食店営業",
      "address": "岐阜県中津川市付知町６８１２－１９",
      "lat": 35.664541,
      "lng": 137.439574,
      "geocoding_level": 3,
      "phone": "0573-82-3913",
      "license_no": "60000568",
      "license_date": "2022-07-25",
      "expire_date": "2027-08-31"
    },
    {
      "name": "有限会社　いろり火",
      "name_kana": "",
      "business_type": "そうざい製造業",
      "address": "岐阜県中津川市付知町６８１２－１９",
      "lat": 35.664541,
      "lng": 137.439574,
      "geocoding_level": 3,
      "phone": "0573-82-3913",
      "license_no": "60000569",
      "license_date": "2022-07-25",
      "expire_date": "2027-08-31"
    },
    {
      "name": "日本料理まえだ",
      "name_kana": "",
      "business_type": "飲食店営業",
      "address": "岐阜県中津川市付知町尾ヶ平４６２６－１",
      "lat": 35.664541,
      "lng": 137.439574,
      "geocoding_level": 3,
      "phone": "0573-82-4460",
      "license_no": "60000571",
      "license_date": "2022-07-25",
      "expire_date": "2027-08-31"
    },
    {
      "name": "あざみ亭",
      "name_kana": "",
      "business_type": "飲食店営業",
      "address": "岐阜県中津川市付知町１１７７３－５",
      "lat": 35.645037712,
      "lng": 137.449755865,
      "geocoding_level": 8,
      "phone": "0573-82-2576",
      "license_no": "60000573",
      "license_date": "2022-07-25",
      "expire_date": "2027-08-31"
    },
    {
      "name": "セブン－イレブン中津川付知町店",
      "name_kana": "",
      "business_type": "飲食店営業",
      "address": "岐阜県中津川市付知町１０９４０－１",
      "lat": 35.639903537,
      "lng": 137.445206017,
      "geocoding_level": 8,
      "phone": "0573-82-3227",
      "license_no": "60000574",
      "license_date": "2022-07-25",
      "expire_date": "2027-08-31"
    },
    {
      "name": "ファミリーマート付知尾ヶ平店",
      "name_kana": "",
      "business_type": "飲食店営業",
      "address": "岐阜県中津川市付知町４９５６－５５",
      "lat": 35.662001793,
      "lng": 137.428361733,
      "geocoding_level": 8,
      "phone": "0573-83-1503",
      "license_no": "60000575",
      "license_date": "2022-07-25",
      "expire_date": "2027-08-31"
    },
    {
      "name": "ＭＡＳＵＹＡ",
      "name_kana": "",
      "business_type": "菓子製造業",
      "address": "岐阜県中津川市田瀬１４４０－１",
      "lat": 35.647895926,
      "lng": 137.472363405,
      "geocoding_level": 8,
      "phone": "0573-72-2850",
      "license_no": "60000577",
      "license_date": "2022-07-28",
      "expire_date": "2027-08-31"
    },
    {
      "name": "株式会社大屋",
      "name_kana": "",
      "business_type": "飲食店営業",
      "address": "岐阜県中津川市坂下４３５－２８",
      "lat": 35.574018,
      "lng": 137.512804,
      "geocoding_level": 3,
      "phone": "0573-75-2547",
      "license_no": "60000581",
      "license_date": "2022-08-02",
      "expire_date": "2027-08-31"
    },
    {
      "name": "株式会社大屋",
      "name_kana": "",
      "business_type": "食肉販売業",
      "address": "岐阜県中津川市坂下４３５－２８",
      "lat": 35.574018,
      "lng": 137.512804,
      "geocoding_level": 3,
      "phone": "0573-75-2547",
      "license_no": "60000582",
      "license_date": "2022-08-02",
      "expire_date": "2027-08-31"
    },
    {
      "name": "ファミリーマート北恵那福岡店",
      "name_kana": "",
      "business_type": "飲食店営業",
      "address": "岐阜県中津川市福岡１２２３－２９",
      "lat": 35.578346,
      "lng": 137.427377,
      "geocoding_level": 3,
      "phone": "0573-76-3021",
      "license_no": "60000583",
      "license_date": "2022-07-28",
      "expire_date": "2027-08-31"
    },
    {
      "name": "丸十商店",
      "name_kana": "",
      "business_type": "飲食店営業",
      "address": "岐阜県中津川市坂下１７２０－２",
      "lat": 35.574018,
      "lng": 137.512804,
      "geocoding_level": 3,
      "phone": "0573-75-2070",
      "license_no": "60000584",
      "license_date": "2022-08-02",
      "expire_date": "2027-08-31"
    },
    {
      "name": "丸十商店",
      "name_kana": "",
      "business_type": "魚介類販売業",
      "address": "岐阜県中津川市坂下１７２０－２",
      "lat": 35.574018,
      "lng": 137.512804,
      "geocoding_level": 3,
      "phone": "0573-75-2070",
      "license_no": "60000585",
      "license_date": "2022-08-02",
      "expire_date": "2027-08-31"
    },
    {
      "name": "夕森の里（夕森荘）",
      "name_kana": "",
      "business_type": "飲食店営業",
      "address": "岐阜県中津川市川上１０５８－９",
      "lat": 35.640454316,
      "lng": 137.506111937,
      "geocoding_level": 8,
      "phone": "0573-74-2145",
      "license_no": "60000589",
      "license_date": "2022-08-02",
      "expire_date": "2027-08-31"
    },
    {
      "name": "もりのいえ加子母",
      "name_kana": "",
      "business_type": "飲食店営業",
      "address": "岐阜県中津川市加子母２２２０",
      "lat": 35.731404991,
      "lng": 137.348017823,
      "geocoding_level": 8,
      "phone": "070-5407-2220",
      "license_no": "60000590",
      "license_date": "2022-08-02",
      "expire_date": "2027-08-31"
    },
    {
      "name": "もりのいえ加子母",
      "name_kana": "",
      "business_type": "菓子製造業",
      "address": "岐阜県中津川市加子母２２２０",
      "lat": 35.731404991,
      "lng": 137.348017823,
      "geocoding_level": 8,
      "phone": "070-5407-2220",
      "license_no": "60000591",
      "license_date": "2022-08-02",
      "expire_date": "2027-08-31"
    },
    {
      "name": "もりのいえ加子母",
      "name_kana": "",
      "business_type": "密封包装食品製造業",
      "address": "岐阜県中津川市加子母２２２０",
      "lat": 35.731404991,
      "lng": 137.348017823,
      "geocoding_level": 8,
      "phone": "070-5407-2220",
      "license_no": "60000592",
      "license_date": "2022-08-02",
      "expire_date": "2027-08-31"
    },
    {
      "name": "北原こうじ店",
      "name_kana": "",
      "business_type": "そうざい製造業",
      "address": "岐阜県中津川市田瀬１１１０",
      "lat": 35.629438,
      "lng": 137.473364,
      "geocoding_level": 3,
      "phone": "0573-72-3566",
      "license_no": "60000598",
      "license_date": "2022-08-05",
      "expire_date": "2027-08-31"
    },
    {
      "name": "ファミリーマート恵那加子母店",
      "name_kana": "",
      "business_type": "飲食店営業",
      "address": "岐阜県中津川市加子母４５３２－１１",
      "lat": 35.700736952,
      "lng": 137.380153624,
      "geocoding_level": 8,
      "phone": "0573-79-4050",
      "license_no": "60000603",
      "license_date": "2022-08-22",
      "expire_date": "2027-08-31"
    },
    {
      "name": "焼肉家　一桂",
      "name_kana": "",
      "business_type": "飲食店営業",
      "address": "岐阜県中津川市千旦林１５７１－３０",
      "lat": 35.494558757,
      "lng": 137.447844263,
      "geocoding_level": 8,
      "phone": "0573-78-2901",
      "license_no": "60000606",
      "license_date": "2022-08-25",
      "expire_date": "2027-11-30"
    },
    {
      "name": "ちこり村　パン工房",
      "name_kana": "",
      "business_type": "菓子製造業",
      "address": "岐阜県中津川市千旦林１－１５",
      "lat": 35.476103,
      "lng": 137.46798000000004,
      "geocoding_level": 3,
      "phone": "0573-66-5111",
      "license_no": "60000610",
      "license_date": "2022-09-07",
      "expire_date": "2027-11-30"
    },
    {
      "name": "もりのいえ落合",
      "name_kana": "",
      "business_type": "菓子製造業",
      "address": "岐阜県中津川市落合１６４－５",
      "lat": 35.497236,
      "lng": 137.550542,
      "geocoding_level": 3,
      "phone": "0573-67-7198",
      "license_no": "60000612",
      "license_date": "2022-09-08",
      "expire_date": "2027-11-30"
    },
    {
      "name": "七福神　中津川工場",
      "name_kana": "",
      "business_type": "そうざい製造業",
      "address": "岐阜県中津川市東町３－４３",
      "lat": 35.498421,
      "lng": 137.509427,
      "geocoding_level": 3,
      "phone": "090-7687-9550",
      "license_no": "60000613",
      "license_date": "2022-09-08",
      "expire_date": "2027-11-30"
    },
    {
      "name": "お宿Ｏｎｎ中津川",
      "name_kana": "",
      "business_type": "飲食店営業",
      "address": "岐阜県中津川市新町７－４３",
      "lat": 35.4968129,
      "lng": 137.504202819,
      "geocoding_level": 8,
      "phone": "0573-64-8811",
      "license_no": "60000615",
      "license_date": "2022-09-13",
      "expire_date": "2027-11-30"
    },
    {
      "name": "カーバンプール",
      "name_kana": "",
      "business_type": "飲食店営業",
      "address": "岐阜県中津川市かやの木町２７２３－５２",
      "lat": 35.486456,
      "lng": 137.500888,
      "geocoding_level": 3,
      "phone": "080-1555-2129",
      "license_no": "60000617",
      "license_date": "2022-09-20",
      "expire_date": "2027-11-30"
    },
    {
      "name": "たんぽぽ　中津川",
      "name_kana": "",
      "business_type": "飲食店営業",
      "address": "岐阜県中津川市中津川８９１－５８",
      "lat": 35.455883,
      "lng": 137.544713,
      "geocoding_level": 3,
      "phone": "0573-66-5491",
      "license_no": "60000624",
      "license_date": "2022-10-03",
      "expire_date": "2027-11-30"
    },
    {
      "name": "酒房　寿々田屋",
      "name_kana": "",
      "business_type": "飲食店営業",
      "address": "岐阜県中津川市福岡２９９２－１",
      "lat": 35.578346,
      "lng": 137.427377,
      "geocoding_level": 3,
      "phone": "0573-72-2055",
      "license_no": "60000626",
      "license_date": "2022-10-04",
      "expire_date": "2028-08-31"
    },
    {
      "name": "ヤハズ産業　新木曽寿司",
      "name_kana": "",
      "business_type": "そうざい製造業",
      "address": "岐阜県中津川市飯沼１２４１",
      "lat": 35.42266,
      "lng": 137.472622,
      "geocoding_level": 3,
      "phone": "0573-63-2556",
      "license_no": "60000630",
      "license_date": "2022-10-11",
      "expire_date": "2028-05-31"
    },
    {
      "name": "木曽ごへー本舗",
      "name_kana": "",
      "business_type": "飲食店営業",
      "address": "岐阜県中津川市山口３３７３－１２３",
      "lat": 35.56018,
      "lng": 137.552868,
      "geocoding_level": 3,
      "phone": "0573-75-5219",
      "license_no": "60000631",
      "license_date": "2022-10-11",
      "expire_date": "2027-11-30"
    },
    {
      "name": "木曽ごへー本舗",
      "name_kana": "",
      "business_type": "密封包装食品製造業",
      "address": "岐阜県中津川市山口３３７３－１２３",
      "lat": 35.56018,
      "lng": 137.552868,
      "geocoding_level": 3,
      "phone": "0573-75-5219",
      "license_no": "60000632",
      "license_date": "2022-10-11",
      "expire_date": "2027-11-30"
    },
    {
      "name": "道の駅　郷土料理　賤母",
      "name_kana": "",
      "business_type": "飲食店営業",
      "address": "岐阜県中津川市山口１－１４",
      "lat": 35.56018,
      "lng": 137.552868,
      "geocoding_level": 3,
      "phone": "0573-75-5255",
      "license_no": "60000633",
      "license_date": "2022-10-11",
      "expire_date": "2027-11-30"
    },
    {
      "name": "馬籠館　本館飲食",
      "name_kana": "",
      "business_type": "飲食店営業",
      "address": "岐阜県中津川市馬籠４５７１－１",
      "lat": 35.528394,
      "lng": 137.56527,
      "geocoding_level": 3,
      "phone": "0573-69-2211",
      "license_no": "60000634",
      "license_date": "2022-10-12",
      "expire_date": "2027-11-30"
    },
    {
      "name": "馬籠館　本館飲食",
      "name_kana": "",
      "business_type": "麺類製造業",
      "address": "岐阜県中津川市馬籠４５７１－１",
      "lat": 35.528394,
      "lng": 137.56527,
      "geocoding_level": 3,
      "phone": "0573-69-2211",
      "license_no": "60000635",
      "license_date": "2022-10-12",
      "expire_date": "2027-11-30"
    },
    {
      "name": "Ｔｅｒｒａｃｅｄ　Ｆｉｅｌｄｓ　Ｃａｍｐ",
      "name_kana": "",
      "business_type": "飲食店営業",
      "address": "岐阜県中津川市福岡２２７４－１２",
      "lat": 35.578346,
      "lng": 137.427377,
      "geocoding_level": 3,
      "phone": "090-3688-0008",
      "license_no": "60000636",
      "license_date": "2022-10-13",
      "expire_date": "2028-08-31"
    },
    {
      "name": "ＡＧＡＩＮ　ＣＯＦＦＥＥ　ＳＴＡＮＤ",
      "name_kana": "",
      "business_type": "飲食店営業",
      "address": "岐阜県中津川市付知町６９５５－６",
      "lat": 35.664541,
      "lng": 137.439574,
      "geocoding_level": 3,
      "phone": "0573-64-9009",
      "license_no": "60000638",
      "license_date": "2022-10-13",
      "expire_date": "2028-08-31"
    },
    {
      "name": "いわき家",
      "name_kana": "",
      "business_type": "飲食店営業",
      "address": "岐阜県中津川市太田町３丁目１－８　マリコーポ１Ｆ",
      "lat": 35.498916253,
      "lng": 137.503336283,
      "geocoding_level": 8,
      "phone": "0573-65-0141",
      "license_no": "60000640",
      "license_date": "2022-10-17",
      "expire_date": "2027-11-30"
    },
    {
      "name": "６４ｃａｆｅ",
      "name_kana": "",
      "business_type": "飲食店営業",
      "address": "岐阜県中津川市坂下２７１－７",
      "lat": 35.574018,
      "lng": 137.512804,
      "geocoding_level": 3,
      "phone": "0573-75-5540",
      "license_no": "60000644",
      "license_date": "2022-10-17",
      "expire_date": "2028-08-31"
    },
    {
      "name": "カラオケジョイジョイ中津川ＩＣ店",
      "name_kana": "",
      "business_type": "飲食店営業",
      "address": "岐阜県中津川市手賀野４３８－１",
      "lat": 35.463705,
      "lng": 137.501971,
      "geocoding_level": 3,
      "phone": "0573-65-6999",
      "license_no": "60000645",
      "license_date": "2022-10-27",
      "expire_date": "2027-11-30"
    },
    {
      "name": "カラオケジョイジョイ中津川ＩＣ店",
      "name_kana": "",
      "business_type": "飲食店営業",
      "address": "岐阜県中津川市手賀野４３８－１",
      "lat": 35.463705,
      "lng": 137.501971,
      "geocoding_level": 3,
      "phone": "0573-65-6999",
      "license_no": "60000646",
      "license_date": "2022-10-27",
      "expire_date": "2027-11-30"
    },
    {
      "name": "家族葬ホール絆〔中津川〕",
      "name_kana": "",
      "business_type": "飲食店営業",
      "address": "岐阜県中津川市中津川１１４４－３",
      "lat": 35.455883,
      "lng": 137.544713,
      "geocoding_level": 3,
      "phone": "0573-62-4040",
      "license_no": "60000648",
      "license_date": "2022-10-27",
      "expire_date": "2027-11-30"
    },
    {
      "name": "カラオケ　麻美",
      "name_kana": "",
      "business_type": "飲食店営業",
      "address": "岐阜県中津川市千旦林１１５０－２１",
      "lat": 35.476103,
      "lng": 137.46798000000004,
      "geocoding_level": 3,
      "phone": "0573-68-4322",
      "license_no": "60000649",
      "license_date": "2022-10-17",
      "expire_date": "2027-11-30"
    },
    {
      "name": "マジョリカバンブー",
      "name_kana": "",
      "business_type": "飲食店営業",
      "address": "岐阜県中津川市駒場８０１－１",
      "lat": 35.494965,
      "lng": 137.478459,
      "geocoding_level": 3,
      "phone": "0573-66-7211",
      "license_no": "60000652",
      "license_date": "2022-10-27",
      "expire_date": "2027-11-30"
    },
    {
      "name": "ちゅうぼう屋　ん",
      "name_kana": "",
      "business_type": "菓子製造業",
      "address": "岐阜県中津川市駒場１６１４－３０　ハイツ大平１Ｆ３号",
      "lat": 35.494965,
      "lng": 137.478459,
      "geocoding_level": 3,
      "phone": "0573-65-0023",
      "license_no": "60000653",
      "license_date": "2022-10-27",
      "expire_date": "2027-11-30"
    },
    {
      "name": "マジョリカ",
      "name_kana": "",
      "business_type": "飲食店営業",
      "address": "岐阜県中津川市駒場８０１－１",
      "lat": 35.494965,
      "lng": 137.478459,
      "geocoding_level": 3,
      "phone": "0573-66-7211",
      "license_no": "60000656",
      "license_date": "2022-10-27",
      "expire_date": "2027-11-30"
    },
    {
      "name": "セブンイレブン中津川中村店",
      "name_kana": "",
      "business_type": "飲食店営業",
      "address": "岐阜県中津川市中津川字野中２９７２－１",
      "lat": 35.455883,
      "lng": 137.544713,
      "geocoding_level": 3,
      "phone": "0573-66-8868",
      "license_no": "60000657",
      "license_date": "2022-10-27",
      "expire_date": "2027-11-30"
    },
    {
      "name": "（株）川上屋手賀野店茶寮栗乃舎",
      "name_kana": "",
      "business_type": "飲食店営業",
      "address": "岐阜県中津川市手賀野２７７－１",
      "lat": 35.463705,
      "lng": 137.501971,
      "geocoding_level": 3,
      "phone": "0573-65-6410",
      "license_no": "60000659",
      "license_date": "2022-10-27",
      "expire_date": "2027-11-30"
    },
    {
      "name": "知多屋",
      "name_kana": "",
      "business_type": "飲食店営業",
      "address": "岐阜県中津川市茄子川１５９８－２６",
      "lat": 35.465086,
      "lng": 137.456551,
      "geocoding_level": 3,
      "phone": "0573-68-5018",
      "license_no": "60000661",
      "license_date": "2022-10-27",
      "expire_date": "2027-11-30"
    },
    {
      "name": "知多屋",
      "name_kana": "",
      "business_type": "魚介類販売業",
      "address": "岐阜県中津川市茄子川１５９８－２６",
      "lat": 35.465086,
      "lng": 137.456551,
      "geocoding_level": 3,
      "phone": "0573-68-5018",
      "license_no": "60000662",
      "license_date": "2022-10-27",
      "expire_date": "2027-11-30"
    },
    {
      "name": "感動の肉と米中津川店",
      "name_kana": "",
      "business_type": "飲食店営業",
      "address": "岐阜県中津川市茄子川１９８３－１１",
      "lat": 35.461325666,
      "lng": 137.449478008,
      "geocoding_level": 8,
      "phone": "0573-78-1129",
      "license_no": "60000663",
      "license_date": "2022-10-27",
      "expire_date": "2027-11-30"
    },
    {
      "name": "有限会社やすえ食品",
      "name_kana": "",
      "business_type": "飲食店営業",
      "address": "岐阜県中津川市茄子川１４９８－４５",
      "lat": 35.465086,
      "lng": 137.456551,
      "geocoding_level": 3,
      "phone": "0573-68-6151",
      "license_no": "60000664",
      "license_date": "2022-10-27",
      "expire_date": "2027-11-30"
    },
    {
      "name": "株式会社バロー坂本店",
      "name_kana": "",
      "business_type": "食肉販売業",
      "address": "岐阜県中津川市茄子川２２２３－１",
      "lat": 35.468859715,
      "lng": 137.451617789,
      "geocoding_level": 8,
      "phone": "0573-78-0030",
      "license_no": "60000672",
      "license_date": "2022-10-27",
      "expire_date": "2027-11-30"
    },
    {
      "name": "株式会社バロー坂本店",
      "name_kana": "",
      "business_type": "菓子製造業",
      "address": "岐阜県中津川市茄子川２２２３－１",
      "lat": 35.468859715,
      "lng": 137.451617789,
      "geocoding_level": 8,
      "phone": "0573-78-0030",
      "license_no": "60000673",
      "license_date": "2022-10-27",
      "expire_date": "2027-11-30"
    },
    {
      "name": "株式会社バロー坂本店",
      "name_kana": "",
      "business_type": "魚介類販売業",
      "address": "岐阜県中津川市茄子川２２２３－１",
      "lat": 35.468859715,
      "lng": 137.451617789,
      "geocoding_level": 8,
      "phone": "0573-78-0030",
      "license_no": "60000674",
      "license_date": "2022-10-27",
      "expire_date": "2027-11-30"
    },
    {
      "name": "中部フーズ株式会社坂本店",
      "name_kana": "",
      "business_type": "飲食店営業",
      "address": "岐阜県中津川市茄子川２２２３－１",
      "lat": 35.468859715,
      "lng": 137.451617789,
      "geocoding_level": 8,
      "phone": "0573-78-0030",
      "license_no": "60000682",
      "license_date": "2022-10-27",
      "expire_date": "2027-11-30"
    },
    {
      "name": "(有)つちや商店　御菓子所しん",
      "name_kana": "",
      "business_type": "菓子製造業",
      "address": "岐阜県中津川市太田町３丁目３－９",
      "lat": 35.497784581,
      "lng": 137.502996842,
      "geocoding_level": 8,
      "phone": "0573-65-2457",
      "license_no": "60000683",
      "license_date": "2022-11-07",
      "expire_date": "2027-11-30"
    },
    {
      "name": "チキンハウス",
      "name_kana": "",
      "business_type": "飲食店営業",
      "address": "岐阜県中津川市新町５－２０",
      "lat": 35.497113694,
      "lng": 137.504392378,
      "geocoding_level": 8,
      "phone": "0573-65-4129",
      "license_no": "60000686",
      "license_date": "2022-11-07",
      "expire_date": "2027-11-30"
    },