{
  "meta": {
    "updated": 1783906731,
    "sources": [
      {
        "source": "鹿児島県 鹿児島県食品営業許可施設一覧",
        "license": "Creative Commons Attribution 4.0 International"
      }
    ]
  },
  "data": [
    {
      "name": "別府　達郎",
      "name_kana": "",
      "business_type": "飲食店営業（その他）",
      "address": "熊本市東区月出６－２－８８　ニューアーバン月出１０３ （鹿児島市を除く鹿児島県内一円）",
      "lat": 32.804013048,
      "lng": 130.771688966,
      "geocoding_level": 8,
      "phone": "",
      "license_no": "第034-000307号",
      "license_date": null,
      "expire_date": "2029-01-31"
    },
    {
      "name": "成松　祐紀",
      "name_kana": "",
      "business_type": "飲食店営業（その他）",
      "address": "熊本市東区月出１丁目２－２RS月出Ⅱ２０５ （鹿児島市を除く県内一円）",
      "lat": 32.801928512,
      "lng": 130.759452355,
      "geocoding_level": 8,
      "phone": "",
      "license_no": "第035-000081号",
      "license_date": null,
      "expire_date": "2028-07-31"
    },
    {
      "name": "株式会社　GRATIA",
      "name_kana": "",
      "business_type": "飲食店営業（その他）",
      "address": "熊本市東区長嶺東六丁目１７番８号 （鹿児島市を除く県内一円）",
      "lat": 32.825423725,
      "lng": 130.784364432,
      "geocoding_level": 8,
      "phone": "",
      "license_no": "第035-000265号",
      "license_date": null,
      "expire_date": "2030-01-31"
    },
    {
      "name": "野添　義継",
      "name_kana": "",
      "business_type": "飲食店営業（その他）",
      "address": "熊本県熊本市東区戸島町３８７３－１ （鹿児島市を除く鹿児島県内一円）",
      "lat": 32.815436,
      "lng": 130.81899,
      "geocoding_level": 3,
      "phone": "",
      "license_no": "第033-000462号",
      "license_date": null,
      "expire_date": "2026-10-31"
    },
    {
      "name": "株式会社ビート・アップ",
      "name_kana": "",
      "business_type": "飲食店営業（その他）",
      "address": "熊本県熊本市東区健軍１－５－５ （鹿児島市を除く鹿児島県内一円）",
      "lat": 32.785078548,
      "lng": 130.748574894,
      "geocoding_level": 8,
      "phone": "",
      "license_no": "第036-000417号",
      "license_date": null,
      "expire_date": "2030-07-31"
    }
  ]
}
