{
  "meta": {
    "updated": 1783906731,
    "sources": [
      {
        "source": "名古屋市 【名古屋市】食品営業許可施設一覧",
        "license": "Creative Commons Attribution 4.0 International"
      }
    ]
  },
  "data": [
    {
      "name": "餃子の王将　植田店",
      "name_kana": "",
      "business_type": "飲食店営業",
      "address": "名古屋市天白区植田西一丁目４０１番地　ＳＳビル１Ｆ",
      "lat": 35.135884,
      "lng": 136.983896,
      "geocoding_level": 3,
      "phone": "",
      "license_no": "7天保健第1-57号",
      "license_date": "2025-06-12",
      "expire_date": null
    },
    {
      "name": "マクドナルド　植田一本松店",
      "name_kana": "",
      "business_type": "飲食店営業",
      "address": "名古屋市天白区一本松一丁目４０４番地",
      "lat": 35.139475,
      "lng": 136.986483,
      "geocoding_level": 3,
      "phone": "",
      "license_no": "7天保健第1-50号",
      "license_date": "2025-06-04",
      "expire_date": null
    },
    {
      "name": "コノミヤべりーぐっど店",
      "name_kana": "",
      "business_type": "飲食店営業",
      "address": "名古屋市天白区植田三丁目１１０３番地　三国ビル",
      "lat": 35.127966,
      "lng": 136.988997,
      "geocoding_level": 3,
      "phone": "",
      "license_no": "7天保健第1-51号",
      "license_date": "2025-06-03",
      "expire_date": null
    },
    {
      "name": "コノミヤべりーぐっど店",
      "name_kana": "",
      "business_type": "魚介類販売業",
      "address": "名古屋市天白区植田三丁目１１０３番地　三国ビル",
      "lat": 35.127966,
      "lng": 136.988997,
      "geocoding_level": 3,
      "phone": "",
      "license_no": "7天保健第1-52号",
      "license_date": "2025-06-03",
      "expire_date": null
    },
    {
      "name": "春紅",
      "name_kana": "",
      "business_type": "飲食店営業",
      "address": "名古屋市天白区植田三丁目１５０１番地　シティーコーポ植田Ｂ棟１０３号",
      "lat": 35.127966,
      "lng": 136.988997,
      "geocoding_level": 3,
      "phone": "",
      "license_no": "7天保健第1-59号",
      "license_date": "2025-06-16",
      "expire_date": null
    },
    {
      "name": "銀のさら釜寅　天白店",
      "name_kana": "",
      "business_type": "飲食店営業",
      "address": "名古屋市天白区植田西二丁目１５０９番地",
      "lat": 35.132456,
      "lng": 136.982139,
      "geocoding_level": 3,
      "phone": "",
      "license_no": "7天保健第1-43号",
      "license_date": "2025-06-04",
      "expire_date": null
    },
    {
      "name": "セブン‐イレブン名古屋植田１丁目店",
      "name_kana": "",
      "business_type": "飲食店営業",
      "address": "名古屋市天白区植田一丁目１７０６番地",
      "lat": 35.130579,
      "lng": 136.986132,
      "geocoding_level": 3,
      "phone": "",
      "license_no": "7天保健第1-56号",
      "license_date": "2025-06-05",
      "expire_date": null
    },
    {
      "name": "松屋　植田一本松店",
      "name_kana": "",
      "business_type": "飲食店営業",
      "address": "名古屋市天白区一本松二丁目７０１番地",
      "lat": 35.137536,
      "lng": 136.985344,
      "geocoding_level": 3,
      "phone": "",
      "license_no": "7天保健第1-44号",
      "license_date": "2025-06-10",
      "expire_date": null
    },
    {
      "name": "松屋　植田一本松店",
      "name_kana": "",
      "business_type": "そうざい製造業",
      "address": "名古屋市天白区一本松二丁目７０１番地",
      "lat": 35.137536,
      "lng": 136.985344,
      "geocoding_level": 3,
      "phone": "",
      "license_no": "7天保健第1-45号",
      "license_date": "2025-06-10",
      "expire_date": null
    },
    {
      "name": "あんかけ家　植田店",
      "name_kana": "",
      "business_type": "飲食店営業",
      "address": "名古屋市天白区植田三丁目１７０１番地　よし司マンション１ＦＤ号",
      "lat": 35.127966,
      "lng": 136.988997,
      "geocoding_level": 3,
      "phone": "",
      "license_no": "7天保健第1-61号",
      "license_date": "2025-06-11",
      "expire_date": null
    },
    {
      "name": "フレンチの店　レシェル",
      "name_kana": "",
      "business_type": "飲食店営業",
      "address": "名古屋市天白区植田一丁目６０８番地",
      "lat": 35.130579,
      "lng": 136.986132,
      "geocoding_level": 3,
      "phone": "",
      "license_no": "7天保健第1-48号",
      "license_date": "2025-06-13",
      "expire_date": null
    },
    {
      "name": "こまち",
      "name_kana": "",
      "business_type": "飲食店営業",
      "address": "名古屋市天白区植田三丁目１３０７番地　第２コーポ浅井１０３",
      "lat": 35.127966,
      "lng": 136.988997,
      "geocoding_level": 3,
      "phone": "",
      "license_no": "7天保健第1-62号",
      "license_date": "2025-06-16",
      "expire_date": null
    },
    {
      "name": "カノン　ベーグル",
      "name_kana": "",
      "business_type": "菓子製造業",
      "address": "名古屋市天白区平針三丁目１１１番地　名東ビル１０２",
      "lat": 35.12086,
      "lng": 137.008521,
      "geocoding_level": 3,
      "phone": "",
      "license_no": "7天保健第1-10号",
      "license_date": "2025-06-20",
      "expire_date": null
    },
    {
      "name": "ＨＩＭＡＷＡＲＩ　ＰｕＢ&ＢＡＲ",
      "name_kana": "",
      "business_type": "飲食店営業",
      "address": "名古屋市天白区植田西二丁目１６１０番地　ダンディビル1FB",
      "lat": 35.132456,
      "lng": 136.982139,
      "geocoding_level": 3,
      "phone": "",
      "license_no": "7天保健第1-64号",
      "license_date": "2025-06-20",
      "expire_date": null
    },
    {
      "name": "ダンス　カラオケ　サンバ",
      "name_kana": "",
      "business_type": "飲食店営業",
      "address": "名古屋市天白区塩釜口二丁目１５０１番地　フェイム塩釜　２Ｆ",
      "lat": 35.13298,
      "lng": 136.979104,
      "geocoding_level": 3,
      "phone": "",
      "license_no": "7天保健第1-63号",
      "license_date": "2025-06-20",
      "expire_date": null
    },
    {
      "name": "ＣＨＥＶＹ",
      "name_kana": "",
      "business_type": "飲食店営業",
      "address": "名古屋市天白区植田三丁目１２０７番地　サンシャインビル南棟１Ｂ",
      "lat": 35.127966,
      "lng": 136.988997,
      "geocoding_level": 3,
      "phone": "",
      "license_no": "7天保健第1-66号",
      "license_date": "2025-06-30",
      "expire_date": null
    }
  ]
}
