{
  "meta": {
    "updated": 1783906731,
    "sources": [
      {
        "source": "熊本県 食品営業許可施設、届出施設データ",
        "license": "Creative Commons Attribution 4.0 International"
      },
      {
        "source": "厚生労働省 食品衛生申請等システム（オープンデータ）",
        "license": "公共データ利用規約（第1.0版, PDL1.0）"
      }
    ]
  },
  "data": [
    {
      "name": "",
      "name_kana": "",
      "business_type": "菓子製造業",
      "address": "玉名郡南関町大字宮尾７５３－２",
      "lat": 33.011944837,
      "lng": 130.52065412200002,
      "geocoding_level": 8,
      "phone": "",
      "license_no": "",
      "license_date": "2017-01-12",
      "expire_date": null
    },
    {
      "name": "",
      "name_kana": "",
      "business_type": "飲食店営業",
      "address": "熊本県玉名郡南関町宮尾３５７－９",
      "lat": 32.997474363,
      "lng": 130.523513321,
      "geocoding_level": 8,
      "phone": "",
      "license_no": "",
      "license_date": "2017-02-09",
      "expire_date": null
    },
    {
      "name": "",
      "name_kana": "",
      "business_type": "めん類製造業",
      "address": "熊本県玉名郡南関町関東１１３４－１",
      "lat": 33.066710934,
      "lng": 130.558529205,
      "geocoding_level": 8,
      "phone": "",
      "license_no": "",
      "license_date": "2017-02-09",
      "expire_date": null
    },
    {
      "name": "",
      "name_kana": "",
      "business_type": "めん類製造業",
      "address": "玉名郡南関町上長田６６６－１４",
      "lat": 33.027097311,
      "lng": 130.529124698,
      "geocoding_level": 8,
      "phone": "",
      "license_no": "",
      "license_date": "2017-02-09",
      "expire_date": null
    },
    {
      "name": "",
      "name_kana": "",
      "business_type": "飲食店営業",
      "address": "玉名郡南関町大字上長田６５４番地",
      "lat": 33.035101,
      "lng": 130.528558,
      "geocoding_level": 3,
      "phone": "",
      "license_no": "",
      "license_date": "2017-02-22",
      "expire_date": null
    },
    {
      "name": "",
      "name_kana": "",
      "business_type": "飲食店営業",
      "address": "熊本県玉名郡南関町上長田654－1",
      "lat": 33.028495866,
      "lng": 130.530085434,
      "geocoding_level": 8,
      "phone": "",
      "license_no": "",
      "license_date": "2017-05-12",
      "expire_date": null
    },
    {
      "name": "",
      "name_kana": "",
      "business_type": "食肉販売業",
      "address": "玉名郡南関町相谷１３７６‐２",
      "lat": 33.041989806,
      "lng": 130.57707703,
      "geocoding_level": 8,
      "phone": "",
      "license_no": "",
      "license_date": "2017-05-12",
      "expire_date": null
    },
    {
      "name": "",
      "name_kana": "",
      "business_type": "そうざい製造業",
      "address": "玉名郡南関町豊永５５３８",
      "lat": 33.030383684,
      "lng": 130.553829224,
      "geocoding_level": 8,
      "phone": "",
      "license_no": "",
      "license_date": "2017-05-24",
      "expire_date": null
    },
    {
      "name": "",
      "name_kana": "",
      "business_type": "菓子製造業",
      "address": "玉名郡南関町関町１５６７番地",
      "lat": 33.058803162,
      "lng": 130.545441386,
      "geocoding_level": 8,
      "phone": "",
      "license_no": "",
      "license_date": "2017-06-12",
      "expire_date": null
    },
    {
      "name": "",
      "name_kana": "",
      "business_type": "飲食店営業",
      "address": "玉名郡南関町宮尾３４０－４",
      "lat": 33.002535489,
      "lng": 130.522239027,
      "geocoding_level": 8,
      "phone": "",
      "license_no": "",
      "license_date": "2017-07-10",
      "expire_date": null
    },
    {
      "name": "",
      "name_kana": "",
      "business_type": "めん類製造業",
      "address": "玉名郡南関町下坂下２８８９－１",
      "lat": 33.010248751,
      "lng": 130.571671705,
      "geocoding_level": 8,
      "phone": "",
      "license_no": "",
      "license_date": "2017-07-12",
      "expire_date": null
    },
    {
      "name": "",
      "name_kana": "",
      "business_type": "喫茶店営業",
      "address": "玉名郡南関町関町桑津留４１９－１",
      "lat": 33.068384,
      "lng": 130.543522,
      "geocoding_level": 3,
      "phone": "",
      "license_no": "",
      "license_date": "2017-08-17",
      "expire_date": null
    },
    {
      "name": "",
      "name_kana": "",
      "business_type": "菓子製造業",
      "address": "玉名郡南関町関町桑津留４１９－１",
      "lat": 33.068384,
      "lng": 130.543522,
      "geocoding_level": 3,
      "phone": "",
      "license_no": "",
      "license_date": "2017-08-17",
      "expire_date": null
    },
    {
      "name": "",
      "name_kana": "",
      "business_type": "飲食店営業",
      "address": "熊本県玉名郡南関町関町３２３－１",
      "lat": 33.06513281,
      "lng": 130.545500823,
      "geocoding_level": 8,
      "phone": "",
      "license_no": "",
      "license_date": "2017-08-31",
      "expire_date": null
    },
    {
      "name": "",
      "name_kana": "",
      "business_type": "そうざい製造業",
      "address": "熊本県玉名郡南関町大字関外目１４８３",
      "lat": 33.070821418,
      "lng": 130.536805523,
      "geocoding_level": 8,
      "phone": "",
      "license_no": "",
      "license_date": "2017-11-20",
      "expire_date": null
    },
    {
      "name": "",
      "name_kana": "",
      "business_type": "豆腐製造業",
      "address": "熊本県玉名郡南関町関外目６２１－１",
      "lat": 33.078353049,
      "lng": 130.54259461,
      "geocoding_level": 8,
      "phone": "",
      "license_no": "",
      "license_date": "2018-02-28",
      "expire_date": null
    },
    {
      "name": "",
      "name_kana": "",
      "business_type": "飲食店営業",
      "address": "玉名郡南関町大字関外目字東谷２９３－２",
      "lat": 33.073822,
      "lng": 130.542934,
      "geocoding_level": 3,
      "phone": "",
      "license_no": "",
      "license_date": "2018-03-28",
      "expire_date": null
    },
    {
      "name": "",
      "name_kana": "",
      "business_type": "飲食店営業",
      "address": "玉名郡南関町大字下坂下１６４５－１",
      "lat": 33.012633706,
      "lng": 130.585200118,
      "geocoding_level": 8,
      "phone": "",
      "license_no": "",
      "license_date": "2018-04-27",
      "expire_date": null
    },
    {
      "name": "",
      "name_kana": "",
      "business_type": "乳類販売業",
      "address": "玉名郡南関町大字下坂下１６４５－１",
      "lat": 33.012633706,
      "lng": 130.585200118,
      "geocoding_level": 8,
      "phone": "",
      "license_no": "",
      "license_date": "2018-04-27",
      "expire_date": null
    },
    {
      "name": "",
      "name_kana": "",
      "business_type": "食肉販売業",
      "address": "玉名郡南関町大字下坂下１６４５－１",
      "lat": 33.012633706,
      "lng": 130.585200118,
      "geocoding_level": 8,
      "phone": "",
      "license_no": "",
      "license_date": "2018-04-27",
      "expire_date": null
    },
    {
      "name": "",
      "name_kana": "",
      "business_type": "魚介類販売業",
      "address": "玉名郡南関町大字下坂下１６４５－１",
      "lat": 33.012633706,
      "lng": 130.585200118,
      "geocoding_level": 8,
      "phone": "",
      "license_no": "",
      "license_date": "2018-04-27",
      "expire_date": null
    },
    {
      "name": "",
      "name_kana": "",
      "business_type": "食品販売業",
      "address": "玉名郡南関町大字下坂下１６４５－１",
      "lat": 33.012633706,
      "lng": 130.585200118,
      "geocoding_level": 8,
      "phone": "",
      "license_no": "",
      "license_date": "2018-04-27",
      "expire_date": null
    },
    {
      "name": "",
      "name_kana": "",
      "business_type": "そうざい製造業",
      "address": "玉名郡南関町関町４５１番地１",
      "lat": 33.069197435,
      "lng": 130.548682057,
      "geocoding_level": 8,
      "phone": "",
      "license_no": "",
      "license_date": "2018-05-01",
      "expire_date": null
    },
    {
      "name": "",
      "name_kana": "",
      "business_type": "みそ製造業",
      "address": "玉名郡南関町関町４５１番地１",
      "lat": 33.069197435,
      "lng": 130.548682057,
      "geocoding_level": 8,
      "phone": "",
      "license_no": "",
      "license_date": "2018-05-01",
      "expire_date": null
    },
    {
      "name": "",
      "name_kana": "",
      "business_type": "食品製造業",
      "address": "玉名郡南関町関町４５１番地１",
      "lat": 33.069197435,
      "lng": 130.548682057,
      "geocoding_level": 8,
      "phone": "",
      "license_no": "",
      "license_date": "2018-05-01",
      "expire_date": null
    },
    {
      "name": "",
      "name_kana": "",
      "business_type": "菓子製造業",
      "address": "玉名郡南関町豊永４８９７－１１",
      "lat": 33.040177653,
      "lng": 130.55860502,
      "geocoding_level": 8,
      "phone": "",
      "license_no": "",
      "license_date": "2018-05-17",
      "expire_date": null
    },
    {
      "name": "",
      "name_kana": "",
      "business_type": "食品販売業",
      "address": "玉名郡南関町関町１４７９ビッグオーク内",
      "lat": 33.068384,
      "lng": 130.543522,
      "geocoding_level": 3,
      "phone": "",
      "license_no": "",
      "license_date": "2018-05-17",
      "expire_date": null
    },
    {
      "name": "",
      "name_kana": "",
      "business_type": "食品販売業",
      "address": "玉名郡南関町相谷１０５６－１",
      "lat": 33.041608662,
      "lng": 130.582215599,
      "geocoding_level": 8,
      "phone": "",
      "license_no": "",
      "license_date": "2018-05-23",
      "expire_date": null
    },
    {
      "name": "",
      "name_kana": "",
      "business_type": "飲食店営業",
      "address": "玉名郡南関町長山１４０９",
      "lat": 33.025855207,
      "lng": 130.51805763600004,
      "geocoding_level": 8,
      "phone": "",
      "license_no": "",
      "license_date": "2018-05-28",
      "expire_date": null
    },
    {
      "name": "",
      "name_kana": "",
      "business_type": "喫茶店営業",
      "address": "玉名郡南関町下坂下四反田１５５９－３",
      "lat": 33.00661,
      "lng": 130.572347,
      "geocoding_level": 3,
      "phone": "",
      "license_no": "",
      "license_date": "2017-04-07",
      "expire_date": null
    },
    {
      "name": "",
      "name_kana": "",
      "business_type": "喫茶店営業",
      "address": "玉名郡南関町下坂下三反田１６３５－１",
      "lat": 33.00661,
      "lng": 130.572347,
      "geocoding_level": 3,
      "phone": "",
      "license_no": "",
      "license_date": "2017-04-07",
      "expire_date": null
    },
    {
      "name": "",
      "name_kana": "",
      "business_type": "喫茶店営業",
      "address": "玉名郡南関町関町４１９－１",
      "lat": 33.069658686,
      "lng": 130.54767021,
      "geocoding_level": 8,
      "phone": "",
      "license_no": "",
      "license_date": "2018-06-15",
      "expire_date": null
    },
    {
      "name": "",
      "name_kana": "",
      "business_type": "喫茶店営業",
      "address": "玉名郡南関町関村１５５６　セキアヒルズ",
      "lat": 33.058512,
      "lng": 130.528809,
      "geocoding_level": 3,
      "phone": "",
      "license_no": "",
      "license_date": "2018-06-28",
      "expire_date": null
    },
    {
      "name": "",
      "name_kana": "",
      "business_type": "乳類販売業",
      "address": "玉名郡南関町関村１５５６　セキアヒルズ",
      "lat": 33.058512,
      "lng": 130.528809,
      "geocoding_level": 3,
      "phone": "",
      "license_no": "",
      "license_date": "2018-06-28",
      "expire_date": null
    },
    {
      "name": "",
      "name_kana": "",
      "business_type": "食肉販売業",
      "address": "玉名郡南関町関村１５５６　セキアヒルズ",
      "lat": 33.058512,
      "lng": 130.528809,
      "geocoding_level": 3,
      "phone": "",
      "license_no": "",
      "license_date": "2018-06-28",
      "expire_date": null
    },
    {
      "name": "",
      "name_kana": "",
      "business_type": "食品販売業",
      "address": "玉名郡南関町関村１５５６　セキアヒルズ",
      "lat": 33.058512,
      "lng": 130.528809,
      "geocoding_level": 3,
      "phone": "",
      "license_no": "",
      "license_date": "2018-06-28",
      "expire_date": null
    },
    {
      "name": "",
      "name_kana": "",
      "business_type": "飲食店営業",
      "address": "玉名郡南関町下坂下１２７－１",
      "lat": 33.014790127,
      "lng": 130.562959628,
      "geocoding_level": 8,
      "phone": "",
      "license_no": "",
      "license_date": "2018-08-01",
      "expire_date": null
    },
    {
      "name": "",
      "name_kana": "",
      "business_type": "飲食店営業",
      "address": "玉名郡南関町関村1556番地",
      "lat": 33.058512,
      "lng": 130.528809,
      "geocoding_level": 3,
      "phone": "",
      "license_no": "",
      "license_date": "2018-08-23",
      "expire_date": null
    },
    {
      "name": "",
      "name_kana": "",
      "business_type": "飲食店営業",
      "address": "玉名郡南関町関村1556番地",
      "lat": 33.058512,
      "lng": 130.528809,
      "geocoding_level": 3,
      "phone": "",
      "license_no": "",
      "license_date": "2018-08-23",
      "expire_date": null
    },
    {
      "name": "",
      "name_kana": "",
      "business_type": "飲食店営業",
      "address": "玉名郡南関町関村1556番地",
      "lat": 33.058512,
      "lng": 130.528809,
      "geocoding_level": 3,
      "phone": "",
      "license_no": "",
      "license_date": "2018-08-23",
      "expire_date": null
    },
    {
      "name": "",
      "name_kana": "",
      "business_type": "飲食店営業",
      "address": "玉名郡南関町関村1556番地",
      "lat": 33.058512,
      "lng": 130.528809,
      "geocoding_level": 3,
      "phone": "",
      "license_no": "",
      "license_date": "2018-08-23",
      "expire_date": null
    },
    {
      "name": "",
      "name_kana": "",
      "business_type": "飲食店営業",
      "address": "玉名郡南関町関村1556番地",
      "lat": 33.058512,
      "lng": 130.528809,
      "geocoding_level": 3,
      "phone": "",
      "license_no": "",
      "license_date": "2018-08-23",
      "expire_date": null
    },
    {
      "name": "",
      "name_kana": "",
      "business_type": "缶詰又は瓶詰食品製造業",
      "address": "玉名郡南関町関村１５５６",
      "lat": 33.058512,
      "lng": 130.528809,
      "geocoding_level": 3,
      "phone": "",
      "license_no": "",
      "license_date": "2018-08-23",
      "expire_date": null
    },
    {
      "name": "",
      "name_kana": "",
      "business_type": "飲食店営業",
      "address": "玉名郡南関町宮尾３５７－９２",
      "lat": 33.001818519,
      "lng": 130.522233101,
      "geocoding_level": 8,
      "phone": "",
      "license_no": "",
      "license_date": "2018-08-27",
      "expire_date": null
    },
    {
      "name": "",
      "name_kana": "",
      "business_type": "そうざい製造業",
      "address": "玉名郡南関町関町１４６３",
      "lat": 33.068384,
      "lng": 130.543522,
      "geocoding_level": 3,
      "phone": "",
      "license_no": "",
      "license_date": "2018-09-19",
      "expire_date": null
    },
    {
      "name": "",
      "name_kana": "",
      "business_type": "喫茶店営業",
      "address": "玉名郡南関町四ツ原１２８０",
      "lat": 33.001545,
      "lng": 130.542865,
      "geocoding_level": 3,
      "phone": "",
      "license_no": "",
      "license_date": "2018-11-16",
      "expire_date": null
    },
    {
      "name": "",
      "name_kana": "",
      "business_type": "そうざい製造業",
      "address": "玉名郡南関町関東８３８－４",
      "lat": 33.065696846,
      "lng": 130.551956325,
      "geocoding_level": 8,
      "phone": "",
      "license_no": "",
      "license_date": "2018-11-22",
      "expire_date": null
    },
    {
      "name": "",
      "name_kana": "",
      "business_type": "菓子製造業",
      "address": "玉名郡南関町大字小原２２６８",
      "lat": 33.022044,
      "lng": 130.524536,
      "geocoding_level": 3,
      "phone": "",
      "license_no": "",
      "license_date": "2018-11-22",
      "expire_date": null
    },
    {
      "name": "",
      "name_kana": "",
      "business_type": "食品製造業",
      "address": "玉名郡南関町相谷２１１２",
      "lat": 33.04773449,
      "lng": 130.577594421,
      "geocoding_level": 8,
      "phone": "",
      "license_no": "",
      "license_date": "2018-11-22",
      "expire_date": null
    },
    {
      "name": "",
      "name_kana": "",
      "business_type": "飲食店営業",
      "address": "玉名郡南関町長山３４３－１",
      "lat": 33.015908458,
      "lng": 130.525274826,
      "geocoding_level": 8,
      "phone": "",
      "license_no": "",
      "license_date": "2018-11-22",
      "expire_date": null
    },
    {
      "name": "",
      "name_kana": "",
      "business_type": "菓子製造業",
      "address": "玉名郡南関町長山３４３－１",
      "lat": 33.015908458,
      "lng": 130.525274826,
      "geocoding_level": 8,
      "phone": "",
      "license_no": "",
      "license_date": "2018-11-22",
      "expire_date": null
    },
    {
      "name": "",
      "name_kana": "",
      "business_type": "飲食店営業",
      "address": "玉名郡南関町豊永３１２３－２",
      "lat": 33.027154021,
      "lng": 130.563577021,
      "geocoding_level": 8,
      "phone": "",
      "license_no": "",
      "license_date": "2018-11-28",
      "expire_date": null
    },
    {
      "name": "",
      "name_kana": "",
      "business_type": "食品販売業",
      "address": "玉名郡南関町小原１８９０－１",
      "lat": 33.022044,
      "lng": 130.524536,
      "geocoding_level": 3,
      "phone": "",
      "license_no": "",
      "license_date": "2018-11-28",
      "expire_date": null
    },
    {
      "name": "",
      "name_kana": "",
      "business_type": "喫茶店営業",
      "address": "玉名郡南関町豊永３９６９",
      "lat": 33.032183,
      "lng": 130.561676,
      "geocoding_level": 3,
      "phone": "",
      "license_no": "",
      "license_date": "2018-11-30",
      "expire_date": null
    },
    {
      "name": "",
      "name_kana": "",
      "business_type": "缶詰又は瓶詰食品製造業",
      "address": "玉名郡南関町大字関町４１９－１",
      "lat": 33.069658686,
      "lng": 130.54767021,
      "geocoding_level": 8,
      "phone": "",
      "license_no": "",
      "license_date": "2018-12-07",
      "expire_date": null
    },
    {
      "name": "",
      "name_kana": "",
      "business_type": "菓子製造業",
      "address": "玉名郡南関町大字関東８８０番地１",
      "lat": 33.066952074,
      "lng": 130.549650379,
      "geocoding_level": 8,
      "phone": "",
      "license_no": "",
      "license_date": "2019-01-15",
      "expire_date": null
    },
    {
      "name": "",
      "name_kana": "",
      "business_type": "飲食店営業",
      "address": "玉名郡南関町関町桑津留４１９－１",
      "lat": 33.068384,
      "lng": 130.543522,
      "geocoding_level": 3,
      "phone": "",
      "license_no": "",
      "license_date": "2019-02-27",
      "expire_date": null
    },
    {
      "name": "",
      "name_kana": "",
      "business_type": "菓子製造業",
      "address": "玉名郡南関町関町桑津留４１９－１",
      "lat": 33.068384,
      "lng": 130.543522,
      "geocoding_level": 3,
      "phone": "",
      "license_no": "",
      "license_date": "2019-02-26",
      "expire_date": null
    },
    {
      "name": "",
      "name_kana": "",
      "business_type": "乳類販売業",
      "address": "玉名郡南関町関町桑津留４１９－１",
      "lat": 33.068384,
      "lng": 130.543522,
      "geocoding_level": 3,
      "phone": "",
      "license_no": "",
      "license_date": "2019-02-26",
      "expire_date": null
    },
    {
      "name": "",
      "name_kana": "",
      "business_type": "飲食店営業",
      "address": "玉名郡南関町関村１５５６番地",
      "lat": 33.058512,
      "lng": 130.528809,
      "geocoding_level": 3,
      "phone": "",
      "license_no": "",
      "license_date": "2019-02-27",
      "expire_date": null
    },
    {
      "name": "",
      "name_kana": "",
      "business_type": "食肉販売業",
      "address": "玉名郡南関町関町１４７９",
      "lat": 33.068384,
      "lng": 130.543522,
      "geocoding_level": 3,
      "phone": "",
      "license_no": "",
      "license_date": "2019-02-26",
      "expire_date": null
    },
    {
      "name": "",
      "name_kana": "",
      "business_type": "食肉販売業",
      "address": "玉名郡南関町関町桑津留４１９－１",
      "lat": 33.068384,
      "lng": 130.543522,
      "geocoding_level": 3,
      "phone": "",
      "license_no": "",
      "license_date": "2019-02-26",
      "expire_date": null
    },
    {
      "name": "",
      "name_kana": "",
      "business_type": "飲食店営業",
      "address": "玉名郡南関町小原１９２７ー１",
      "lat": 33.022044,
      "lng": 130.524536,
      "geocoding_level": 3,
      "phone": "",
      "license_no": "",
      "license_date": "2019-02-26",
      "expire_date": null
    },
    {
      "name": "",
      "name_kana": "",
      "business_type": "喫茶店営業",
      "address": "玉名郡南関町下坂下４７３７",
      "lat": 33.00661,
      "lng": 130.572347,
      "geocoding_level": 3,
      "phone": "",
      "license_no": "",
      "license_date": "2019-02-28",
      "expire_date": null
    },
    {
      "name": "",
      "name_kana": "",
      "business_type": "食肉処理業",
      "address": "玉名郡南関町大字下坂下１０８７－１",
      "lat": 33.016513569,
      "lng": 130.577297526,
      "geocoding_level": 8,
      "phone": "",
      "license_no": "",
      "license_date": "2019-02-26",
      "expire_date": null
    },
    {
      "name": "",
      "name_kana": "",
      "business_type": "飲食店営業",
      "address": "玉名郡南関町小原１８７８－１",
      "lat": 33.022044,
      "lng": 130.524536,
      "geocoding_level": 3,
      "phone": "",
      "license_no": "",
      "license_date": "2019-04-19",
      "expire_date": null
    },
    {
      "name": "",
      "name_kana": "",
      "business_type": "納豆製造業",
      "address": "熊本県玉名郡南関町豊永３９６９",
      "lat": 33.032183,
      "lng": 130.561676,
      "geocoding_level": 3,
      "phone": "",
      "license_no": "",
      "license_date": "2019-05-27",
      "expire_date": null
    },
    {
      "name": "",
      "name_kana": "",
      "business_type": "飲食店営業",
      "address": "熊本県玉名郡南関町上坂下７９０番地",
      "lat": 32.998061734000004,
      "lng": 130.561957523,
      "geocoding_level": 8,
      "phone": "",
      "license_no": "",
      "license_date": "2019-05-27",
      "expire_date": null
    },
    {
      "name": "",
      "name_kana": "",
      "business_type": "飲食店営業",
      "address": "熊本県玉名郡南関町関外目１５２３",
      "lat": 33.069778124,
      "lng": 130.532543012,
      "geocoding_level": 8,
      "phone": "",
      "license_no": "",
      "license_date": "2019-05-27",
      "expire_date": null
    },
    {
      "name": "",
      "name_kana": "",
      "business_type": "飲食店営業",
      "address": "熊本県玉名郡南関町上長田６６４－１",
      "lat": 33.026897376,
      "lng": 130.530243093,
      "geocoding_level": 8,
      "phone": "",
      "license_no": "",
      "license_date": "2019-05-27",
      "expire_date": null
    },
    {
      "name": "",
      "name_kana": "",
      "business_type": "乳類販売業",
      "address": "玉名郡南関町相谷１０５６－１",
      "lat": 33.041608662,
      "lng": 130.582215599,
      "geocoding_level": 8,
      "phone": "",
      "license_no": "",
      "license_date": "2019-05-27",
      "expire_date": null
    },
    {
      "name": "",
      "name_kana": "",
      "business_type": "飲食店営業",
      "address": "玉名郡南関町相谷１０５６－１",
      "lat": 33.041608662,
      "lng": 130.582215599,
      "geocoding_level": 8,
      "phone": "",
      "license_no": "",
      "license_date": "2019-05-27",
      "expire_date": null
    },
    {
      "name": "",
      "name_kana": "",
      "business_type": "食肉販売業",
      "address": "玉名郡南関町相谷１０５６－１",
      "lat": 33.041608662,
      "lng": 130.582215599,
      "geocoding_level": 8,
      "phone": "",
      "license_no": "",
      "license_date": "2019-05-27",
      "expire_date": null
    },
    {
      "name": "",
      "name_kana": "",
      "business_type": "乳類販売業",
      "address": "熊本県玉名郡南関町肥猪４０００－１（２F自販機コーナー）",
      "lat": 33.02871100000001,
      "lng": 130.588703,
      "geocoding_level": 3,
      "phone": "",
      "license_no": "",
      "license_date": "2019-05-28",
      "expire_date": null
    },
    {
      "name": "",
      "name_kana": "",
      "business_type": "飲食店営業",
      "address": "熊本県玉名郡南関町関外目７８４－１",
      "lat": 33.080272162,
      "lng": 130.542233007,
      "geocoding_level": 8,
      "phone": "",
      "license_no": "",
      "license_date": "2019-08-22",
      "expire_date": null
    },
    {
      "name": "",
      "name_kana": "",
      "business_type": "菓子製造業",
      "address": "玉名郡南関町関村１２１５",
      "lat": 33.059966412,
      "lng": 130.539187274,
      "geocoding_level": 8,
      "phone": "",
      "license_no": "",
      "license_date": "2019-08-22",
      "expire_date": null
    },
    {
      "name": "",
      "name_kana": "",
      "business_type": "めん類製造業",
      "address": "熊本県玉名郡南関町小原１４１８－１",
      "lat": 33.022044,
      "lng": 130.524536,
      "geocoding_level": 3,
      "phone": "",
      "license_no": "",
      "license_date": "2019-08-22",
      "expire_date": null
    },
    {
      "name": "",
      "name_kana": "",
      "business_type": "食品販売業",
      "address": "玉名郡南関町上坂下字八田１８３０－１",
      "lat": 33.009635,
      "lng": 130.554202,
      "geocoding_level": 3,
      "phone": "",
      "license_no": "",
      "license_date": "2019-08-22",
      "expire_date": null
    },
    {
      "name": "",
      "name_kana": "",
      "business_type": "食品販売業",
      "address": "玉名郡南関町大字上坂下字井手３４７２－１",
      "lat": 33.009635,
      "lng": 130.554202,
      "geocoding_level": 3,
      "phone": "",
      "license_no": "",
      "license_date": "2019-08-22",
      "expire_date": null
    },
    {
      "name": "",
      "name_kana": "",
      "business_type": "食品販売業",
      "address": "玉名郡南関町大字下坂下字四反田1562-3",
      "lat": 33.00661,
      "lng": 130.572347,
      "geocoding_level": 3,
      "phone": "",
      "license_no": "",
      "license_date": "2018-04-27",
      "expire_date": null
    },
    {
      "name": "",
      "name_kana": "",
      "business_type": "魚介類販売業",
      "address": "玉名郡南関町大字下坂下字四反田1562-3",
      "lat": 33.00661,
      "lng": 130.572347,
      "geocoding_level": 3,
      "phone": "",
      "license_no": "",
      "license_date": "2018-04-27",
      "expire_date": null
    },
    {
      "name": "",
      "name_kana": "",
      "business_type": "食肉販売業",
      "address": "玉名郡南関町大字下坂下字四反田1562-3",
      "lat": 33.00661,
      "lng": 130.572347,
      "geocoding_level": 3,
      "phone": "",
      "license_no": "",
      "license_date": "2018-04-27",
      "expire_date": null
    },
    {
      "name": "",
      "name_kana": "",
      "business_type": "乳類販売業",
      "address": "玉名郡南関町大字下坂下字四反田1562-3",
      "lat": 33.00661,
      "lng": 130.572347,
      "geocoding_level": 3,
      "phone": "",
      "license_no": "",
      "license_date": "2018-04-27",
      "expire_date": null
    },
    {
      "name": "",
      "name_kana": "",
      "business_type": "飲食店営業",
      "address": "玉名郡南関町大字下坂下字四反田1562-3",
      "lat": 33.00661,
      "lng": 130.572347,
      "geocoding_level": 3,
      "phone": "",
      "license_no": "",
      "license_date": "2018-04-27",
      "expire_date": null
    },
    {
      "name": "",
      "name_kana": "",
      "business_type": "菓子製造業",
      "address": "玉名郡南関町大字小原６７４番地の１",
      "lat": 33.022044,
      "lng": 130.524536,
      "geocoding_level": 3,
      "phone": "",
      "license_no": "",
      "license_date": "2019-09-25",
      "expire_date": null
    },
    {
      "name": "",
      "name_kana": "",
      "business_type": "乳類販売業",
      "address": "熊本県玉名郡南関町小原１８１５－２",
      "lat": 33.022044,
      "lng": 130.524536,
      "geocoding_level": 3,
      "phone": "",
      "license_no": "",
      "license_date": "2019-11-22",
      "expire_date": null
    },
    {
      "name": "",
      "name_kana": "",
      "business_type": "乳類販売業",
      "address": "熊本県玉名郡南関町関町１４７９",
      "lat": 33.068384,
      "lng": 130.543522,
      "geocoding_level": 3,
      "phone": "",
      "license_no": "",
      "license_date": "2019-11-22",
      "expire_date": null
    },
    {
      "name": "",
      "name_kana": "",
      "business_type": "めん類製造業",
      "address": "熊本県玉名郡南関町関町１５１７－２",
      "lat": 33.057055171,
      "lng": 130.544993555,
      "geocoding_level": 8,
      "phone": "",
      "license_no": "",
      "license_date": "2019-11-22",
      "expire_date": null
    },
    {
      "name": "",
      "name_kana": "",
      "business_type": "魚介類販売業",
      "address": "熊本県玉名郡南関町小原１８１５－２",
      "lat": 33.022044,
      "lng": 130.524536,
      "geocoding_level": 3,
      "phone": "",
      "license_no": "",
      "license_date": "2019-11-22",
      "expire_date": null
    },
    {
      "name": "",
      "name_kana": "",
      "business_type": "魚介類販売業",
      "address": "熊本県玉名郡南関町関町１４７９",
      "lat": 33.068384,
      "lng": 130.543522,
      "geocoding_level": 3,
      "phone": "",
      "license_no": "",
      "license_date": "2019-11-22",
      "expire_date": null
    },
    {
      "name": "",
      "name_kana": "",
      "business_type": "食肉販売業",
      "address": "熊本県玉名郡南関町小原１８１５－２",
      "lat": 33.022044,
      "lng": 130.524536,
      "geocoding_level": 3,
      "phone": "",
      "license_no": "",
      "license_date": "2019-11-22",
      "expire_date": null
    },
    {
      "name": "",
      "name_kana": "",
      "business_type": "食品販売業",
      "address": "玉名郡南関町関町１４７９",
      "lat": 33.068384,
      "lng": 130.543522,
      "geocoding_level": 3,
      "phone": "",
      "license_no": "",
      "license_date": "2019-11-25",
      "expire_date": null
    },
    {
      "name": "",
      "name_kana": "",
      "business_type": "飲食店営業",
      "address": "熊本県玉名郡南関町下坂下４７３７",
      "lat": 33.00661,
      "lng": 130.572347,
      "geocoding_level": 3,
      "phone": "",
      "license_no": "",
      "license_date": "2019-11-26",
      "expire_date": null
    },
    {
      "name": "",
      "name_kana": "",
      "business_type": "飲食店営業",
      "address": "熊本県玉名郡南関町関町堂園１４９８‐４",
      "lat": 33.068384,
      "lng": 130.543522,
      "geocoding_level": 3,
      "phone": "",
      "license_no": "",
      "license_date": "2019-11-26",
      "expire_date": null
    },
    {
      "name": "",
      "name_kana": "",
      "business_type": "飲食店営業",
      "address": "熊本県玉名郡南関町小原１８１５－２",
      "lat": 33.022044,
      "lng": 130.524536,
      "geocoding_level": 3,
      "phone": "",
      "license_no": "",
      "license_date": "2019-11-28",
      "expire_date": null
    },
    {
      "name": "",
      "name_kana": "",
      "business_type": "飲食店営業",
      "address": "熊本県玉名郡南関町関町１４７９",
      "lat": 33.068384,
      "lng": 130.543522,
      "geocoding_level": 3,
      "phone": "",
      "license_no": "",
      "license_date": "2019-11-26",
      "expire_date": null
    },
    {
      "name": "",
      "name_kana": "",
      "business_type": "飲食店営業",
      "address": "熊本県玉名郡南関町小原９２０ー１",
      "lat": 33.022044,
      "lng": 130.524536,
      "geocoding_level": 3,
      "phone": "",
      "license_no": "",
      "license_date": "2019-11-26",
      "expire_date": null
    },
    {
      "name": "",
      "name_kana": "",
      "business_type": "食品販売業",
      "address": "玉名郡南関町小原９２０－１",
      "lat": 33.022044,
      "lng": 130.524536,
      "geocoding_level": 3,
      "phone": "",
      "license_no": "",
      "license_date": "2019-11-26",
      "expire_date": null
    },
    {
      "name": "",
      "name_kana": "",
      "business_type": "食肉販売業",
      "address": "玉名郡南関町豊永２９９－１６",
      "lat": 33.028702746,
      "lng": 130.57916719,
      "geocoding_level": 8,
      "phone": "",
      "license_no": "",
      "license_date": "2019-12-09",
      "expire_date": null
    },
    {
      "name": "",
      "name_kana": "",
      "business_type": "添加物製造業",
      "address": "玉名郡南関町関外目１４３２",
      "lat": 33.073822,
      "lng": 130.542934,
      "geocoding_level": 3,
      "phone": "",
      "license_no": "",
      "license_date": "2018-11-22",
      "expire_date": null
    },
    {
      "name": "",
      "name_kana": "",
      "business_type": "飲食店営業",
      "address": "玉名郡南関町肥猪４０００－１",
      "lat": 33.02871100000001,
      "lng": 130.588703,
      "geocoding_level": 3,
      "phone": "",
      "license_no": "",
      "license_date": "2017-11-20",
      "expire_date": null
    },
    {
      "name": "",
      "name_kana": "",
      "business_type": "菓子製造業",
      "address": "玉名郡南関町小原８８６－１",
      "lat": 33.022044,
      "lng": 130.524536,
      "geocoding_level": 3,
      "phone": "",
      "license_no": "",
      "license_date": "2020-02-06",
      "expire_date": null
    },
    {
      "name": "",
      "name_kana": "",
      "business_type": "喫茶店営業",
      "address": "玉名郡南関町小原８８６－１",
      "lat": 33.022044,
      "lng": 130.524536,
      "geocoding_level": 3,
      "phone": "",
      "license_no": "",
      "license_date": "2020-02-06",
      "expire_date": null
    },
    {
      "name": "",
      "name_kana": "",
      "business_type": "菓子製造業",
      "address": "玉名郡南関町四ツ原５６２",
      "lat": 33.006402981,
      "lng": 130.543902132,
      "geocoding_level": 8,
      "phone": "",
      "license_no": "",
      "license_date": "2020-02-12",
      "expire_date": null
    },
    {
      "name": "",
      "name_kana": "",
      "business_type": "食品販売業",
      "address": "玉名郡南関町関町１４９８－４",
      "lat": 33.058909543,
      "lng": 130.544359652,
      "geocoding_level": 8,
      "phone": "",
      "license_no": "",
      "license_date": "2020-02-12",
      "expire_date": null
    },
    {
      "name": "",
      "name_kana": "",
      "business_type": "飲食店営業",
      "address": "熊本県玉名郡南関町下坂下４７３７",
      "lat": 33.00661,
      "lng": 130.572347,
      "geocoding_level": 3,
      "phone": "",
      "license_no": "",
      "license_date": "2020-02-20",
      "expire_date": null
    },
    {
      "name": "",
      "name_kana": "",
      "business_type": "飲食店営業",
      "address": "熊本県玉名郡南関町下坂下４７３７",
      "lat": 33.00661,
      "lng": 130.572347,
      "geocoding_level": 3,
      "phone": "",
      "license_no": "",
      "license_date": "2020-02-20",
      "expire_date": null
    },
    {
      "name": "",
      "name_kana": "",
      "business_type": "食品製造業",
      "address": "玉名郡南関町関東１０６６－１",
      "lat": 33.066526473,
      "lng": 130.556034032,
      "geocoding_level": 8,
      "phone": "",
      "license_no": "",
      "license_date": "2020-02-20",
      "expire_date": null
    },
    {
      "name": "",
      "name_kana": "",
      "business_type": "飲食店営業",
      "address": "玉名郡南関町関東９６６",
      "lat": 33.06967,
      "lng": 130.563737,
      "geocoding_level": 3,
      "phone": "",
      "license_no": "",
      "license_date": "2020-03-06",
      "expire_date": null
    },
    {
      "name": "",
      "name_kana": "",
      "business_type": "飲食店営業",
      "address": "玉名郡南関町大字上長田６５４",
      "lat": 33.035101,
      "lng": 130.528558,
      "geocoding_level": 3,
      "phone": "",
      "license_no": "",
      "license_date": "2020-04-23",
      "expire_date": null
    },
    {
      "name": "",
      "name_kana": "",
      "business_type": "飲食店営業",
      "address": "玉名郡南関町宮尾４６－１",
      "lat": 33.012067085,
      "lng": 130.520095642,
      "geocoding_level": 8,
      "phone": "",
      "license_no": "",
      "license_date": "2020-05-25",
      "expire_date": null
    },
    {
      "name": "",
      "name_kana": "",
      "business_type": "飲食店営業",
      "address": "熊本県玉名郡南関町関町１５５２‐４",
      "lat": 33.068384,
      "lng": 130.543522,
      "geocoding_level": 3,
      "phone": "",
      "license_no": "",
      "license_date": "2020-05-25",
      "expire_date": null
    },
    {
      "name": "",
      "name_kana": "",
      "business_type": "菓子製造業",
      "address": "玉名郡南関町関町１４７９ビッグオーク内",
      "lat": 33.068384,
      "lng": 130.543522,
      "geocoding_level": 3,
      "phone": "",
      "license_no": "",
      "license_date": "2020-05-25",
      "expire_date": null
    },
    {
      "name": "",
      "name_kana": "",
      "business_type": "豆腐製造業",
      "address": "熊本県玉名郡南関町関東７０５",
      "lat": 33.066020055,
      "lng": 130.552876056,
      "geocoding_level": 8,
      "phone": "",
      "license_no": "",
      "license_date": "2020-05-25",
      "expire_date": null
    },
    {
      "name": "",
      "name_kana": "",
      "business_type": "食品の冷凍又は冷蔵業",
      "address": "玉名郡南関町豊永３９６９",
      "lat": 33.032183,
      "lng": 130.561676,
      "geocoding_level": 3,
      "phone": "",
      "license_no": "",
      "license_date": "2020-05-25",
      "expire_date": null
    },
    {
      "name": "",
      "name_kana": "",
      "business_type": "食品販売業",
      "address": "玉名郡南関町大字小原６７４番地の１",
      "lat": 33.022044,
      "lng": 130.524536,
      "geocoding_level": 3,
      "phone": "",
      "license_no": "",
      "license_date": "2020-05-25",
      "expire_date": null
    },
    {
      "name": "",
      "name_kana": "",
      "business_type": "食品販売業",
      "address": "玉名郡南関町小原９６３",
      "lat": 33.022044,
      "lng": 130.524536,
      "geocoding_level": 3,
      "phone": "",
      "license_no": "",
      "license_date": "2020-05-25",
      "expire_date": null
    },
    {
      "name": "",
      "name_kana": "",
      "business_type": "食品販売業",
      "address": "玉名郡南関町関町１４１５",
      "lat": 33.060227378,
      "lng": 130.541288766,
      "geocoding_level": 8,
      "phone": "",
      "license_no": "",
      "license_date": "2020-05-25",
      "expire_date": null
    },
    {
      "name": "",
      "name_kana": "",
      "business_type": "食品販売業",
      "address": "玉名郡南関町関町１３５５",
      "lat": 33.068384,
      "lng": 130.543522,
      "geocoding_level": 3,
      "phone": "",
      "license_no": "",
      "license_date": "2020-05-25",
      "expire_date": null
    },
    {
      "name": "",
      "name_kana": "",
      "business_type": "食品販売業",
      "address": "玉名郡南関町大字上坂下３４６７－１",
      "lat": 33.017013705,
      "lng": 130.557973575,
      "geocoding_level": 8,
      "phone": "",
      "license_no": "",
      "license_date": "2020-05-25",
      "expire_date": null
    },
    {
      "name": "",
      "name_kana": "",
      "business_type": "乳類販売業",
      "address": "玉名郡南関町下坂下１８６０番地１",
      "lat": 33.006098224,
      "lng": 130.585032717,
      "geocoding_level": 8,
      "phone": "",
      "license_no": "",
      "license_date": "2020-05-26",
      "expire_date": null
    },
    {
      "name": "",
      "name_kana": "",
      "business_type": "乳類販売業",
      "address": "玉名郡南関町下坂下１８６０番地１",
      "lat": 33.006098224,
      "lng": 130.585032717,
      "geocoding_level": 8,
      "phone": "",
      "license_no": "",
      "license_date": "2020-05-26",
      "expire_date": null
    },
    {
      "name": "",
      "name_kana": "",
      "business_type": "乳類販売業",
      "address": "玉名郡南関町下坂下１８６０番地１",
      "lat": 33.006098224,
      "lng": 130.585032717,
      "geocoding_level": 8,
      "phone": "",
      "license_no": "",
      "license_date": "2020-05-26",
      "expire_date": null
    },
    {
      "name": "",
      "name_kana": "",
      "business_type": "乳類販売業",
      "address": "玉名郡南関町下坂下１８６０番地１",
      "lat": 33.006098224,
      "lng": 130.585032717,
      "geocoding_level": 8,
      "phone": "",
      "license_no": "",
      "license_date": "2020-05-26",
      "expire_date": null
    },
    {
      "name": "",
      "name_kana": "",
      "business_type": "乳類販売業",
      "address": "玉名郡南関町下坂下１８６０番地１",
      "lat": 33.006098224,
      "lng": 130.585032717,
      "geocoding_level": 8,
      "phone": "",
      "license_no": "",
      "license_date": "2020-05-26",
      "expire_date": null
    },
    {
      "name": "",
      "name_kana": "",
      "business_type": "食品販売業",
      "address": "玉名郡南関町上長田８２５",
      "lat": 33.035101,
      "lng": 130.528558,
      "geocoding_level": 3,
      "phone": "",
      "license_no": "",
      "license_date": "2020-05-25",
      "expire_date": null
    },
    {
      "name": "",
      "name_kana": "",
      "business_type": "飲食店営業",
      "address": "玉名郡南関町関町１４１０",
      "lat": 33.068384,
      "lng": 130.543522,
      "geocoding_level": 3,
      "phone": "",
      "license_no": "",
      "license_date": "2020-06-02",
      "expire_date": null
    },
    {
      "name": "",
      "name_kana": "",
      "business_type": "飲食店営業",
      "address": "玉名郡南関町関東８９９－１",
      "lat": 33.06652437,
      "lng": 130.548977298,
      "geocoding_level": 8,
      "phone": "",
      "license_no": "",
      "license_date": "2020-07-21",
      "expire_date": null
    },
    {
      "name": "",
      "name_kana": "",
      "business_type": "魚介類販売業",
      "address": "玉名郡南関町関東８９９－１",
      "lat": 33.06652437,
      "lng": 130.548977298,
      "geocoding_level": 8,
      "phone": "",
      "license_no": "",
      "license_date": "2020-07-21",
      "expire_date": null
    },
    {
      "name": "",
      "name_kana": "",
      "business_type": "食肉販売業",
      "address": "玉名郡南関町関東８９９－１",
      "lat": 33.06652437,
      "lng": 130.548977298,
      "geocoding_level": 8,
      "phone": "",
      "license_no": "",
      "license_date": "2020-07-21",
      "expire_date": null
    },
    {
      "name": "",
      "name_kana": "",
      "business_type": "乳類販売業",
      "address": "玉名郡南関町関東８９９－１",
      "lat": 33.06652437,
      "lng": 130.548977298,
      "geocoding_level": 8,
      "phone": "",
      "license_no": "",
      "license_date": "2020-07-21",
      "expire_date": null
    },
    {
      "name": "",
      "name_kana": "",
      "business_type": "食品販売業",
      "address": "玉名郡南関町関東８９９－１",
      "lat": 33.06652437,
      "lng": 130.548977298,
      "geocoding_level": 8,
      "phone": "",
      "license_no": "",
      "license_date": "2020-07-21",
      "expire_date": null
    },
    {
      "name": "",
      "name_kana": "",
      "business_type": "食品販売業",
      "address": "玉名郡南関町下坂下字四反田１５５９－３",
      "lat": 33.00661,
      "lng": 130.572347,
      "geocoding_level": 3,
      "phone": "",
      "license_no": "",
      "license_date": "2020-08-19",
      "expire_date": null
    },
    {
      "name": "",
      "name_kana": "",
      "business_type": "食品販売業",
      "address": "玉名郡南関町下坂下字三反田１６３５－１",
      "lat": 33.00661,
      "lng": 130.572347,
      "geocoding_level": 3,
      "phone": "",
      "license_no": "",
      "license_date": "2020-08-19",
      "expire_date": null
    },
    {
      "name": "",
      "name_kana": "",
      "business_type": "豆腐製造業",
      "address": "玉名郡南関町関村丹保１２００",
      "lat": 33.058512,
      "lng": 130.528809,
      "geocoding_level": 3,
      "phone": "",
      "license_no": "",
      "license_date": "2020-08-19",
      "expire_date": null
    },
    {
      "name": "",
      "name_kana": "",
      "business_type": "乳類販売業",
      "address": "玉名郡南関町上坂下八田１８３０－１",
      "lat": 33.009635,
      "lng": 130.554202,
      "geocoding_level": 3,
      "phone": "",
      "license_no": "",
      "license_date": "2020-08-19",
      "expire_date": null
    },
    {
      "name": "",
      "name_kana": "",
      "business_type": "めん類製造業",
      "address": "熊本県玉名郡南関町関下１５４５‐１",
      "lat": 33.05699945,
      "lng": 130.542142655,
      "geocoding_level": 8,
      "phone": "",
      "license_no": "",
      "license_date": "2020-08-19",
      "expire_date": null
    },
    {
      "name": "",
      "name_kana": "",
      "business_type": "魚介類販売業",
      "address": "玉名郡南関町上坂下八田１８３０－１",
      "lat": 33.009635,
      "lng": 130.554202,
      "geocoding_level": 3,
      "phone": "",
      "license_no": "",
      "license_date": "2020-08-19",
      "expire_date": null
    },
    {
      "name": "",
      "name_kana": "",
      "business_type": "菓子製造業",
      "address": "玉名郡南関町関町１３７８",
      "lat": 33.068384,
      "lng": 130.543522,
      "geocoding_level": 3,
      "phone": "",
      "license_no": "",
      "license_date": "2020-08-19",
      "expire_date": null
    },
    {
      "name": "",
      "name_kana": "",
      "business_type": "食肉販売業",
      "address": "玉名郡南関町上坂下八田１８３０－１",
      "lat": 33.009635,
      "lng": 130.554202,
      "geocoding_level": 3,
      "phone": "",
      "license_no": "",
      "license_date": "2020-08-19",
      "expire_date": null
    },
    {
      "name": "",
      "name_kana": "",
      "business_type": "飲食店営業",
      "address": "玉名郡南関町関町１５０２‐８",
      "lat": 33.058524381,
      "lng": 130.544348369,
      "geocoding_level": 8,
      "phone": "",
      "license_no": "",
      "license_date": "2020-08-19",
      "expire_date": null
    },
    {
      "name": "",
      "name_kana": "",
      "business_type": "飲食店営業",
      "address": "玉名郡南関町大字小原６７４－１",
      "lat": 33.022044,
      "lng": 130.524536,
      "geocoding_level": 3,
      "phone": "",
      "license_no": "",
      "license_date": "2020-08-19",
      "expire_date": null
    },
    {
      "name": "",
      "name_kana": "",
      "business_type": "飲食店営業",
      "address": "玉名郡南関町下坂下中高９８１",
      "lat": 33.00661,
      "lng": 130.572347,
      "geocoding_level": 3,
      "phone": "",
      "license_no": "",
      "license_date": "2020-08-20",
      "expire_date": null
    },
    {
      "name": "",
      "name_kana": "",
      "business_type": "飲食店営業",
      "address": "玉名郡南関町大字関外目字松田１５４１番１",
      "lat": 33.073822,
      "lng": 130.542934,
      "geocoding_level": 3,
      "phone": "",
      "license_no": "",
      "license_date": "2020-08-20",
      "expire_date": null
    },
    {
      "name": "",
      "name_kana": "",
      "business_type": "乳類販売業",
      "address": "玉名郡南関町大字上坂下字井手３４７２－１",
      "lat": 33.009635,
      "lng": 130.554202,
      "geocoding_level": 3,
      "phone": "",
      "license_no": "",
      "license_date": "2020-08-20",
      "expire_date": null
    },
    {
      "name": "",
      "name_kana": "",
      "business_type": "魚介類販売業",
      "address": "玉名郡南関町大字上坂下字井手３４７２－１",
      "lat": 33.009635,
      "lng": 130.554202,
      "geocoding_level": 3,
      "phone": "",
      "license_no": "",
      "license_date": "2020-08-20",
      "expire_date": null
    },
    {
      "name": "",
      "name_kana": "",
      "business_type": "食肉販売業",
      "address": "玉名郡南関町大字上坂下字井手３４７２－１",
      "lat": 33.009635,
      "lng": 130.554202,
      "geocoding_level": 3,
      "phone": "",
      "license_no": "",
      "license_date": "2020-08-20",
      "expire_date": null
    },
    {
      "name": "",
      "name_kana": "",
      "business_type": "飲食店営業",
      "address": "玉名郡南関町大字上坂下字井手３４７２－１",
      "lat": 33.009635,
      "lng": 130.554202,
      "geocoding_level": 3,
      "phone": "",
      "license_no": "",
      "license_date": "2020-08-20",
      "expire_date": null
    },
    {
      "name": "",
      "name_kana": "",
      "business_type": "喫茶店営業",
      "address": "玉名郡南関町大字下坂下１８６０ー１",
      "lat": 33.006098224,
      "lng": 130.585032717,
      "geocoding_level": 8,
      "phone": "",
      "license_no": "",
      "license_date": "2020-08-24",
      "expire_date": null
    },
    {
      "name": "",
      "name_kana": "",
      "business_type": "食品製造業",
      "address": "玉名郡南関町細永４３９７",
      "lat": 33.035819019,
      "lng": 130.534035608,
      "geocoding_level": 8,
      "phone": "",
      "license_no": "",
      "license_date": "2020-08-28",
      "expire_date": null
    },
    {
      "name": "",
      "name_kana": "",
      "business_type": "缶詰又は瓶詰食品製造業",
      "address": "玉名郡南関町関東８３８－４",
      "lat": 33.065696846,
      "lng": 130.551956325,
      "geocoding_level": 8,
      "phone": "",
      "license_no": "",
      "license_date": "2020-08-31",
      "expire_date": null
    },
    {
      "name": "",
      "name_kana": "",
      "business_type": "飲食店営業",
      "address": "玉名郡南関町下坂下１８６０番地１",
      "lat": 33.006098224,
      "lng": 130.585032717,
      "geocoding_level": 8,
      "phone": "",
      "license_no": "",
      "license_date": "2020-09-18",
      "expire_date": null
    },
    {
      "name": "",
      "name_kana": "",
      "business_type": "めん類製造業",
      "address": "玉名郡南関町関町１４１７",
      "lat": 33.060332534,
      "lng": 130.541535623,
      "geocoding_level": 8,
      "phone": "",
      "license_no": "",
      "license_date": "2020-11-02",
      "expire_date": null
    },
    {
      "name": "",
      "name_kana": "",
      "business_type": "菓子製造業",
      "address": "玉名郡南関町大字関町１３７６",
      "lat": 33.061489344,
      "lng": 130.54234376,
      "geocoding_level": 8,
      "phone": "",
      "license_no": "",
      "license_date": "2020-11-17",
      "expire_date": null
    },
    {
      "name": "",
      "name_kana": "",
      "business_type": "喫茶店営業",
      "address": "玉名郡南関町関町１４７９",
      "lat": 33.068384,
      "lng": 130.543522,
      "geocoding_level": 3,
      "phone": "",
      "license_no": "",
      "license_date": "2020-11-17",
      "expire_date": null
    },
    {
      "name": "",
      "name_kana": "",
      "business_type": "喫茶店営業",
      "address": "玉名郡南関町大字関町１３７６",
      "lat": 33.061489344,
      "lng": 130.54234376,
      "geocoding_level": 8,
      "phone": "",
      "license_no": "",
      "license_date": "2020-11-17",
      "expire_date": null
    },
    {
      "name": "",
      "name_kana": "",
      "business_type": "めん類製造業",
      "address": "熊本県玉名郡南関町関町３９‐２",
      "lat": 33.062158003,
      "lng": 130.544661729,
      "geocoding_level": 8,
      "phone": "",
      "license_no": "",
      "license_date": "2020-11-17",
      "expire_date": null
    },
    {
      "name": "",
      "name_kana": "",
      "business_type": "飲食店営業",
      "address": "玉名郡南関町下坂下２７２－４",
      "lat": 33.01620458,
      "lng": 130.570148693,
      "geocoding_level": 8,
      "phone": "",
      "license_no": "",
      "license_date": "2020-11-20",
      "expire_date": null
    },
    {
      "name": "",
      "name_kana": "",
      "business_type": "飲食店営業",
      "address": "玉名郡南関町下坂下１９２７",
      "lat": 33.00661,
      "lng": 130.572347,
      "geocoding_level": 3,
      "phone": "",
      "license_no": "",
      "license_date": "2020-11-24",
      "expire_date": null
    },
    {
      "name": "",
      "name_kana": "",
      "business_type": "飲食店営業",
      "address": "玉名郡南関町関外目１４２１－１",
      "lat": 33.070360423,
      "lng": 130.542398593,
      "geocoding_level": 8,
      "phone": "",
      "license_no": "",
      "license_date": "2020-11-27",
      "expire_date": null
    },
    {
      "name": "",
      "name_kana": "",
      "business_type": "食品販売業",
      "address": "玉名郡南関町大字久重3386番地1",
      "lat": 33.03969868,
      "lng": 130.525846109,
      "geocoding_level": 8,
      "phone": "",
      "license_no": "",
      "license_date": "2020-12-08",
      "expire_date": null
    },
    {
      "name": "",
      "name_kana": "",
      "business_type": "飲食店営業",
      "address": "玉名郡南関町上坂下諏訪郷３４９３－４",
      "lat": 33.009635,
      "lng": 130.554202,
      "geocoding_level": 3,
      "phone": "",
      "license_no": "",
      "license_date": "2021-01-29",
      "expire_date": null
    },
    {
      "name": "",
      "name_kana": "",
      "business_type": "食品製造業",
      "address": "玉名郡南関町大字関下２１７５－２",
      "lat": 33.056148037,
      "lng": 130.548925729,
      "geocoding_level": 8,
      "phone": "",
      "license_no": "",
      "license_date": "2021-02-25",
      "expire_date": null
    },
    {
      "name": "",
      "name_kana": "",
      "business_type": "食品販売業",
      "address": "玉名郡南関町小原１９２７ー１",
      "lat": 33.022044,
      "lng": 130.524536,
      "geocoding_level": 3,
      "phone": "",
      "license_no": "",
      "license_date": "2021-02-08",
      "expire_date": null
    },
    {
      "name": "",
      "name_kana": "",
      "business_type": "食品販売業",
      "address": "玉名郡南関町大字関町１４３７",
      "lat": 33.068384,
      "lng": 130.543522,
      "geocoding_level": 3,
      "phone": "",
      "license_no": "",
      "license_date": "2021-02-08",
      "expire_date": null
    },
    {
      "name": "",
      "name_kana": "",
      "business_type": "菓子製造業",
      "address": "玉名郡南関町大字相谷１６３７",
      "lat": 33.045251,
      "lng": 130.585033,
      "geocoding_level": 3,
      "phone": "",
      "license_no": "",
      "license_date": "2021-02-09",
      "expire_date": null
    },
    {
      "name": "",
      "name_kana": "",
      "business_type": "菓子製造業",
      "address": "玉名郡南関町豊永５７１２－２",
      "lat": 33.029311189,
      "lng": 130.551423991,
      "geocoding_level": 8,
      "phone": "",
      "license_no": "",
      "license_date": "2021-02-09",
      "expire_date": null
    },
    {
      "name": "",
      "name_kana": "",
      "business_type": "飲食店営業",
      "address": "玉名郡南関町大字関東８８０番地１",
      "lat": 33.066952074,
      "lng": 130.549650379,
      "geocoding_level": 8,
      "phone": "",
      "license_no": "",
      "license_date": "2021-02-09",
      "expire_date": null
    },
    {
      "name": "",
      "name_kana": "",
      "business_type": "喫茶店営業",
      "address": "玉名郡南関町上長田６５４",
      "lat": 33.035101,
      "lng": 130.528558,
      "geocoding_level": 3,
      "phone": "",
      "license_no": "",
      "license_date": "2021-04-30",
      "expire_date": null
    },
    {
      "name": "",
      "name_kana": "",
      "business_type": "菓子製造業",
      "address": "玉名郡南関町大字関村９２３－１",
      "lat": 33.056561469,
      "lng": 130.529648903,
      "geocoding_level": 8,
      "phone": "",
      "license_no": "",
      "license_date": "2021-05-31",
      "expire_date": null
    },
    {
      "name": "",
      "name_kana": "",
      "business_type": "飲食店営業",
      "address": "玉名郡南関町大字関町１４３７",
      "lat": 33.068384,
      "lng": 130.543522,
      "geocoding_level": 3,
      "phone": "",
      "license_no": "",
      "license_date": "2017-02-09",
      "expire_date": null
    },
    {
      "name": "",
      "name_kana": "",
      "business_type": "飲食店営業",
      "address": "玉名郡南関町関外目字松田１５７７－１",
      "lat": 33.073822,
      "lng": 130.542934,
      "geocoding_level": 3,
      "phone": "",
      "license_no": "",
      "license_date": "2018-11-26",
      "expire_date": null
    },
    {
      "name": "",
      "name_kana": "",
      "business_type": "飲食店営業",
      "address": "玉名郡南関町関外目１５８０番地１、２、３１５５９番地３、玉名郡南関町関外目字下原１６０９番地２",
      "lat": 33.069524367,
      "lng": 130.537483014,
      "geocoding_level": 8,
      "phone": "",
      "license_no": "",
      "license_date": "2018-11-26",
      "expire_date": null
    },
    {
      "name": "",
      "name_kana": "",
      "business_type": "飲食店営業",
      "address": "玉名郡南関町関外目１５８０番地１、２、３１５５９番地３、玉名郡南関町関外目字下原１６０９番地２",
      "lat": 33.069524367,
      "lng": 130.537483014,
      "geocoding_level": 8,
      "phone": "",
      "license_no": "",
      "license_date": "2018-11-26",
      "expire_date": null
    },
    {
      "name": "",
      "name_kana": "",
      "business_type": "飲食店営業",
      "address": "玉名郡南関町小原１８９０－１",
      "lat": 33.022044,
      "lng": 130.524536,
      "geocoding_level": 3,
      "phone": "",
      "license_no": "",
      "license_date": "2019-11-26",
      "expire_date": null
    },
    {
      "name": "",
      "name_kana": "",
      "business_type": "飲食店営業",
      "address": "熊本県玉名郡南関町大字関町桑津留４１９－１",
      "lat": 33.068384,
      "lng": 130.543522,
      "geocoding_level": 3,
      "phone": "",
      "license_no": "",
      "license_date": "2017-08-17",
      "expire_date": null
    },
    {
      "name": "",
      "name_kana": "",
      "business_type": "飲食店営業",
      "address": "熊本県玉名郡南関町大字関町桑津留４１９－１",
      "lat": 33.068384,
      "lng": 130.543522,
      "geocoding_level": 3,
      "phone": "",
      "license_no": "",
      "license_date": "2017-08-17",
      "expire_date": null
    },
    {
      "name": "",
      "name_kana": "",
      "business_type": "飲食店営業",
      "address": "玉名郡南関町関町桑津留４１９－１",
      "lat": 33.068384,
      "lng": 130.543522,
      "geocoding_level": 3,
      "phone": "",
      "license_no": "",
      "license_date": "2017-08-17",
      "expire_date": null
    },
    {
      "name": "",
      "name_kana": "",
      "business_type": "魚介類販売業",
      "address": "玉名郡南関町関町桑津留４１９－１",
      "lat": 33.068384,
      "lng": 130.543522,
      "geocoding_level": 3,
      "phone": "",
      "license_no": "",
      "license_date": "2019-02-26",
      "expire_date": null
    },
    {
      "name": "",
      "name_kana": "",
      "business_type": "豆腐製造業",
      "address": "玉名郡南関町関町桑津留４１９－１",
      "lat": 33.068384,
      "lng": 130.543522,
      "geocoding_level": 3,
      "phone": "",
      "license_no": "",
      "license_date": "2019-02-26",
      "expire_date": null
    },
    {
      "name": "有限会社杉乃屋",
      "name_kana": "ユウゲンガイシャスギノヤ",
      "business_type": "① 飲食店営業",
      "address": "熊本県玉名郡南関町関下1553-3",
      "lat": 33.057063,
      "lng": 130.543139,
      "geocoding_level": null,
      "phone": "0968-53-2929",
      "license_no": "熊本県指令有保第食1-1-122号",
      "license_date": "2022-12-01",
      "expire_date": "2028-11-30"
    },
    {
      "name": "相谷営農グループ　やさい畑",
      "name_kana": "アイタニエイノウグループ　ヤサイバタケ",
      "business_type": "② 調理機能を有する自動販売機（要許可）",
      "address": "熊本県玉名郡南関町小原６７４－１",
      "lat": 33.043234,
      "lng": 130.569794,
      "geocoding_level": null,
      "phone": "0968533399",
      "license_no": "熊本県指令有保第食2-4号",
      "license_date": "2021-11-30",
      "expire_date": "2027-11-30"
    },
    {
      "name": "九州自動車道　玉名パーキングエリア上り",
      "name_kana": "キュウシュウジドウシャドウ　タマナパーキングエリアノボリ",
      "business_type": "② 調理機能を有する自動販売機（要許可）",
      "address": "熊本県玉名郡南関町下坂下1559-3",
      "lat": 33.014352,
      "lng": 130.583236,
      "geocoding_level": null,
      "phone": "",
      "license_no": "熊本県指令有保第食2-1号",
      "license_date": "2023-05-24",
      "expire_date": "2029-05-31"
    },
    {
      "name": "九州自動車道　玉名パーキングエリア下り",
      "name_kana": "キュウシュウジドウシャドウタマナパーキングエリアクダリ",
      "business_type": "② 調理機能を有する自動販売機（要許可）",
      "address": "熊本県玉名郡南関町下坂下三反田1635-1",
      "lat": 36.367504,
      "lng": 140.552382,
      "geocoding_level": null,
      "phone": "",
      "license_no": "熊本県指令有保第食2-2号",
      "license_date": "2023-05-31",
      "expire_date": "2029-05-31"
    },
    {
      "name": "有限会社　やさい畑",
      "name_kana": "ユウゲンガイシャ　ヤサイバタケ",
      "business_type": "① 飲食店営業",
      "address": "熊本県玉名郡南関町小原６７４－１",
      "lat": 33.04337,
      "lng": 130.569592,
      "geocoding_level": null,
      "phone": "0968533399",
      "license_no": "熊本県指令有保第食1-1-36号",
      "license_date": "2021-06-01",
      "expire_date": "2027-05-31"
    },
    {
      "name": "有限会社やさい畑",
      "name_kana": "ユウゲンガイシャヤサイバダケ",
      "business_type": "⑪ 菓子製造業",
      "address": "熊本県玉名郡南関町小原674番地の１",
      "lat": 33.043234,
      "lng": 130.569794,
      "geocoding_level": null,
      "phone": "",
      "license_no": "熊本県指令有保第食11-14号",
      "license_date": "2025-11-26",
      "expire_date": "2031-11-30"
    },
    {
      "name": "南関こどもの丘保育園",
      "name_kana": "ナンカンコドモノオカホイクエン",
      "business_type": "㉖ 集団給食施設",
      "address": "熊本県玉名郡南関町小原１８２１－１",
      "lat": 33.05106,
      "lng": 130.566107,
      "geocoding_level": null,
      "phone": "0968536668",
      "license_no": "",
      "license_date": null,
      "expire_date": null
    },
    {
      "name": "セブンーイレブン九州道玉名ＰＡ上り店",
      "name_kana": "セブンーイレブンキュウシュウドウタマナパーキングノボリテン",
      "business_type": "⑩ コンビニエンスストア",
      "address": "熊本県玉名郡南関町下坂下字四反田１５６２－３",
      "lat": 33.006119,
      "lng": 130.578813,
      "geocoding_level": null,
      "phone": "0968538660",
      "license_no": "",
      "license_date": null,
      "expire_date": null
    },
    {
      "name": "津留酒店",
      "name_kana": "ツルサケテン",
      "business_type": "⑬ その他の食料・飲料販売業",
      "address": "熊本県玉名郡南関町関町１３５５",
      "lat": 33.061911,
      "lng": 130.543643,
      "geocoding_level": null,
      "phone": "",
      "license_no": "",
      "license_date": null,
      "expire_date": null
    },
    {
      "name": "しずく屋",
      "name_kana": "シズクヤ",
      "business_type": "㉘ 露店、仮設店舗等における飲食の提供のうち、営業とみなされないもの",
      "address": "熊本県玉名郡南関町小原８８６－１ 熊本県内一円",
      "lat": 33.045146,
      "lng": 130.565501,
      "geocoding_level": null,
      "phone": "0968577695",
      "license_no": "",
      "license_date": null,
      "expire_date": null
    },
    {
      "name": "しずく屋",
      "name_kana": "シズクヤ",
      "business_type": "① 飲食店営業",
      "address": "熊本県玉名郡南関町等（熊本県下一円）",
      "lat": 32.943196,
      "lng": 130.599275,
      "geocoding_level": null,
      "phone": "",
      "license_no": "熊本県指令有保第食1-1-49号",
      "license_date": "2022-07-05",
      "expire_date": "2027-08-31"
    },
    {
      "name": "しずく屋",
      "name_kana": "シズクヤ",
      "business_type": "⑪ 菓子製造業",
      "address": "熊本県玉名郡南関町小原886-1",
      "lat": 33.045139,
      "lng": 130.565492,
      "geocoding_level": null,
      "phone": "",
      "license_no": "熊本県指令有保第食11-23号",
      "license_date": "2026-02-18",
      "expire_date": "2032-02-29"
    },
    {
      "name": "しずく屋",
      "name_kana": "シズクヤ",
      "business_type": "① 飲食店営業",
      "address": "熊本県玉名郡南関町小原886-1",
      "lat": 33.045139,
      "lng": 130.565492,
      "geocoding_level": null,
      "phone": "",
      "license_no": "熊本県指令有保第食1-1-229号",
      "license_date": "2026-02-18",
      "expire_date": "2032-02-29"
    },
    {
      "name": "ビックオーク　衣料部　フクハル　オークカフェ",
      "name_kana": "ビックオーク　イリョウブ　フクハル　オークカフェ",
      "business_type": "② 食肉販売業（包装済みの食肉のみの販売）",
      "address": "熊本県玉名郡南関町関町１４７９",
      "lat": 33.058352,
      "lng": 130.543261,
      "geocoding_level": null,
      "phone": "0968530034",
      "license_no": "",
      "license_date": null,
      "expire_date": null
    },
    {
      "name": "ビックオーク　衣料部　フクハル　オークカフェ",
      "name_kana": "ビックオーク　イリョウブ　フクハル　オークカフェ",
      "business_type": "⑬ その他の食料・飲料販売業",
      "address": "熊本県玉名郡南関町関町１４７９",
      "lat": 33.058352,
      "lng": 130.543261,
      "geocoding_level": null,
      "phone": "0968530034",
      "license_no": "",
      "license_date": null,
      "expire_date": null
    },
    {
      "name": "株式会社　丸美屋　南関工場",
      "name_kana": "カブシキガイシャ　マルミヤ　ナンカンコウジョウ",
      "business_type": "⑬ その他の食料・飲料販売業",
      "address": "熊本県玉名郡南関町豊永３９６９",
      "lat": 33.024451,
      "lng": 130.559766,
      "geocoding_level": null,
      "phone": "0968530444",
      "license_no": "",
      "license_date": null,
      "expire_date": null
    },
    {
      "name": "けんこう市場　南関店",
      "name_kana": "ケンコウイチバ　ナンカンテン",
      "business_type": "③ 乳類販売業",
      "address": "熊本県玉名郡南関町豊永３９６９",
      "lat": 33.025304,
      "lng": 130.560066,
      "geocoding_level": null,
      "phone": "0968530292",
      "license_no": "",
      "license_date": null,
      "expire_date": null
    },
    {
      "name": "けんこう市場　南関店",
      "name_kana": "ケンコウイチバ　ナンカンテン",
      "business_type": "⑬ その他の食料・飲料販売業",
      "address": "熊本県玉名郡南関町豊永３９６９",
      "lat": 33.025304,
      "lng": 130.560066,
      "geocoding_level": null,
      "phone": "0968530292",
      "license_no": "",
      "license_date": null,
      "expire_date": null
    },
    {
      "name": "関所村",
      "name_kana": "セキショムラ",
      "business_type": "③ 乳類販売業",
      "address": "熊本県玉名郡南関町上長田６５４",
      "lat": 33.02771,
      "lng": 130.530015,
      "geocoding_level": null,
      "phone": "",
      "license_no": "",
      "license_date": null,
      "expire_date": null
    },
    {
      "name": "関所村",
      "name_kana": "セキショムラ",
      "business_type": "⑬ その他の食料・飲料販売業",
      "address": "熊本県玉名郡南関町上長田６５４",
      "lat": 33.02771,
      "lng": 130.530015,
      "geocoding_level": null,
      "phone": "",
      "license_no": "",
      "license_date": null,
      "expire_date": null
    },
    {
      "name": "春夏冬",
      "name_kana": "シュンカトウ",
      "business_type": "① 飲食店営業",
      "address": "熊本県玉名郡南関町大字上長田654番地",
      "lat": 33.02771,
      "lng": 130.530015,
      "geocoding_level": null,
      "phone": "0968-53-0997",
      "license_no": "熊本県指令有保第食1-1-229号",
      "license_date": "2023-03-01",
      "expire_date": "2029-02-28"
    },
    {
      "name": "有限会社やさい畑",
      "name_kana": "ユウゲンガイシャヤサイバタケ",
      "business_type": "① 魚介類販売業（包装済みの魚介類のみの販売）",
      "address": "熊本県玉名郡南関町小原６７４番地の１",
      "lat": 33.043213,
      "lng": 130.56978,
      "geocoding_level": null,
      "phone": "0968533399",
      "license_no": "",
      "license_date": null,
      "expire_date": null
    },
    {
      "name": "有限会社やさい畑",
      "name_kana": "ユウゲンガイシャヤサイバタケ",
      "business_type": "② 食肉販売業（包装済みの食肉のみの販売）",
      "address": "熊本県玉名郡南関町小原６７４番地の１",
      "lat": 33.043213,
      "lng": 130.56978,
      "geocoding_level": null,
      "phone": "0968533399",
      "license_no": "",
      "license_date": null,
      "expire_date": null
    },
    {
      "name": "有限会社やさい畑",
      "name_kana": "ユウゲンガイシャヤサイバタケ",
      "business_type": "③ 乳類販売業",
      "address": "熊本県玉名郡南関町小原６７４番地の１",
      "lat": 33.043213,
      "lng": 130.56978,
      "geocoding_level": null,
      "phone": "0968533399",
      "license_no": "",
      "license_date": null,
      "expire_date": null
    },
    {
      "name": "有限会社やさい畑",
      "name_kana": "ユウゲンガイシャヤサイバタケ",
      "business_type": "⑦ 野菜果物販売業",
      "address": "熊本県玉名郡南関町小原６７４番地の１",
      "lat": 33.043213,
      "lng": 130.56978,
      "geocoding_level": null,
      "phone": "0968533399",
      "license_no": "",
      "license_date": null,
      "expire_date": null
    },
    {
      "name": "有限会社やさい畑",
      "name_kana": "ユウゲンガイシャヤサイバタケ",
      "business_type": "⑬ その他の食料・飲料販売業",
      "address": "熊本県玉名郡南関町小原６７４番地の１",
      "lat": 33.043213,
      "lng": 130.56978,
      "geocoding_level": null,
      "phone": "0968533399",
      "license_no": "",
      "license_date": null,
      "expire_date": null
    },
    {
      "name": "みえまる屋",
      "name_kana": "ミエマルヤ",
      "business_type": "⑬ その他の食料・飲料販売業",
      "address": "熊本県玉名郡南関町四ツ原等熊本県内一円",
      "lat": 32.999857,
      "lng": 130.540688,
      "geocoding_level": null,
      "phone": "0968578311",
      "license_no": "",
      "license_date": null,
      "expire_date": null
    },
    {
      "name": "みえまる屋",
      "name_kana": "ミエマルヤ",
      "business_type": "⑪ 菓子製造業",
      "address": "熊本県玉名郡南関町四ツ原562",
      "lat": 32.999857,
      "lng": 130.540688,
      "geocoding_level": null,
      "phone": "0968578311",
      "license_no": "熊本県指令有保第食11-24号",
      "license_date": "2026-02-18",
      "expire_date": "2032-02-29"
    },
    {
      "name": "ファミリーマート南関上坂下店",
      "name_kana": "ファミリーマートナンカンカミサカシタテン",
      "business_type": "⑩ コンビニエンスストア",
      "address": "熊本県玉名郡南関町上坂下字井手３４７２－１",
      "lat": 33.016935,
      "lng": 130.557271,
      "geocoding_level": null,
      "phone": "0968697188",
      "license_no": "",
      "license_date": null,
      "expire_date": null
    },
    {
      "name": "セブンイレブン九州道玉名ＰＡ下り店",
      "name_kana": "セブンイレブンキュウシュウドウタマナパーキングクダリテン",
      "business_type": "⑩ コンビニエンスストア",
      "address": "熊本県玉名郡南関町下坂下１６４５－１",
      "lat": 33.006119,
      "lng": 130.578813,
      "geocoding_level": null,
      "phone": "0968538661",
      "license_no": "",
      "license_date": null,
      "expire_date": null
    },
    {
      "name": "セブンイレブン南関小原店",
      "name_kana": "セブンイレブンナンカンコバルテン",
      "business_type": "⑩ コンビニエンスストア",
      "address": "熊本県玉名郡南関町小原１８１５－２",
      "lat": 33.048714,
      "lng": 130.557831,
      "geocoding_level": null,
      "phone": "0968535711",
      "license_no": "",
      "license_date": null,
      "expire_date": null
    },
    {
      "name": "セブンイレブン九州道玉名PA下り店",
      "name_kana": "セブンイレブンキュウシュウドウタマナピーエークダリテン",
      "business_type": "① 飲食店営業",
      "address": "熊本県玉名郡南関町大字下坂下1645-1",
      "lat": 33.012682,
      "lng": 130.585226,
      "geocoding_level": null,
      "phone": "0968538661",
      "license_no": "熊本県指令有保第食1-1-28号",
      "license_date": "2024-05-01",
      "expire_date": "2030-05-31"
    },
    {
      "name": "セブンイレブン南関小原店",
      "name_kana": "セブンイレブンナンカンコバルテン",
      "business_type": "① 飲食店営業",
      "address": "熊本県玉名郡南関町小原１８１５－２",
      "lat": 33.048708,
      "lng": 130.557837,
      "geocoding_level": null,
      "phone": "0968-53-5711",
      "license_no": "熊本県指令有保第食1-1-153号",
      "license_date": "2025-11-19",
      "expire_date": "2031-11-30"
    },
    {
      "name": "玉名PA上り線",
      "name_kana": "タマナピーエーノボリセン",
      "business_type": "③ 乳類販売業",
      "address": "熊本県玉名郡南関町下坂下字四反田１５５９－３",
      "lat": 33.006119,
      "lng": 130.578813,
      "geocoding_level": null,
      "phone": "0968539258",
      "license_no": "",
      "license_date": null,
      "expire_date": null
    },
    {
      "name": "玉名PA上り線",
      "name_kana": "タマナピーエーノボリセン",
      "business_type": "⑬ その他の食料・飲料販売業",
      "address": "熊本県玉名郡南関町下坂下字四反田１５５９－３",
      "lat": 33.006119,
      "lng": 130.578813,
      "geocoding_level": null,
      "phone": "0968539258",
      "license_no": "",
      "license_date": null,
      "expire_date": null
    },
    {
      "name": "玉名ＰＡ下り線",
      "name_kana": "タマナピーエークダリセン",
      "business_type": "③ 乳類販売業",
      "address": "熊本県玉名郡南関町下坂下字三反田１６３５－１",
      "lat": 33.006119,
      "lng": 130.578813,
      "geocoding_level": null,
      "phone": "0968539259",
      "license_no": "",
      "license_date": null,
      "expire_date": null
    },
    {
      "name": "玉名ＰＡ下り線",
      "name_kana": "タマナピーエークダリセン",
      "business_type": "⑬ その他の食料・飲料販売業",
      "address": "熊本県玉名郡南関町下坂下字三反田１６３５－１",
      "lat": 33.006119,
      "lng": 130.578813,
      "geocoding_level": null,
      "phone": "0968539259",
      "license_no": "",
      "license_date": null,
      "expire_date": null
    },
    {
      "name": "玉名PA下り線",
      "name_kana": "タマナピーエークダリセン",
      "business_type": "① 飲食店営業",
      "address": "熊本県玉名郡南関町下坂下三反田１６３５－１",
      "lat": 33.006119,
      "lng": 130.578813,
      "geocoding_level": null,
      "phone": "0968539259",
      "license_no": "熊本県指令有保第食1-1-63号",
      "license_date": "2021-08-06",
      "expire_date": "2027-08-31"
    },
    {
      "name": "玉名PA下り線（テイクコーナー）",
      "name_kana": "タマナピーエークダリセンテイクコーナー",
      "business_type": "① 飲食店営業",
      "address": "熊本県玉名郡南関町下坂下三反田１６３５－１",
      "lat": 33.006119,
      "lng": 130.578813,
      "geocoding_level": null,
      "phone": "0968539259",
      "license_no": "熊本県指令有保第食1-1-64号",
      "license_date": "2021-08-06",
      "expire_date": "2027-08-31"
    },
    {
      "name": "玉名PA上り線（テイクコーナー）",
      "name_kana": "タマナピーエーノボリセンテイクコーナー",
      "business_type": "① 飲食店営業",
      "address": "熊本県玉名郡南関町下坂下四反田1559-3",
      "lat": 33.006119,
      "lng": 130.578813,
      "geocoding_level": null,
      "phone": "",
      "license_no": "熊本県指令有保第食1-1-65号",
      "license_date": "2021-08-06",
      "expire_date": "2027-08-31"
    },
    {
      "name": "玉名PA上り線（玉名亭）",
      "name_kana": "タマナピーエーノボリセンタマナテイ",
      "business_type": "① 飲食店営業",
      "address": "熊本県玉名郡南関町下坂下四反田1559-3",
      "lat": 33.006119,
      "lng": 130.578813,
      "geocoding_level": null,
      "phone": "0968539258",
      "license_no": "熊本県指令有保第食1-1-66号",
      "license_date": "2021-08-06",
      "expire_date": "2027-08-31"
    },
    {
      "name": "玉名PA上り線（吉野家）",
      "name_kana": "タマナピーエーノボリセンヨシノヤ",
      "business_type": "① 飲食店営業",
      "address": "熊本県玉名郡南関町未選択四反田１５５９－３",
      "lat": 33.061625,
      "lng": 130.541207,
      "geocoding_level": null,
      "phone": "0968539258",
      "license_no": "熊本県指令有保第食1-1-67号",
      "license_date": "2021-08-06",
      "expire_date": "2027-08-31"
    },
    {
      "name": "畑の天使",
      "name_kana": "ハタケノテンシ",
      "business_type": "③ 乳類販売業",
      "address": "熊本県玉名郡南関町関町桑津留４１９－１",
      "lat": 33.069439,
      "lng": 130.547643,
      "geocoding_level": null,
      "phone": "0968530388",
      "license_no": "",
      "license_date": null,
      "expire_date": null
    },
    {
      "name": "畑の天使",
      "name_kana": "ハタケノテンシ",
      "business_type": "⑦ 野菜果物販売業",
      "address": "熊本県玉名郡南関町関町４１９－１",
      "lat": 33.069421,
      "lng": 130.547737,
      "geocoding_level": null,
      "phone": "0968532887",
      "license_no": "",
      "license_date": null,
      "expire_date": null
    },
    {
      "name": "畑の天使",
      "name_kana": "ハタケノテンシ",
      "business_type": "① 飲食店営業",
      "address": "熊本県玉名郡南関町関町桑津留４１９－１",
      "lat": 33.057199,
      "lng": 130.53942,
      "geocoding_level": null,
      "phone": "0968532887",
      "license_no": "熊本県指令有保第食1-1-169号",
      "license_date": "2025-01-29",
      "expire_date": "2031-02-28"
    },
    {
      "name": "ホテルセキア",
      "name_kana": "ホテルセキア",
      "business_type": "③ 乳類販売業",
      "address": "熊本県玉名郡南関町セキアヒルズ",
      "lat": 33.060033,
      "lng": 130.51208,
      "geocoding_level": null,
      "phone": "0968696114",
      "license_no": "",
      "license_date": null,
      "expire_date": null
    },
    {
      "name": "パン工房ＯＺＡＫＩ",
      "name_kana": "パンコウボウオザキ",
      "business_type": "③ 乳類販売業",
      "address": "熊本県玉名郡南関町小原２２１１ー１",
      "lat": 33.044302,
      "lng": 130.564096,
      "geocoding_level": null,
      "phone": "0968531885",
      "license_no": "",
      "license_date": null,
      "expire_date": null
    },
    {
      "name": "パン工房ＯＺＡＫＩ",
      "name_kana": "パンコウボウオザキ",
      "business_type": "⑪ 菓子製造業",
      "address": "熊本県玉名郡南関町小原２２１１－１",
      "lat": 33.044302,
      "lng": 130.564096,
      "geocoding_level": null,
      "phone": "0968531885",
      "license_no": "熊本県指令有保第食11-16号",
      "license_date": "2021-11-18",
      "expire_date": "2027-11-30"
    },
    {
      "name": "株式会社モロフジケミカル",
      "name_kana": "モロフジケミカル",
      "business_type": "㉗ 器具、容器包装の製造・加工業（合成樹脂が使用された器具又は容器包装の製造、加工に限る。）",
      "address": "熊本県玉名郡南関町関外目811",
      "lat": 33.080303,
      "lng": 130.542297,
      "geocoding_level": null,
      "phone": "",
      "license_no": "",
      "license_date": null,
      "expire_date": null
    },
    {
      "name": "ホテルセキア　ザ・ショップ",
      "name_kana": "ホテルセキア　ザ・ショップ",
      "business_type": "② 食肉販売業（包装済みの食肉のみの販売）",
      "address": "熊本県玉名郡南関町関村１５５６番地",
      "lat": 33.057563,
      "lng": 130.525431,
      "geocoding_level": null,
      "phone": "0968696111",
      "license_no": "",
      "license_date": null,
      "expire_date": null
    },
    {
      "name": "ホテルセキア　ザ・ショップ",
      "name_kana": "ホテルセキア　ザ・ショップ",
      "business_type": "③ 乳類販売業",
      "address": "熊本県玉名郡南関町関村１５５６番地",
      "lat": 33.057563,
      "lng": 130.525431,
      "geocoding_level": null,
      "phone": "0968696111",
      "license_no": "",
      "license_date": null,
      "expire_date": null
    },
    {
      "name": "ホテルセキア　ザ・ショップ",
      "name_kana": "ホテルセキア　ザ・ショップ",
      "business_type": "⑬ その他の食料・飲料販売業",
      "address": "熊本県玉名郡南関町関村１５５６番地",
      "lat": 33.057563,
      "lng": 130.525431,
      "geocoding_level": null,
      "phone": "0968696111",
      "license_no": "",
      "license_date": null,
      "expire_date": null
    },
    {
      "name": "ローソン玉名南関関東店",
      "name_kana": "ローソンタマナナンカンセキヒガシテン",
      "business_type": "⑩ コンビニエンスストア",
      "address": "熊本県玉名郡南関町関東８９９－１",
      "lat": 33.066118,
      "lng": 130.54917,
      "geocoding_level": null,
      "phone": "09688531363",
      "license_no": "",
      "license_date": null,
      "expire_date": null
    },
    {
      "name": "認定こども園　文化幼児園",
      "name_kana": "ニンテイコドモエン　ブンカヨウジエン",
      "business_type": "㉖ 集団給食施設",
      "address": "熊本県玉名郡南関町関下字南中山１９３３番地",
      "lat": 38.310764,
      "lng": 140.825506,
      "geocoding_level": null,
      "phone": "0968531888",
      "license_no": "",
      "license_date": null,
      "expire_date": null
    },
    {
      "name": "特別養護老人ホーム　延寿荘",
      "name_kana": "トクベツヨウゴロウジンホーム　エンジュソウ",
      "business_type": "㉖ 集団給食施設",
      "address": "熊本県玉名郡南関町小原1770番地",
      "lat": 33.047478,
      "lng": 130.5605,
      "geocoding_level": null,
      "phone": "0968342227",
      "license_no": "",
      "license_date": null,
      "expire_date": null
    },
    {
      "name": "ホテルセキア",
      "name_kana": "ホテルセキア",
      "business_type": "⑱ 調味料製造・加工業",
      "address": "熊本県玉名郡南関町関村１５５６",
      "lat": 33.057563,
      "lng": 130.525431,
      "geocoding_level": null,
      "phone": "0968696135",
      "license_no": "",
      "license_date": null,
      "expire_date": null
    },
    {
      "name": "ホテルセキア　プールサイドパラダイス",
      "name_kana": "ホテルセキア　プールサイドパラダイス",
      "business_type": "⑬ その他の食料・飲料販売業",
      "address": "熊本県玉名郡南関町関村１５５６番地",
      "lat": 33.057563,
      "lng": 130.525431,
      "geocoding_level": null,
      "phone": "0968696111",
      "license_no": "",
      "license_date": null,
      "expire_date": null
    },
    {
      "name": "南関町立南関中学校",
      "name_kana": "ナンカンチョウリツナンカンチュウガッコウ",
      "business_type": "㉙ その他",
      "address": "熊本県玉名郡南関町小原２１２１",
      "lat": 33.043126,
      "lng": 130.562257,
      "geocoding_level": null,
      "phone": "0968530005",
      "license_no": "",
      "license_date": null,
      "expire_date": null
    },
    {
      "name": "とっぱ食堂",
      "name_kana": "トッパショクドウ",
      "business_type": "㉙ その他",
      "address": "熊本県玉名郡南関町上坂下７７　南関町南集会所内",
      "lat": 33.013849,
      "lng": 130.5659,
      "geocoding_level": null,
      "phone": "0968578220",
      "license_no": "",
      "license_date": null,
      "expire_date": null
    },
    {
      "name": "南の関　うから館",
      "name_kana": "ミナミノセキ　ウカラカン",
      "business_type": "㉙ その他",
      "address": "熊本県玉名郡南関町関町1230",
      "lat": 33.057747,
      "lng": 130.540092,
      "geocoding_level": null,
      "phone": "0968696200",
      "license_no": "",
      "license_date": null,
      "expire_date": null
    },
    {
      "name": "山兆",
      "name_kana": "ヤマチョウ",
      "business_type": "㉙ 漬物製造業",
      "address": "熊本県玉名郡南関町関町３２１－３",
      "lat": 33.064877,
      "lng": 130.545398,
      "geocoding_level": null,
      "phone": "09053819223",
      "license_no": "熊本県指令有保第食29-2号",
      "license_date": "2021-10-27",
      "expire_date": "2027-11-30"
    },
    {
      "name": "末竹商店",
      "name_kana": "スエタケショウテン",
      "business_type": "⑦ 野菜果物販売業",
      "address": "熊本県玉名郡南関町関町１２８８",
      "lat": 33.059765,
      "lng": 130.540638,
      "geocoding_level": null,
      "phone": "09053932948",
      "license_no": "",
      "license_date": null,
      "expire_date": null
    },
    {
      "name": "末竹商店",
      "name_kana": "スエタケショウテン",
      "business_type": "⑬ その他の食料・飲料販売業",
      "address": "熊本県玉名郡南関町関町１２８８",
      "lat": 33.059765,
      "lng": 130.540638,
      "geocoding_level": null,
      "phone": "09053932948",
      "license_no": "",
      "license_date": null,
      "expire_date": null
    },
    {
      "name": "肉のたかむく",
      "name_kana": "ニクノタカムク",
      "business_type": "② 食肉販売業（包装済みの食肉のみの販売）",
      "address": "熊本県玉名郡南関町豊永２９９－１６",
      "lat": 33.032883,
      "lng": 130.558483,
      "geocoding_level": null,
      "phone": "0968533398",
      "license_no": "",
      "license_date": null,
      "expire_date": null
    },
    {
      "name": "認定こども園南関ひまわり幼稚園",
      "name_kana": "ニンテイコドモエンナンカンヒマワリヨウチエン",
      "business_type": "㉖ 集団給食施設",
      "address": "熊本県玉名郡南関町上坂下１３３９",
      "lat": 33.001351,
      "lng": 130.552746,
      "geocoding_level": null,
      "phone": "0968538777",
      "license_no": "",
      "license_date": null,
      "expire_date": null
    },
    {
      "name": "河野商店",
      "name_kana": "カワノショウテン",
      "business_type": "⑬ その他の食料・飲料販売業",
      "address": "熊本県玉名郡南関町小原９６３",
      "lat": 33.047927,
      "lng": 130.566316,
      "geocoding_level": null,
      "phone": "0968531812",
      "license_no": "",
      "license_date": null,
      "expire_date": null
    },
    {
      "name": "ピーターショップ花見2号店",
      "name_kana": "ピーターショップハナミニゴウテン",
      "business_type": "⑬ その他の食料・飲料販売業",
      "address": "熊本県玉名郡南関町小原１９２７－１",
      "lat": 33.05106,
      "lng": 130.566107,
      "geocoding_level": null,
      "phone": "0968533486",
      "license_no": "",
      "license_date": null,
      "expire_date": null
    },
    {
      "name": "ピーターショップ花見",
      "name_kana": "ピーターショップハナミ",
      "business_type": "⑬ その他の食料・飲料販売業",
      "address": "熊本県玉名郡南関町関町１４１０",
      "lat": 33.060059,
      "lng": 130.540786,
      "geocoding_level": null,
      "phone": "0968533136",
      "license_no": "",
      "license_date": null,
      "expire_date": null
    },
    {
      "name": "ピーター花見２号店",
      "name_kana": "ピーターハナミニゴウテン",
      "business_type": "① 飲食店営業",
      "address": "熊本県玉名郡南関町小原１９２７－１",
      "lat": 33.05106,
      "lng": 130.566107,
      "geocoding_level": null,
      "phone": "0968533136",
      "license_no": "熊本県指令有保第食1-1-168号",
      "license_date": "2025-01-29",
      "expire_date": "2031-02-28"
    },
    {
      "name": "四ケ所商店",
      "name_kana": "シカショショウテン",
      "business_type": "⑬ その他の食料・飲料販売業",
      "address": "熊本県玉名郡南関町関町１３００番地２",
      "lat": 33.060606,
      "lng": 130.540497,
      "geocoding_level": null,
      "phone": "0968530122",
      "license_no": "",
      "license_date": null,
      "expire_date": null
    },
    {
      "name": "肥後の茶屋",
      "name_kana": "ヒゴノチャヤ",
      "business_type": "⑬ その他の食料・飲料販売業",
      "address": "熊本県玉名郡南関町小原９２０－１",
      "lat": 33.045952,
      "lng": 130.564658,
      "geocoding_level": null,
      "phone": "0968533057",
      "license_no": "",
      "license_date": null,
      "expire_date": null
    },
    {
      "name": "肥後の茶屋",
      "name_kana": "ヒゴノチャヤ",
      "business_type": "① 飲食店営業",
      "address": "熊本県玉名郡南関町小原池ノ元９２０－１",
      "lat": 33.05106,
      "lng": 130.566107,
      "geocoding_level": null,
      "phone": "0968-53-3057",
      "license_no": "熊本県指令有保第食1-1-158号",
      "license_date": "2025-11-19",
      "expire_date": "2031-11-30"
    },
    {
      "name": "ビッグオーク",
      "name_kana": "ビッグオーク",
      "business_type": "⑬ その他の食料・飲料販売業",
      "address": "熊本県玉名郡南関町関町1479番地",
      "lat": 33.058352,
      "lng": 130.543261,
      "geocoding_level": null,
      "phone": "0968533300",
      "license_no": "",
      "license_date": null,
      "expire_date": null
    },
    {
      "name": "ビッグオーク",
      "name_kana": "ビッグオーク",
      "business_type": "⑬ その他の食料・飲料販売業",
      "address": "熊本県玉名郡南関町関町１４７９",
      "lat": 33.058289,
      "lng": 130.54331,
      "geocoding_level": null,
      "phone": "0968533300",
      "license_no": "",
      "license_date": null,
      "expire_date": null
    },
    {
      "name": "特産品センターなんかん（いきいき村）",
      "name_kana": "トクサンヒンセンターナンカン　イキイキムラ",
      "business_type": "② 食肉販売業（包装済みの食肉のみの販売）",
      "address": "熊本県玉名郡南関町関町桑津留419－1",
      "lat": 33.057199,
      "lng": 130.53942,
      "geocoding_level": null,
      "phone": "0968530388",
      "license_no": "",
      "license_date": null,
      "expire_date": null
    },
    {
      "name": "特産品センターなんかん（いきいき村）",
      "name_kana": "トクサンヒンセンターナンカン　イキイキムラ",
      "business_type": "⑬ その他の食料・飲料販売業",
      "address": "熊本県玉名郡南関町関町桑津留419－1",
      "lat": 33.057199,
      "lng": 130.53942,
      "geocoding_level": null,
      "phone": "0968530388",
      "license_no": "",
      "license_date": null,
      "expire_date": null
    },
    {
      "name": "特産品センターなんかん（いきいき村）",
      "name_kana": "トクサンヒンセンターナンカン　イキイキムラ",
      "business_type": "① 飲食店営業",
      "address": "熊本県玉名郡南関町関町４１９－１",
      "lat": 33.069421,
      "lng": 130.547737,
      "geocoding_level": null,
      "phone": "0968-53-0388",
      "license_no": "熊本県指令有保第食1-1-61号",
      "license_date": "2022-08-05",
      "expire_date": "2028-08-31"
    },
    {
      "name": "特産品センターなんかん（いきいき村）",
      "name_kana": "トクサンヒンセンターナンカン　イキイキムラ",
      "business_type": "㉔ 麺類製造業",
      "address": "熊本県玉名郡南関町関町419－１",
      "lat": 33.069421,
      "lng": 130.547737,
      "geocoding_level": null,
      "phone": "0968-53-0388",
      "license_no": "熊本県指令有保第食24-1号",
      "license_date": "2022-08-05",
      "expire_date": "2028-08-31"
    },
    {
      "name": "特産品センターなんかん（いきいき村）",
      "name_kana": "トクサンヒンセンターナンカン　イキイキムラ",
      "business_type": "⑪ 菓子製造業",
      "address": "熊本県玉名郡南関町関町４１９－１",
      "lat": 33.069421,
      "lng": 130.547737,
      "geocoding_level": null,
      "phone": "0968-53-0388",
      "license_no": "熊本県指令有保第食11-9号",
      "license_date": "2022-08-05",
      "expire_date": "2028-08-31"
    },
    {
      "name": "特産品センターなんかん（いきいき村）",
      "name_kana": "トクサンヒンセンター　イキイキムラ",
      "business_type": "③ 食肉販売業",
      "address": "熊本県玉名郡南関町関町419-1",
      "lat": 33.069421,
      "lng": 130.547737,
      "geocoding_level": null,
      "phone": "0968-53-0388",
      "license_no": "熊本県指令有保第食3-6号",
      "license_date": "2022-08-05",
      "expire_date": "2028-08-31"
    },
    {
      "name": "特産品センターなんかん　いきいき村",
      "name_kana": "トクサンヒンセンターナンカンイキイキムラ",
      "business_type": "㉒ 豆腐製造業",
      "address": "熊本県玉名郡南関町関町419-1",
      "lat": 33.069439,
      "lng": 130.547643,
      "geocoding_level": null,
      "phone": "0968530388",
      "license_no": "熊本県指令有保第食22-1号",
      "license_date": "2023-07-31",
      "expire_date": "2029-08-31"
    },
    {
      "name": "特産品センターなんかん　お食事処いきいき",
      "name_kana": "トクサンヒンセンターナンカンオショクジドコロイキイキ",
      "business_type": "① 飲食店営業",
      "address": "熊本県玉名郡南関町関町419-1",
      "lat": 33.069421,
      "lng": 130.547737,
      "geocoding_level": null,
      "phone": "",
      "license_no": "熊本県指令有保第食1-1-70号",
      "license_date": "2023-07-31",
      "expire_date": "2029-08-31"
    },
    {
      "name": "特産品センターなんかんいきいき村　惣菜",
      "name_kana": "トクサンヒンセンターナンカンイキイキムラソウザイ",
      "business_type": "① 飲食店営業",
      "address": "熊本県玉名郡南関町関町419-1",
      "lat": 33.069421,
      "lng": 130.547737,
      "geocoding_level": null,
      "phone": "",
      "license_no": "熊本県指令有保第食1-1-71号",
      "license_date": "2023-07-31",
      "expire_date": "2029-08-31"
    },
    {
      "name": "特産品センターなんかん　いきいき村",
      "name_kana": "トクサンヒンセンターナンカン　イキイキムラ",
      "business_type": "⑯ 水産製品製造業",
      "address": "熊本県玉名郡南関町関町419-1",
      "lat": 33.069421,
      "lng": 130.547737,
      "geocoding_level": null,
      "phone": "0968-53-0388",
      "license_no": "熊本県指令有保第食16-3号",
      "license_date": "2024-05-20",
      "expire_date": "2030-05-31"
    },
    {
      "name": "南関町学校給食センター",
      "name_kana": "ナンカンマチガッコウキュウショクセンター",
      "business_type": "㉖ 集団給食施設",
      "address": "熊本県玉名郡南関町上坂下３５４１番地",
      "lat": 33.015781,
      "lng": 130.561092,
      "geocoding_level": null,
      "phone": "0968538945",
      "license_no": "",
      "license_date": null,
      "expire_date": null
    },
    {
      "name": "やさい村",
      "name_kana": "ヤサイムラ",
      "business_type": "⑦ 野菜果物販売業",
      "address": "熊本県玉名郡南関町関下1930",
      "lat": 33.052907,
      "lng": 130.552594,
      "geocoding_level": null,
      "phone": "",
      "license_no": "",
      "license_date": null,
      "expire_date": null
    },
    {
      "name": "やさい村",
      "name_kana": "ヤサイムラ",
      "business_type": "⑬ その他の食料・飲料販売業",
      "address": "熊本県玉名郡南関町関下1930",
      "lat": 33.052907,
      "lng": 130.552594,
      "geocoding_level": null,
      "phone": "",
      "license_no": "",
      "license_date": null,
      "expire_date": null
    },
    {
      "name": "マルシマ",
      "name_kana": "マルシマ",
      "business_type": "㉙ 漬物製造業",
      "address": "熊本県玉名郡南関町関村９６９",
      "lat": 33.055402,
      "lng": 130.531438,
      "geocoding_level": null,
      "phone": "0968531882",
      "license_no": "熊本県指令有保第食29-6号",
      "license_date": "2021-11-19",
      "expire_date": "2027-11-30"
    },
    {
      "name": "文屋",
      "name_kana": "フミヤ",
      "business_type": "㉙ 漬物製造業",
      "address": "熊本県玉名郡南関町関村１００６",
      "lat": 33.05536,
      "lng": 130.533396,
      "geocoding_level": null,
      "phone": "08052461348",
      "license_no": "熊本県指令有保第食29-7号",
      "license_date": "2021-11-18",
      "expire_date": "2027-11-30"
    },
    {
      "name": "静子工房",
      "name_kana": "シズココウボウ",
      "business_type": "㉙ 漬物製造業",
      "address": "熊本県玉名郡南関町小原２２６８",
      "lat": 33.044148,
      "lng": 130.564942,
      "geocoding_level": null,
      "phone": "09036628426",
      "license_no": "熊本県指令有保第食29-8号",
      "license_date": "2021-11-19",
      "expire_date": "2027-11-30"
    },
    {
      "name": "静子工房",
      "name_kana": "シズココウボウ",
      "business_type": "⑰ 農産保存食料品製造・加工業",
      "address": "熊本県玉名郡南関町小原２２６８",
      "lat": 33.039062,
      "lng": 130.562572,
      "geocoding_level": null,
      "phone": "",
      "license_no": "",
      "license_date": null,
      "expire_date": null
    },
    {
      "name": "マルシェ•オ•パン",
      "name_kana": "マルシェ　オ　パン",
      "business_type": "⑬ その他の食料・飲料販売業",
      "address": "熊本県玉名郡南関町久重14 ヤマチク第ニ工場内",
      "lat": 33.046535,
      "lng": 130.52675,
      "geocoding_level": null,
      "phone": "",
      "license_no": "",
      "license_date": null,
      "expire_date": null
    },
    {
      "name": "緒方商店",
      "name_kana": "オガタショウテン",
      "business_type": "⑬ その他の食料・飲料販売業",
      "address": "熊本県玉名郡南関町関町１４１５",
      "lat": 33.060231,
      "lng": 130.541285,
      "geocoding_level": null,
      "phone": "0968530010",
      "license_no": "",
      "license_date": null,
      "expire_date": null
    },
    {
      "name": "株式会社橋本製菓",
      "name_kana": "カブシキカイシャハシモトセイカ",
      "business_type": "⑬ その他の食料・飲料販売業",
      "address": "熊本県玉名郡南関町大字関町１５６７",
      "lat": 33.063718,
      "lng": 130.545773,
      "geocoding_level": null,
      "phone": "0968530522",
      "license_no": "",
      "license_date": null,
      "expire_date": null
    },
    {
      "name": "株式会社橋本製菓",
      "name_kana": "カブシキカイシャハシモトセイカ",
      "business_type": "⑪ 菓子製造業",
      "address": "熊本県玉名郡南関町大字関町1567",
      "lat": 33.058812,
      "lng": 130.545345,
      "geocoding_level": null,
      "phone": "0968530522",
      "license_no": "熊本県指令有保第食11-9号",
      "license_date": "2023-08-04",
      "expire_date": "2029-08-31"
    },
    {
      "name": "お菓子のキタハラ",
      "name_kana": "オカシノキタハラ",
      "business_type": "⑬ その他の食料・飲料販売業",
      "address": "熊本県玉名郡南関町関町１４７９ビッグオーク内",
      "lat": 33.058304,
      "lng": 130.543268,
      "geocoding_level": null,
      "phone": "0968532876",
      "license_no": "",
      "license_date": null,
      "expire_date": null
    },
    {
      "name": "レストラン　松風",
      "name_kana": "レストラン　マツカゼ",
      "business_type": "⑬ その他の食料・飲料販売業",
      "address": "熊本県玉名郡南関町関町１４９８－４",
      "lat": 33.058878,
      "lng": 130.544317,
      "geocoding_level": null,
      "phone": "0968530273",
      "license_no": "",
      "license_date": null,
      "expire_date": null
    },
    {
      "name": "レストラン松風",
      "name_kana": "レストランマツカゼ",
      "business_type": "① 飲食店営業",
      "address": "熊本県玉名郡南関町関町１４９８－４",
      "lat": 33.058878,
      "lng": 130.544317,
      "geocoding_level": null,
      "phone": "0968-53-0273",
      "license_no": "熊本県指令有保第食1-1-152号",
      "license_date": "2025-11-21",
      "expire_date": "2031-11-30"
    },
    {
      "name": "特産品センターなんかん（いきいき村）",
      "name_kana": "トクサンヒンセンターナンカン　イキイキムラ",
      "business_type": "㉙ 漬物製造業",
      "address": "熊本県玉名郡南関町関町４１９－１",
      "lat": 33.069421,
      "lng": 130.547737,
      "geocoding_level": null,
      "phone": "0968-53-0388",
      "license_no": "熊本県指令有保第食29-9号",
      "license_date": "2022-02-14",
      "expire_date": "2028-02-28"
    },
    {
      "name": "畑の天使",
      "name_kana": "ハタケノテンシ",
      "business_type": "㉙ 漬物製造業",
      "address": "熊本県玉名郡南関町関町桑津留４１９－１",
      "lat": 33.057199,
      "lng": 130.53942,
      "geocoding_level": null,
      "phone": "0968-53-2887",
      "license_no": "熊本県指令有保第食29-12号",
      "license_date": "2022-02-14",
      "expire_date": "2028-02-28"
    },
    {
      "name": "畑の天使",
      "name_kana": "ハタケノテンシ",
      "business_type": "⑪ 菓子製造業",
      "address": "熊本県玉名郡南関町関町419-1",
      "lat": 33.069421,
      "lng": 130.547737,
      "geocoding_level": null,
      "phone": "",
      "license_no": "熊本県指令有保第食11-8号",
      "license_date": "2023-08-04",
      "expire_date": "2029-08-31"
    },
    {
      "name": "畑の天使",
      "name_kana": "ハタケノテンシ",
      "business_type": "① 飲食店営業",
      "address": "熊本県玉名郡南関町関町419-1",
      "lat": 33.069421,
      "lng": 130.547737,
      "geocoding_level": null,
      "phone": "",
      "license_no": "熊本県指令有保第食1-1-77号",
      "license_date": "2023-08-04",
      "expire_date": "2029-08-31"
    },
    {
      "name": "畑の天使",
      "name_kana": "ハタケノテンシ",
      "business_type": "⑪ 菓子製造業",
      "address": "熊本県玉名郡南関町関町桑津留419-1",
      "lat": 33.057199,
      "lng": 130.53942,
      "geocoding_level": null,
      "phone": "0968-53-2887",
      "license_no": "熊本県指令有保第食11-21号",
      "license_date": "2025-02-05",
      "expire_date": "2031-02-28"
    },
    {
      "name": "ふる里手づくり惣菜",
      "name_kana": "フルサトテヅクリソウザイ",
      "business_type": "㉕ そうざい製造業",
      "address": "熊本県玉名郡南関町豊永4050",
      "lat": 33.032883,
      "lng": 130.558483,
      "geocoding_level": null,
      "phone": "0968-53-1157",
      "license_no": "熊本県指令有保第食25-13号",
      "license_date": "2022-03-23",
      "expire_date": "2028-05-31"
    },
    {
      "name": "デイサポートひまわり",
      "name_kana": "デイサポートヒマワリ",
      "business_type": "㉖ 集団給食施設",
      "address": "熊本県玉名郡南関町上坂下３０番地１",
      "lat": 33.014386,
      "lng": 130.553941,
      "geocoding_level": null,
      "phone": "0968577977",
      "license_no": "",
      "license_date": null,
      "expire_date": null
    },
    {
      "name": "麦の花",
      "name_kana": "ムギノハナ",
      "business_type": "⑬ その他の食料・飲料販売業",
      "address": "熊本県玉名郡南関町小原１８９０－１",
      "lat": 33.05106,
      "lng": 130.566107,
      "geocoding_level": null,
      "phone": "0968699585",
      "license_no": "",
      "license_date": null,
      "expire_date": null
    },
    {
      "name": "麦の花",
      "name_kana": "ムギノハナ",
      "business_type": "① 飲食店営業",
      "address": "熊本県玉名郡南関町小原１８９０－１",
      "lat": 33.05106,
      "lng": 130.566107,
      "geocoding_level": null,
      "phone": "0968-69-9585",
      "license_no": "熊本県指令有保第食1-1-147号",
      "license_date": "2025-11-21",
      "expire_date": "2031-11-30"
    },
    {
      "name": "カフェレストランmoto２",
      "name_kana": "カフェレストランモトツー",
      "business_type": "① 飲食店営業",
      "address": "熊本県玉名郡南関町小原１８７８－１",
      "lat": 33.049385,
      "lng": 130.557066,
      "geocoding_level": null,
      "phone": "０９６８５７８９２０",
      "license_no": "熊本県指令有保第食1-1-32号",
      "license_date": "2025-05-12",
      "expire_date": "2031-05-31"
    },
    {
      "name": "塩山食品株式会社",
      "name_kana": "シオヤマショクヒンカブシキガイシャ",
      "business_type": "㉒ 豆腐製造業",
      "address": "熊本県玉名郡南関町小原32-2",
      "lat": 33.04319,
      "lng": 130.572186,
      "geocoding_level": null,
      "phone": "0968530154",
      "license_no": "熊本県指令有保第食22-1号",
      "license_date": "2022-04-28",
      "expire_date": "2028-05-31"
    },
    {
      "name": "熊本工機(株)",
      "name_kana": "クマモトコウキカブ",
      "business_type": "⑤ コップ式自動販売機（自動洗浄・屋内設置）",
      "address": "熊本県玉名郡南関町四ッ原1280",
      "lat": 33.059858,
      "lng": 130.542726,
      "geocoding_level": null,
      "phone": "0968-53-9101",
      "license_no": "",
      "license_date": null,
      "expire_date": null
    },
    {
      "name": "焼鳥宗章",
      "name_kana": "ヤキトリソウショウ",
      "business_type": "① 飲食店営業",
      "address": "熊本県玉名郡南関町等（熊本県下一円）熊本480ひ7636",
      "lat": 32.943196,
      "lng": 130.599275,
      "geocoding_level": null,
      "phone": "",
      "license_no": "熊本県指令有保第食1-1-17号",
      "license_date": "2022-05-02",
      "expire_date": "2027-05-31"
    },
    {
      "name": "肴屋食堂　マルタカ",
      "name_kana": "サカナヤショクドウ　マルタカ",
      "business_type": "① 飲食店営業",
      "address": "熊本県玉名郡南関町下坂下116",
      "lat": 33.015359,
      "lng": 130.561719,
      "geocoding_level": null,
      "phone": "07054172976",
      "license_no": "熊本県指令有保第食1-1-41号",
      "license_date": "2022-06-03",
      "expire_date": "2028-08-31"
    },
    {
      "name": "功堂",
      "name_kana": "イサオドウ",
      "business_type": "① 飲食店営業",
      "address": "熊本県玉名郡南関町関東916-3",
      "lat": 33.067511,
      "lng": 130.548613,
      "geocoding_level": null,
      "phone": "0968536374",
      "license_no": "熊本県指令有保第食1-1-48号",
      "license_date": "2022-07-01",
      "expire_date": "2028-08-31"
    },
    {
      "name": "竹製麺所",
      "name_kana": "タケセイメンショ",
      "business_type": "㉔ 麺類製造業",
      "address": "熊本県玉名郡南関町関町1435",
      "lat": 33.05914,
      "lng": 130.541532,
      "geocoding_level": null,
      "phone": "0968-53-0107",
      "license_no": "熊本県指令有保第食24-2号",
      "license_date": "2022-08-05",
      "expire_date": "2028-08-31"
    },
    {
      "name": "株式会社髙口商店",
      "name_kana": "カブシキガイシャコウグチショウテン",
      "business_type": "② 食肉販売業（包装済みの食肉のみの販売）",
      "address": "熊本県玉名郡南関町相谷1056番地1",
      "lat": 33.041621,
      "lng": 130.582246,
      "geocoding_level": null,
      "phone": "0968532230",
      "license_no": "",
      "license_date": null,
      "expire_date": null
    },
    {
      "name": "株式会社髙口商店",
      "name_kana": "カブシキガイシャコウグチショウテン",
      "business_type": "③ 乳類販売業",
      "address": "熊本県玉名郡南関町相谷1056番地1",
      "lat": 33.041621,
      "lng": 130.582246,
      "geocoding_level": null,
      "phone": "0968532230",
      "license_no": "",
      "license_date": null,
      "expire_date": null
    },
    {
      "name": "株式会社髙口商店",
      "name_kana": "カブシキガイシャコウグチショウテン",
      "business_type": "⑦ 野菜果物販売業",
      "address": "熊本県玉名郡南関町相谷1056番地1",
      "lat": 33.041621,
      "lng": 130.582246,
      "geocoding_level": null,
      "phone": "0968532230",
      "license_no": "",
      "license_date": null,
      "expire_date": null
    },
    {
      "name": "株式会社髙口商店",
      "name_kana": "カブシキガイシャコウグチショウテン",
      "business_type": "⑬ その他の食料・飲料販売業",
      "address": "熊本県玉名郡南関町相谷1056番地1",
      "lat": 33.041621,
      "lng": 130.582246,
      "geocoding_level": null,
      "phone": "0968532230",
      "license_no": "",
      "license_date": null,
      "expire_date": null
    },
    {
      "name": "株式会社髙口商店",
      "name_kana": "カブシキガイシャコウグチショウテン",
      "business_type": "④ 魚介類販売業",
      "address": "熊本県玉名郡南関町相谷1056番地1",
      "lat": 33.041621,
      "lng": 130.582246,
      "geocoding_level": null,
      "phone": "0968532230",
      "license_no": "熊本県指令有保第食4-4号",
      "license_date": "2022-10-24",
      "expire_date": "2028-11-30"
    },
    {
      "name": "坂口製麺所",
      "name_kana": "サカグチセイメンショ",
      "business_type": "㉔ 麺類製造業",
      "address": "熊本県玉名郡南関町関村1017",
      "lat": 33.057563,
      "lng": 130.525431,
      "geocoding_level": null,
      "phone": "",
      "license_no": "熊本県指令有保第食24-3号",
      "license_date": "2022-12-01",
      "expire_date": "2028-11-30"
    },
    {
      "name": "綾田製麺所",
      "name_kana": "アヤタセイメンジョ",
      "business_type": "㉔ 麺類製造業",
      "address": "熊本県玉名郡南関町関村1140",
      "lat": 33.059276,
      "lng": 130.53745,
      "geocoding_level": null,
      "phone": "",
      "license_no": "熊本県指令有保第食24-4号",
      "license_date": "2022-12-01",
      "expire_date": "2028-11-30"
    },
    {
      "name": "BAUL",
      "name_kana": "バウル",
      "business_type": "① 飲食店営業",
      "address": "熊本県玉名郡南関町関村1384番地",
      "lat": 33.057563,
      "lng": 130.525431,
      "geocoding_level": null,
      "phone": "",
      "license_no": "熊本県指令有保第食1-1-170号",
      "license_date": "2022-11-02",
      "expire_date": "2028-11-30"
    },
    {
      "name": "BAUL",
      "name_kana": "バウル",
      "business_type": "⑪ 菓子製造業",
      "address": "熊本県玉名郡南関町関村1384番地",
      "lat": 33.057563,
      "lng": 130.525431,
      "geocoding_level": null,
      "phone": "",
      "license_no": "熊本県指令有保第食11-26号",
      "license_date": "2022-11-02",
      "expire_date": "2028-11-30"
    },
    {
      "name": "アロエの森",
      "name_kana": "アロエノモリ",
      "business_type": "① 飲食店営業",
      "address": "熊本県玉名郡南関町宮尾1357-113",
      "lat": 33.001111,
      "lng": 130.525431,
      "geocoding_level": null,
      "phone": "",
      "license_no": "熊本県指令有保第食1-1-213号",
      "license_date": "2023-03-01",
      "expire_date": "2029-02-28"
    },
    {
      "name": "まつお製麺",
      "name_kana": "マツオセイメン",
      "business_type": "㉔ 麺類製造業",
      "address": "熊本県玉名郡南関町上長田666-14",
      "lat": 33.026962,
      "lng": 130.529613,
      "geocoding_level": null,
      "phone": "0968-53-3771",
      "license_no": "熊本県指令有保第食24-8号",
      "license_date": "2023-03-01",
      "expire_date": "2029-02-28"
    },
    {
      "name": "田中製麺所",
      "name_kana": "タナカセイメンジョ",
      "business_type": "㉔ 麺類製造業",
      "address": "熊本県玉名郡南関町関東1134-1",
      "lat": 33.069865,
      "lng": 130.566107,
      "geocoding_level": null,
      "phone": "0968-53-0668",
      "license_no": "熊本県指令有保第食24-9号",
      "license_date": "2023-03-01",
      "expire_date": "2029-02-28"
    },