{
  "meta": {
    "updated": 1783906731,
    "sources": [
      {
        "source": "奈良県食品営業許可施設一覧（奈良市を除く）",
        "license": "奈良県（出典明示・利用規約に従う）"
      },
      {
        "source": "厚生労働省 食品衛生申請等システム（オープンデータ）",
        "license": "公共データ利用規約（第1.0版, PDL1.0）"
      }
    ]
  },
  "data": [
    {
      "name": "株式会社　食遊館",
      "name_kana": "",
      "business_type": "飲食店営業",
      "address": "天理市中町　４５７－２",
      "lat": 34.605119,
      "lng": 135.799362,
      "geocoding_level": 3,
      "phone": "0743-68-3155",
      "license_no": "第0101105号",
      "license_date": "2019-10-21",
      "expire_date": "2026-11-30"
    },
    {
      "name": "シンフォニア２　おひさま",
      "name_kana": "",
      "business_type": "飲食店営業",
      "address": "天理市三島町　４２５",
      "lat": 34.601441,
      "lng": 135.841117,
      "geocoding_level": 3,
      "phone": "",
      "license_no": "第0419278号",
      "license_date": "2019-12-04",
      "expire_date": "2026-11-30"
    },
    {
      "name": "魚輝水産　鮪船",
      "name_kana": "",
      "business_type": "飲食店営業",
      "address": "天理市別所町　１３７－１",
      "lat": 34.60978500000001,
      "lng": 135.836398,
      "geocoding_level": 3,
      "phone": "0743-69-6030",
      "license_no": "第0419279号",
      "license_date": "2019-12-05",
      "expire_date": "2026-11-30"
    },
    {
      "name": "天理餅",
      "name_kana": "",
      "business_type": "喫茶店営業",
      "address": "天理市三島町下五条　４０１",
      "lat": 34.601441,
      "lng": 135.841117,
      "geocoding_level": 3,
      "phone": "0743-62-0946",
      "license_no": "第0419282号",
      "license_date": "2019-12-12",
      "expire_date": "2026-11-30"
    },
    {
      "name": "ＮＩＧＩ（ニギ）",
      "name_kana": "",
      "business_type": "飲食店営業",
      "address": "天理市田井庄町　１２６－７",
      "lat": 34.598497,
      "lng": 135.82557400000002,
      "geocoding_level": 3,
      "phone": "",
      "license_no": "第0419288号",
      "license_date": "2019-12-24",
      "expire_date": "2026-11-30"
    },
    {
      "name": "パン工房　ＯＴＯ",
      "name_kana": "",
      "business_type": "飲食店営業",
      "address": "天理市川原城町　８６７",
      "lat": 34.600059086,
      "lng": 135.82921735,
      "geocoding_level": 8,
      "phone": "0743-63-1221",
      "license_no": "第0419296号",
      "license_date": "2020-01-14",
      "expire_date": "2026-11-30"
    },
    {
      "name": "焼肉　七福輪",
      "name_kana": "",
      "business_type": "飲食店営業",
      "address": "天理市稲葉町　６３－３",
      "lat": 34.592319,
      "lng": 135.804316,
      "geocoding_level": 3,
      "phone": "0743-64-2888",
      "license_no": "第0419301号",
      "license_date": "2020-01-15",
      "expire_date": "2026-11-30"
    },
    {
      "name": "ホテル　Ｂｏｒａ　Ｂｏｒａ",
      "name_kana": "",
      "business_type": "飲食店営業",
      "address": "天理市南六条町元六条方　９５",
      "lat": 34.596617,
      "lng": 135.837367,
      "geocoding_level": 2,
      "phone": "0743-64-1887",
      "license_no": "第0419336号",
      "license_date": "2020-03-05",
      "expire_date": "2026-11-30"
    },
    {
      "name": "天理焼肉　牛と鶏",
      "name_kana": "",
      "business_type": "飲食店営業",
      "address": "天理市川原城町　８８６　古川ビル１Ｆ　１０３",
      "lat": 34.599761248,
      "lng": 135.829081712,
      "geocoding_level": 8,
      "phone": "0743-62-1234",
      "license_no": "第0419345号",
      "license_date": "2020-03-13",
      "expire_date": "2026-11-30"
    },
    {
      "name": "ＬＩＴＴＬＥ＋ＣＡＦＥ",
      "name_kana": "",
      "business_type": "飲食店営業",
      "address": "天理市成願寺町　４３０－２",
      "lat": 34.569385,
      "lng": 135.841751,
      "geocoding_level": 3,
      "phone": "",
      "license_no": "第0419283号",
      "license_date": "2019-12-18",
      "expire_date": "2026-11-30"
    },
    {
      "name": "クッキングボーイ",
      "name_kana": "",
      "business_type": "飲食店営業",
      "address": "天理市川原城町　８１７　天理市ステーションストア内",
      "lat": 34.599518,
      "lng": 135.834639,
      "geocoding_level": 3,
      "phone": "0743-63-4364",
      "license_no": "第0419355号",
      "license_date": "2020-03-24",
      "expire_date": "2026-11-30"
    },
    {
      "name": "Ｃａｆｅ　Ｓａｍａｎａｌａ　Ｇａｒｄｅｎ",
      "name_kana": "",
      "business_type": "飲食店営業",
      "address": "天理市乙木町　６５１",
      "lat": 34.582046,
      "lng": 135.849938,
      "geocoding_level": 3,
      "phone": "",
      "license_no": "第0420001号",
      "license_date": "2020-04-02",
      "expire_date": "2026-11-30"
    },
    {
      "name": "げっか酒場",
      "name_kana": "",
      "business_type": "飲食店営業",
      "address": "天理市川原城町　６９２",
      "lat": 34.599842436,
      "lng": 135.832134195,
      "geocoding_level": 8,
      "phone": "0743-84-8841",
      "license_no": "第0420023号",
      "license_date": "2020-04-27",
      "expire_date": "2026-11-30"
    },
    {
      "name": "大和中華　長寿",
      "name_kana": "",
      "business_type": "飲食店営業",
      "address": "天理市川原城町　５３－３",
      "lat": 34.60080341300001,
      "lng": 135.833052641,
      "geocoding_level": 8,
      "phone": "0743-63-2981",
      "license_no": "第0420038号",
      "license_date": "2020-05-07",
      "expire_date": "2026-11-30"
    },
    {
      "name": "田楽　天理店",
      "name_kana": "",
      "business_type": "魚介類販売業",
      "address": "天理市三昧田町　１３５－１",
      "lat": 34.580928,
      "lng": 135.838148,
      "geocoding_level": 3,
      "phone": "0743-67-1415",
      "license_no": "第0420039号",
      "license_date": "2020-05-08",
      "expire_date": "2026-11-30"
    },
    {
      "name": "牛肉ＢＡＬ　ｐｌｏｔ",
      "name_kana": "",
      "business_type": "飲食店営業",
      "address": "天理市川原城町　２６７－１",
      "lat": 34.600832392,
      "lng": 135.833627857,
      "geocoding_level": 8,
      "phone": "0743-85-6129",
      "license_no": "第0420046号",
      "license_date": "2020-05-18",
      "expire_date": "2026-11-30"
    },
    {
      "name": "ＭＩＴＡＳＵ　ＣＡＦＥ",
      "name_kana": "",
      "business_type": "飲食店営業",
      "address": "天理市兵庫町　４３４－１　ステーションプラザ１階南側",
      "lat": 34.573332,
      "lng": 135.836528,
      "geocoding_level": 3,
      "phone": "0743-85-6881",
      "license_no": "第0419295号",
      "license_date": "2020-01-14",
      "expire_date": "2026-11-30"
    },
    {
      "name": "横丁ホルモン",
      "name_kana": "",
      "business_type": "飲食店営業",
      "address": "天理市田部町　１３８",
      "lat": 34.607304,
      "lng": 135.829955,
      "geocoding_level": 3,
      "phone": "0743-62-6533",
      "license_no": "第0420066号",
      "license_date": "2020-05-27",
      "expire_date": "2026-11-30"
    },
    {
      "name": "丸喜代精肉店",
      "name_kana": "",
      "business_type": "食肉販売業",
      "address": "天理市田部町　１３８",
      "lat": 34.607304,
      "lng": 135.829955,
      "geocoding_level": 3,
      "phone": "0743-62-3443",
      "license_no": "第0420067号",
      "license_date": "2020-05-27",
      "expire_date": "2026-11-30"
    },
    {
      "name": "かよさん",
      "name_kana": "",
      "business_type": "飲食店営業",
      "address": "天理市長柄町　１８０６－２",
      "lat": 34.572022,
      "lng": 135.828362,
      "geocoding_level": 3,
      "phone": "0743-66-3453",
      "license_no": "第0420076号",
      "license_date": "2020-06-04",
      "expire_date": "2026-11-30"
    },
    {
      "name": "Ｋ２",
      "name_kana": "",
      "business_type": "飲食店営業",
      "address": "天理市荒蒔町　３５７－２　ＮＥＷ２４５　１－２０２",
      "lat": 34.597909,
      "lng": 135.804787,
      "geocoding_level": 3,
      "phone": "0743-87-9979",
      "license_no": "第0420082号",
      "license_date": "2020-06-09",
      "expire_date": "2026-11-30"
    },
    {
      "name": "うなぎのみしまや",
      "name_kana": "",
      "business_type": "飲食店営業",
      "address": "天理市三島町　１２０",
      "lat": 34.601441,
      "lng": 135.841117,
      "geocoding_level": 3,
      "phone": "0743-62-0902",
      "license_no": "第0420084号",
      "license_date": "2020-06-10",
      "expire_date": "2026-11-30"
    },
    {
      "name": "餃子　たか寿み",
      "name_kana": "",
      "business_type": "飲食店営業",
      "address": "天理市川原城町　７２４",
      "lat": 34.599328565,
      "lng": 135.83264644500002,
      "geocoding_level": 8,
      "phone": "0743-63-4444",
      "license_no": "第0420089号",
      "license_date": "2020-06-11",
      "expire_date": "2026-11-30"
    },
    {
      "name": "Ｒａｂｂｉｔ　Ｇａｒｄｅｎ",
      "name_kana": "",
      "business_type": "飲食店営業",
      "address": "天理市前栽町　５６－５",
      "lat": 34.601808,
      "lng": 135.819802,
      "geocoding_level": 3,
      "phone": "0743-62-0229",
      "license_no": "第0420096号",
      "license_date": "2020-06-17",
      "expire_date": "2026-11-30"
    },
    {
      "name": "挽きこもるコーヒー",
      "name_kana": "",
      "business_type": "飲食店営業",
      "address": "天理市川原城町　３７４－１",
      "lat": 34.598938436,
      "lng": 135.836028282,
      "geocoding_level": 8,
      "phone": "",
      "license_no": "第0420104号",
      "license_date": "2020-06-29",
      "expire_date": "2026-11-30"
    },
    {
      "name": "魚処　乙弥",
      "name_kana": "",
      "business_type": "飲食店営業",
      "address": "天理市稲葉町　８７",
      "lat": 34.592319,
      "lng": 135.804316,
      "geocoding_level": 3,
      "phone": "",
      "license_no": "第0420111号",
      "license_date": "2020-07-06",
      "expire_date": "2026-11-30"
    },
    {
      "name": "魚処　乙弥",
      "name_kana": "",
      "business_type": "魚介類販売業",
      "address": "天理市稲葉町　８７",
      "lat": 34.592319,
      "lng": 135.804316,
      "geocoding_level": 3,
      "phone": "",
      "license_no": "第0420112号",
      "license_date": "2020-07-06",
      "expire_date": "2026-11-30"
    },
    {
      "name": "ホッとカフェ　紬",
      "name_kana": "",
      "business_type": "飲食店営業",
      "address": "天理市三島町　１５４－７　ＹＡＭＡＴＯビル１０１号",
      "lat": 34.602658136,
      "lng": 135.837784608,
      "geocoding_level": 8,
      "phone": "0743-89-2121",
      "license_no": "第0420117号",
      "license_date": "2020-07-09",
      "expire_date": "2026-11-30"
    },
    {
      "name": "おみちゃんの台湾唐揚げ",
      "name_kana": "",
      "business_type": "そうざい製造業",
      "address": "天理市三島町　１５４－７　ＹＡＭＡＴＯビル１０１号",
      "lat": 34.602658136,
      "lng": 135.837784608,
      "geocoding_level": 8,
      "phone": "0743-89-2121",
      "license_no": "第0420119号",
      "license_date": "2020-07-09",
      "expire_date": "2026-11-30"
    },
    {
      "name": "セブン・イレブン天理インター店",
      "name_kana": "",
      "business_type": "飲食店営業",
      "address": "天理市櫟本町　３１３１－１",
      "lat": 34.619672,
      "lng": 135.827452,
      "geocoding_level": 3,
      "phone": "0743-65-5095",
      "license_no": "第0420121号",
      "license_date": "2020-07-09",
      "expire_date": "2026-11-30"
    },
    {
      "name": "セブン・イレブン天理インター店",
      "name_kana": "",
      "business_type": "魚介類販売業",
      "address": "天理市櫟本町　３１３１－１",
      "lat": 34.619672,
      "lng": 135.827452,
      "geocoding_level": 3,
      "phone": "0743-65-5095",
      "license_no": "第0420122号",
      "license_date": "2020-07-09",
      "expire_date": "2026-11-30"
    },
    {
      "name": "セブン・イレブン天理インター店",
      "name_kana": "",
      "business_type": "食肉販売業",
      "address": "天理市櫟本町　３１３１－１",
      "lat": 34.619672,
      "lng": 135.827452,
      "geocoding_level": 3,
      "phone": "0743-65-5095",
      "license_no": "第0420124号",
      "license_date": "2020-07-09",
      "expire_date": "2026-11-30"
    },
    {
      "name": "ローソン　天理田部町店",
      "name_kana": "",
      "business_type": "飲食店営業",
      "address": "天理市田部町　５３２－２",
      "lat": 34.607304,
      "lng": 135.829955,
      "geocoding_level": 3,
      "phone": "0743-62-6417",
      "license_no": "第0420130号",
      "license_date": "2020-07-10",
      "expire_date": "2026-11-30"
    },
    {
      "name": "ｃｈｉ－ｎｅｒｕ",
      "name_kana": "",
      "business_type": "飲食店営業",
      "address": "天理市川原城町　１１３",
      "lat": 34.599518,
      "lng": 135.834639,
      "geocoding_level": 3,
      "phone": "",
      "license_no": "第0420156号",
      "license_date": "2020-08-12",
      "expire_date": "2026-11-30"
    },
    {
      "name": "ＰｒａｙｅｒＳ～ｉ－ｈｉ～",
      "name_kana": "",
      "business_type": "飲食店営業",
      "address": "天理市兵庫町　４３４－１　ステーションプラザ２階北側",
      "lat": 34.573332,
      "lng": 135.836528,
      "geocoding_level": 3,
      "phone": "",
      "license_no": "第0420163号",
      "license_date": "2020-08-24",
      "expire_date": "2026-11-30"
    },
    {
      "name": "ティールーム・ジョニーアップルシード",
      "name_kana": "",
      "business_type": "飲食店営業",
      "address": "天理市川原城町　４８２－３",
      "lat": 34.599695194,
      "lng": 135.837797759,
      "geocoding_level": 8,
      "phone": "0743-63-4392",
      "license_no": "第0101474号",
      "license_date": "2020-09-18",
      "expire_date": "2026-11-30"
    },
    {
      "name": "天理市職員互助会　喫茶　中村",
      "name_kana": "",
      "business_type": "飲食店営業",
      "address": "天理市川原城町　６０５　天理市役所１Ｆ",
      "lat": 34.597117709,
      "lng": 135.836421652,
      "geocoding_level": 8,
      "phone": "0743-63-1001",
      "license_no": "第0420185号",
      "license_date": "2020-09-23",
      "expire_date": "2026-11-30"
    },
    {
      "name": "たかまる",
      "name_kana": "",
      "business_type": "飲食店営業",
      "address": "天理市川原城町　３２５",
      "lat": 34.599518,
      "lng": 135.834639,
      "geocoding_level": 3,
      "phone": "0743-62-0471",
      "license_no": "第0186437号",
      "license_date": "2020-09-23",
      "expire_date": "2026-11-30"
    },
    {
      "name": "大隅商店",
      "name_kana": "",
      "business_type": "飲食店営業",
      "address": "天理市勾田町　２３２－１",
      "lat": 34.589717,
      "lng": 135.838151,
      "geocoding_level": 3,
      "phone": "0743-63-0496",
      "license_no": "第0186327号",
      "license_date": "2020-09-23",
      "expire_date": "2026-11-30"
    },
    {
      "name": "ファミリーマート　天理勾田町店",
      "name_kana": "",
      "business_type": "飲食店営業",
      "address": "天理市勾田町　８０－１",
      "lat": 34.589717,
      "lng": 135.838151,
      "geocoding_level": 3,
      "phone": "0743-69-6135",
      "license_no": "第0408055号",
      "license_date": "2020-09-23",
      "expire_date": "2026-11-30"
    },
    {
      "name": "ファミリーマート　天理勾田町店",
      "name_kana": "",
      "business_type": "魚介類販売業",
      "address": "天理市勾田町　８０－１",
      "lat": 34.589717,
      "lng": 135.838151,
      "geocoding_level": 3,
      "phone": "0743-69-6135",
      "license_no": "第0408056号",
      "license_date": "2020-09-23",
      "expire_date": "2026-11-30"
    },
    {
      "name": "ファミリーマート　天理勾田町店",
      "name_kana": "",
      "business_type": "食肉販売業",
      "address": "天理市勾田町　８０－１",
      "lat": 34.589717,
      "lng": 135.838151,
      "geocoding_level": 3,
      "phone": "0743-69-6135",
      "license_no": "第0408058号",
      "license_date": "2020-09-23",
      "expire_date": "2026-11-30"
    },
    {
      "name": "杉田果物店",
      "name_kana": "",
      "business_type": "飲食店営業",
      "address": "天理市川原城町　３２６－１",
      "lat": 34.599849044,
      "lng": 135.835440891,
      "geocoding_level": 8,
      "phone": "0743-62-0075",
      "license_no": "第0408325号",
      "license_date": "2020-09-23",
      "expire_date": "2026-11-30"
    },
    {
      "name": "居酒屋　遊",
      "name_kana": "",
      "business_type": "飲食店営業",
      "address": "天理市川原城町　３４１－１",
      "lat": 34.598645429,
      "lng": 135.834504976,
      "geocoding_level": 8,
      "phone": "0743-63-6288",
      "license_no": "第0195612号",
      "license_date": "2020-09-23",
      "expire_date": "2026-11-30"
    },
    {
      "name": "喫茶　モカ",
      "name_kana": "",
      "business_type": "飲食店営業",
      "address": "天理市川原城町　７０７",
      "lat": 34.599216332,
      "lng": 135.832201308,
      "geocoding_level": 8,
      "phone": "0743-63-4909",
      "license_no": "第0186469号",
      "license_date": "2020-09-23",
      "expire_date": "2026-11-30"
    },
    {
      "name": "フレッシュ　やまだ",
      "name_kana": "",
      "business_type": "飲食店営業",
      "address": "天理市川原城町　８９２",
      "lat": 34.599760438,
      "lng": 135.829433806,
      "geocoding_level": 8,
      "phone": "0743-62-0617",
      "license_no": "第0186477号",
      "license_date": "2020-09-23",
      "expire_date": "2026-11-30"
    },
    {
      "name": "フレッシュ　やまだ",
      "name_kana": "",
      "business_type": "魚介類販売業",
      "address": "天理市川原城町　８９２",
      "lat": 34.599760438,
      "lng": 135.829433806,
      "geocoding_level": 8,
      "phone": "0743-62-0617",
      "license_no": "第0186478号",
      "license_date": "2020-09-23",
      "expire_date": "2026-11-30"
    },
    {
      "name": "フレッシュ　やまだ",
      "name_kana": "",
      "business_type": "食肉販売業",
      "address": "天理市川原城町　８９２",
      "lat": 34.599760438,
      "lng": 135.829433806,
      "geocoding_level": 8,
      "phone": "0743-62-0617",
      "license_no": "第0186480号",
      "license_date": "2020-09-23",
      "expire_date": "2026-11-30"
    },
    {
      "name": "９８　ｗｅｓｔ",
      "name_kana": "",
      "business_type": "飲食店営業",
      "address": "天理市川原城町　８８６　古川ビル　２０３",
      "lat": 34.599761248,
      "lng": 135.829081712,
      "geocoding_level": 8,
      "phone": "0743-25-5893",
      "license_no": "第0413219号",
      "license_date": "2020-09-23",
      "expire_date": "2026-11-30"
    },
    {
      "name": "ファミリーマート　天理川原城店",
      "name_kana": "",
      "business_type": "飲食店営業",
      "address": "天理市川原城町　７６０－１",
      "lat": 34.596948782,
      "lng": 135.832663136,
      "geocoding_level": 8,
      "phone": "0743-68-1130",
      "license_no": "第0414166号",
      "license_date": "2020-09-23",
      "expire_date": "2026-11-30"
    },
    {
      "name": "ファミリーマート　天理川原城店",
      "name_kana": "",
      "business_type": "魚介類販売業",
      "address": "天理市川原城町　７６０－１",
      "lat": 34.596948782,
      "lng": 135.832663136,
      "geocoding_level": 8,
      "phone": "0743-68-1130",
      "license_no": "第0414167号",
      "license_date": "2020-09-23",
      "expire_date": "2026-11-30"
    },
    {
      "name": "ファミリーマート　天理川原城店",
      "name_kana": "",
      "business_type": "食肉販売業",
      "address": "天理市川原城町　７６０－１",
      "lat": 34.596948782,
      "lng": 135.832663136,
      "geocoding_level": 8,
      "phone": "0743-68-1130",
      "license_no": "第0414169号",
      "license_date": "2020-09-23",
      "expire_date": "2026-11-30"
    },
    {
      "name": "なかよし",
      "name_kana": "",
      "business_type": "飲食店営業",
      "address": "天理市川原城町　１３３－１　大城ビル",
      "lat": 34.599094791,
      "lng": 135.8329743,
      "geocoding_level": 8,
      "phone": "0743-63-4995",
      "license_no": "第0186416号",
      "license_date": "2020-09-24",
      "expire_date": "2026-11-30"
    },
    {
      "name": "会員制倶楽部　土俵",
      "name_kana": "",
      "business_type": "飲食店営業",
      "address": "天理市西長柄町　１５５",
      "lat": 34.57192,
      "lng": 135.821896,
      "geocoding_level": 3,
      "phone": "0743-67-1451",
      "license_no": "第0186396号",
      "license_date": "2020-09-24",
      "expire_date": "2026-11-30"
    },
    {
      "name": "鮨　てん寿",
      "name_kana": "",
      "business_type": "飲食店営業",
      "address": "天理市川原城本町　１１７",
      "lat": 34.599518,
      "lng": 135.834639,
      "geocoding_level": 3,
      "phone": "0743-62-0620",
      "license_no": "第0186488号",
      "license_date": "2020-09-24",
      "expire_date": "2026-11-30"
    },
    {
      "name": "ナイトラウンジ　沙蘭",
      "name_kana": "",
      "business_type": "飲食店営業",
      "address": "天理市岩室町　４６－４　リバーサイド１００－２０３",
      "lat": 34.593747,
      "lng": 135.812111,
      "geocoding_level": 3,
      "phone": "0743-63-1770",
      "license_no": "第0186316号",
      "license_date": "2020-09-24",
      "expire_date": "2026-11-30"
    },
    {
      "name": "喫茶　るんるん",
      "name_kana": "",
      "business_type": "飲食店営業",
      "address": "天理市庵治町　２６",
      "lat": 34.581956,
      "lng": 135.793285,
      "geocoding_level": 3,
      "phone": "0743-64-3135",
      "license_no": "第0186287号",
      "license_date": "2020-09-24",
      "expire_date": "2026-11-30"
    },
    {
      "name": "智",
      "name_kana": "",
      "business_type": "飲食店営業",
      "address": "天理市川原城町　７２３　大城ビル１Ｆ",
      "lat": 34.599428484,
      "lng": 135.832616274,
      "geocoding_level": 8,
      "phone": "0743-63-2320",
      "license_no": "第0186420号",
      "license_date": "2020-09-24",
      "expire_date": "2026-11-30"
    },
    {
      "name": "東大門",
      "name_kana": "",
      "business_type": "飲食店営業",
      "address": "天理市川原城町　６９８－１　天理駅前第２ビル２Ｆ",
      "lat": 34.599518,
      "lng": 135.834639,
      "geocoding_level": 3,
      "phone": "0743-69-4661",
      "license_no": "第0101433号",
      "license_date": "2020-09-25",
      "expire_date": "2026-11-30"
    },
    {
      "name": "豚菜館",
      "name_kana": "",
      "business_type": "飲食店営業",
      "address": "天理市二階堂上ノ庄町　２４－６",
      "lat": 34.598804,
      "lng": 135.799351,
      "geocoding_level": 3,
      "phone": "0743-64-2983",
      "license_no": "第0186545号",
      "license_date": "2020-09-28",
      "expire_date": "2026-11-30"
    },
    {
      "name": "おべんとう工房　にしだ",
      "name_kana": "",
      "business_type": "飲食店営業",
      "address": "天理市田部町　５１７",
      "lat": 34.607304,
      "lng": 135.829955,
      "geocoding_level": 3,
      "phone": "0743-63-4418",
      "license_no": "第0420199号",
      "license_date": "2020-09-29",
      "expire_date": "2026-11-30"
    },
    {
      "name": "はなみち　天理店",
      "name_kana": "",
      "business_type": "飲食店営業",
      "address": "天理市嘉幡町　５９２－１",
      "lat": 34.589665,
      "lng": 135.797859,
      "geocoding_level": 3,
      "phone": "0743-64-1811",
      "license_no": "第0420200号",
      "license_date": "2020-09-29",
      "expire_date": "2026-11-30"
    },
    {
      "name": "食房　笹乃雫",
      "name_kana": "",
      "business_type": "飲食店営業",
      "address": "天理市勾田町　８２－３",
      "lat": 34.589717,
      "lng": 135.838151,
      "geocoding_level": 3,
      "phone": "0743-63-3318",
      "license_no": "第0407259号",
      "license_date": "2020-09-29",
      "expire_date": "2026-11-30"
    },
    {
      "name": "中華料理　味美",
      "name_kana": "",
      "business_type": "飲食店営業",
      "address": "天理市川原城町　７２４　岡田ビル１Ｆ",
      "lat": 34.599328565,
      "lng": 135.83264644500002,
      "geocoding_level": 8,
      "phone": "0743-62-3515",
      "license_no": "第0414243号",
      "license_date": "2020-09-30",
      "expire_date": "2026-11-30"
    },
    {
      "name": "ひとやすみ　徹朋",
      "name_kana": "",
      "business_type": "飲食店営業",
      "address": "天理市岸田町　５８２",
      "lat": 34.564068634,
      "lng": 135.841272013,
      "geocoding_level": 8,
      "phone": "",
      "license_no": "第0413285号",
      "license_date": "2020-09-30",
      "expire_date": "2026-11-30"
    },
    {
      "name": "村井酒店",
      "name_kana": "",
      "business_type": "魚介類販売業",
      "address": "天理市蔵之庄町　２３２",
      "lat": 34.63263,
      "lng": 135.826598,
      "geocoding_level": 3,
      "phone": "0743-65-0195",
      "license_no": "第0185819号",
      "license_date": "2020-09-30",
      "expire_date": "2026-11-30"
    },
    {
      "name": "村井酒店",
      "name_kana": "",
      "business_type": "食肉販売業",
      "address": "天理市蔵之庄町　２３２",
      "lat": 34.63263,
      "lng": 135.826598,
      "geocoding_level": 3,
      "phone": "0743-65-0195",
      "license_no": "第0185820号",
      "license_date": "2020-09-30",
      "expire_date": "2026-11-30"
    },
    {
      "name": "華章園",
      "name_kana": "",
      "business_type": "飲食店営業",
      "address": "天理市渋谷町　４０２－１",
      "lat": 34.552489,
      "lng": 135.854741,
      "geocoding_level": 3,
      "phone": "0743-66-3675",
      "license_no": "第0186883号",
      "license_date": "2020-09-30",
      "expire_date": "2026-11-30"
    },
    {
      "name": "（有）グリーンガーデン　喫茶部",
      "name_kana": "",
      "business_type": "飲食店営業",
      "address": "天理市二階堂上ノ庄町　３３４－１",
      "lat": 34.598804,
      "lng": 135.799351,
      "geocoding_level": 3,
      "phone": "0743-64-0441",
      "license_no": "第0186546号",
      "license_date": "2020-09-30",
      "expire_date": "2026-11-30"
    },
    {
      "name": "ジグザグ",
      "name_kana": "",
      "business_type": "飲食店営業",
      "address": "天理市西長柄町　４４２",
      "lat": 34.57192,
      "lng": 135.821896,
      "geocoding_level": 3,
      "phone": "0743-67-0444",
      "license_no": "第0186406号",
      "license_date": "2020-09-30",
      "expire_date": "2026-11-30"
    },
    {
      "name": "ｐａｓｔａ＋ｂｒｅａｄ　ｎｉｔｏｔｏ",
      "name_kana": "",
      "business_type": "飲食店営業",
      "address": "天理市西長柄町　８７",
      "lat": 34.57192,
      "lng": 135.821896,
      "geocoding_level": 3,
      "phone": "0743-67-2388",
      "license_no": "第0414177号",
      "license_date": "2020-09-30",
      "expire_date": "2026-11-30"
    },
    {
      "name": "大和高原サービス",
      "name_kana": "",
      "business_type": "食肉処理業",
      "address": "天理市福住町　２７７３",
      "lat": 34.61232,
      "lng": 135.914051,
      "geocoding_level": 3,
      "phone": "0743-69-2700",
      "license_no": "第0408186号",
      "license_date": "2020-09-30",
      "expire_date": "2026-11-30"
    },
    {
      "name": "大和高原サービス",
      "name_kana": "",
      "business_type": "食肉販売業",
      "address": "天理市福住町　２７７３",
      "lat": 34.61232,
      "lng": 135.914051,
      "geocoding_level": 3,
      "phone": "0743-69-2700",
      "license_no": "第0408187号",
      "license_date": "2020-09-30",
      "expire_date": "2026-11-30"
    },
    {
      "name": "かも鍋　福住",
      "name_kana": "",
      "business_type": "飲食店営業",
      "address": "天理市福住町　５６４５－１",
      "lat": 34.61232,
      "lng": 135.914051,
      "geocoding_level": 3,
      "phone": "0743-69-2521",
      "license_no": "第0414267号",
      "license_date": "2020-09-30",
      "expire_date": "2026-11-30"
    },
    {
      "name": "藤川うどん屋",
      "name_kana": "",
      "business_type": "飲食店営業",
      "address": "天理市勾田町　２２２－５",
      "lat": 34.589717,
      "lng": 135.838151,
      "geocoding_level": 3,
      "phone": "0743-62-1764",
      "license_no": "第0408310号",
      "license_date": "2020-09-30",
      "expire_date": "2026-11-30"
    },
    {
      "name": "オリエント",
      "name_kana": "",
      "business_type": "飲食店営業",
      "address": "天理市三島町　３６９",
      "lat": 34.601441,
      "lng": 135.841117,
      "geocoding_level": 3,
      "phone": "0743-62-3200",
      "license_no": "第0420201号",
      "license_date": "2020-10-01",
      "expire_date": "2026-11-30"
    },
    {
      "name": "ドトールコーヒーショップ　高井病院店",
      "name_kana": "",
      "business_type": "飲食店営業",
      "address": "天理市蔵之庄町　４６１－２",
      "lat": 34.63263,
      "lng": 135.826598,
      "geocoding_level": 3,
      "phone": "0743-65-2199",
      "license_no": "第0414161号",
      "license_date": "2020-10-01",
      "expire_date": "2026-11-30"
    },
    {
      "name": "あきひろ亭",
      "name_kana": "",
      "business_type": "飲食店営業",
      "address": "天理市前栽町　４７－１",
      "lat": 34.601808,
      "lng": 135.819802,
      "geocoding_level": 3,
      "phone": "0743-62-3188",
      "license_no": "第0196305号",
      "license_date": "2020-10-01",
      "expire_date": "2026-11-30"
    },
    {
      "name": "ライムライト",
      "name_kana": "",
      "business_type": "飲食店営業",
      "address": "天理市豊井町　１４９－１",
      "lat": 34.604656,
      "lng": 135.856789,
      "geocoding_level": 3,
      "phone": "0743-63-2630",
      "license_no": "第0186593号",
      "license_date": "2020-10-01",
      "expire_date": "2026-11-30"
    },
    {
      "name": "カラオケ　志園",
      "name_kana": "",
      "business_type": "飲食店営業",
      "address": "天理市福住町　３９８７－５",
      "lat": 34.61232,
      "lng": 135.914051,
      "geocoding_level": 3,
      "phone": "0743-69-2123",
      "license_no": "第0186569号",
      "license_date": "2020-10-01",
      "expire_date": "2026-11-30"
    },
    {
      "name": "味処　芹",
      "name_kana": "",
      "business_type": "飲食店営業",
      "address": "天理市福住町　９３４６－１",
      "lat": 34.61232,
      "lng": 135.914051,
      "geocoding_level": 3,
      "phone": "0743-69-2728",
      "license_no": "第0413324号",
      "license_date": "2020-10-01",
      "expire_date": "2026-11-30"
    },
    {
      "name": "ほりかわ",
      "name_kana": "",
      "business_type": "飲食店営業",
      "address": "天理市西井戸堂町　２６７－６",
      "lat": 34.58589,
      "lng": 135.816656,
      "geocoding_level": 3,
      "phone": "0743-63-2234",
      "license_no": "第0402336号",
      "license_date": "2020-10-01",
      "expire_date": "2026-11-30"
    },
    {
      "name": "株式会社大一電化社",
      "name_kana": "",
      "business_type": "飲食店営業",
      "address": "天理市杣之内町　１０５０",
      "lat": 34.591928,
      "lng": 135.850883,
      "geocoding_level": 3,
      "phone": "0743-62-2164",
      "license_no": "第0420205号",
      "license_date": "2020-10-02",
      "expire_date": "2026-11-30"
    },
    {
      "name": "ブーランジュリ　プチ　ブーケ",
      "name_kana": "",
      "business_type": "飲食店営業",
      "address": "天理市二階堂上ノ庄町　５０－１",
      "lat": 34.598804,
      "lng": 135.799351,
      "geocoding_level": 3,
      "phone": "0743-64-5051",
      "license_no": "第0408120号",
      "license_date": "2020-10-05",
      "expire_date": "2026-11-30"
    },
    {
      "name": "たぬき亭",
      "name_kana": "",
      "business_type": "飲食店営業",
      "address": "天理市田井庄町　５２９",
      "lat": 34.598497,
      "lng": 135.82557400000002,
      "geocoding_level": 3,
      "phone": "0743-62-7831",
      "license_no": "第0196317号",
      "license_date": "2020-10-06",
      "expire_date": "2026-11-30"
    },
    {
      "name": "株式会社　奈良コープ産業",
      "name_kana": "",
      "business_type": "飲食店営業",
      "address": "天理市荒蒔町　９６－１",
      "lat": 34.597909,
      "lng": 135.804787,
      "geocoding_level": 3,
      "phone": "0743-64-3900",
      "license_no": "第0185978号",
      "license_date": "2020-10-07",
      "expire_date": "2026-11-30"
    },
    {
      "name": "株式会社　奈良コープ産業",
      "name_kana": "",
      "business_type": "魚介類販売業",
      "address": "天理市荒蒔町　９６－１",
      "lat": 34.597909,
      "lng": 135.804787,
      "geocoding_level": 3,
      "phone": "0743-64-3900",
      "license_no": "第0185980号",
      "license_date": "2020-10-07",
      "expire_date": "2026-11-30"
    },
    {
      "name": "株式会社　奈良コープ産業",
      "name_kana": "",
      "business_type": "そうざい製造業",
      "address": "天理市荒蒔町　９６－１",
      "lat": 34.597909,
      "lng": 135.804787,
      "geocoding_level": 3,
      "phone": "0743-64-3900",
      "license_no": "第0185981号",
      "license_date": "2020-10-07",
      "expire_date": "2026-11-30"
    },
    {
      "name": "鶴寿司",
      "name_kana": "",
      "business_type": "飲食店営業",
      "address": "天理市富堂町　３０５－７",
      "lat": 34.595596,
      "lng": 135.819836,
      "geocoding_level": 3,
      "phone": "0743-63-2248",
      "license_no": "第0186559号",
      "license_date": "2020-10-07",
      "expire_date": "2026-11-30"
    },
    {
      "name": "肉匠　迎賓館",
      "name_kana": "",
      "business_type": "飲食店営業",
      "address": "天理市勾田町　１１５－１",
      "lat": 34.589717,
      "lng": 135.838151,
      "geocoding_level": 3,
      "phone": "0743-63-0029",
      "license_no": "第0413320号",
      "license_date": "2020-10-07",
      "expire_date": "2026-11-30"
    },
    {
      "name": "セブンイレブン　天理庵治町店",
      "name_kana": "",
      "business_type": "飲食店営業",
      "address": "天理市庵治町　１９０－１",
      "lat": 34.581956,
      "lng": 135.793285,
      "geocoding_level": 3,
      "phone": "0743-64-5556",
      "license_no": "第0407276号",
      "license_date": "2020-10-08",
      "expire_date": "2026-11-30"
    },
    {
      "name": "セブンイレブン　天理庵治町店",
      "name_kana": "",
      "business_type": "魚介類販売業",
      "address": "天理市庵治町　１９０－１",
      "lat": 34.581956,
      "lng": 135.793285,
      "geocoding_level": 3,
      "phone": "0743-64-5556",
      "license_no": "第0407278号",
      "license_date": "2020-10-08",
      "expire_date": "2026-11-30"
    },
    {
      "name": "セブンイレブン　天理庵治町店",
      "name_kana": "",
      "business_type": "食肉販売業",
      "address": "天理市庵治町　１９０－１",
      "lat": 34.581956,
      "lng": 135.793285,
      "geocoding_level": 3,
      "phone": "0743-64-5556",
      "license_no": "第0407277号",
      "license_date": "2020-10-08",
      "expire_date": "2026-11-30"
    },
    {
      "name": "小西商店",
      "name_kana": "",
      "business_type": "魚介類販売業",
      "address": "天理市山田町　１０６７－２",
      "lat": 34.628658,
      "lng": 135.929874,
      "geocoding_level": 3,
      "phone": "0743-69-2827",
      "license_no": "第0186370号",
      "license_date": "2020-10-08",
      "expire_date": "2026-11-30"
    },
    {
      "name": "小西商店",
      "name_kana": "",
      "business_type": "食肉販売業",
      "address": "天理市山田町　１０６７－２",
      "lat": 34.628658,
      "lng": 135.929874,
      "geocoding_level": 3,
      "phone": "0743-69-2827",
      "license_no": "第0186371号",
      "license_date": "2020-10-08",
      "expire_date": "2026-11-30"
    },
    {
      "name": "とりでん天理店",
      "name_kana": "",
      "business_type": "飲食店営業",
      "address": "天理市別所町　１５",
      "lat": 34.60978500000001,
      "lng": 135.836398,
      "geocoding_level": 3,
      "phone": "0743-69-5594",
      "license_no": "第0420210号",
      "license_date": "2020-10-09",
      "expire_date": "2026-11-30"
    },
    {
      "name": "とりでん天理店",
      "name_kana": "",
      "business_type": "食肉販売業",
      "address": "天理市別所町　１５",
      "lat": 34.60978500000001,
      "lng": 135.836398,
      "geocoding_level": 3,
      "phone": "0743-69-5594",
      "license_no": "第0420211号",
      "license_date": "2020-10-09",
      "expire_date": "2026-11-30"
    },
    {
      "name": "関西梱包株式会社",
      "name_kana": "",
      "business_type": "麺類製造業",
      "address": "天理市庵治町　８２１番地１",
      "lat": 34.581956,
      "lng": 135.793285,
      "geocoding_level": 3,
      "phone": "0743-68-3660",
      "license_no": "第0420218号",
      "license_date": "2020-10-13",
      "expire_date": "2026-11-30"
    },
    {
      "name": "旬彩酒肴　よか楼",
      "name_kana": "",
      "business_type": "飲食店営業",
      "address": "天理市川原城町　７０３　ふじやビル１Ｆ",
      "lat": 34.599653962,
      "lng": 135.832190544,
      "geocoding_level": 8,
      "phone": "0743-69-6776",
      "license_no": "第0101470号",
      "license_date": "2020-10-13",
      "expire_date": "2026-11-30"
    },
    {
      "name": "（株）柿の葉ずしヤマト",
      "name_kana": "",
      "business_type": "飲食店営業",
      "address": "天理市三昧田町　９０－１",
      "lat": 34.580928,
      "lng": 135.838148,
      "geocoding_level": 3,
      "phone": "0743-63-8010",
      "license_no": "第0186366号",
      "license_date": "2020-10-13",
      "expire_date": "2026-11-30"
    },
    {
      "name": "田楽　天理店",
      "name_kana": "",
      "business_type": "飲食店営業",
      "address": "天理市三昧田町　１３５－１",
      "lat": 34.580928,
      "lng": 135.838148,
      "geocoding_level": 3,
      "phone": "0743-67-1415",
      "license_no": "第0196224号",
      "license_date": "2020-10-14",
      "expire_date": "2026-11-30"
    },
    {
      "name": "みなみ",
      "name_kana": "",
      "business_type": "飲食店営業",
      "address": "天理市二階堂上ノ庄　２３－３",
      "lat": 34.598804,
      "lng": 135.799351,
      "geocoding_level": 3,
      "phone": "0743-64-2241",
      "license_no": "第0402138号",
      "license_date": "2020-10-15",
      "expire_date": "2026-11-30"
    },
    {
      "name": "ハーベストネクスト株式会社",
      "name_kana": "",
      "business_type": "飲食店営業",
      "address": "天理市二階堂上ノ庄町　２１０－１",
      "lat": 34.598804,
      "lng": 135.799351,
      "geocoding_level": 3,
      "phone": "",
      "license_no": "第0414174号",
      "license_date": "2020-10-16",
      "expire_date": "2026-11-30"
    },
    {
      "name": "新立亭",
      "name_kana": "",
      "business_type": "飲食店営業",
      "address": "天理市川原城町　３２６",
      "lat": 34.599518,
      "lng": 135.834639,
      "geocoding_level": 3,
      "phone": "0743-62-0206",
      "license_no": "第0420229号",
      "license_date": "2020-10-22",
      "expire_date": "2026-11-30"
    },
    {
      "name": "Ｒｅｓｔ＆ＫＡＲＡＯＫＥ銀杏",
      "name_kana": "",
      "business_type": "飲食店営業",
      "address": "天理市柳本町　７０２－２",
      "lat": 34.555738,
      "lng": 135.847709,
      "geocoding_level": 3,
      "phone": "0743-66-1711",
      "license_no": "第0403249号",
      "license_date": "2020-10-27",
      "expire_date": "2026-11-30"
    },
    {
      "name": "紀ノ国屋",
      "name_kana": "",
      "business_type": "豆腐製造業",
      "address": "天理市柳本町　２０２６－５",
      "lat": 34.555738,
      "lng": 135.847709,
      "geocoding_level": 3,
      "phone": "0743-66-2547",
      "license_no": "第0186896号",
      "license_date": "2020-10-27",
      "expire_date": "2026-11-30"
    },
    {
      "name": "ローソン　天理田部町店",
      "name_kana": "",
      "business_type": "魚介類販売業",
      "address": "天理市田部町　５３２－２",
      "lat": 34.607304,
      "lng": 135.829955,
      "geocoding_level": 3,
      "phone": "0743-62-6417",
      "license_no": "第0408335号",
      "license_date": "2020-10-01",
      "expire_date": "2026-11-30"
    },
    {
      "name": "ローソン　天理田部町店",
      "name_kana": "",
      "business_type": "食肉販売業",
      "address": "天理市田部町　５３２－２",
      "lat": 34.607304,
      "lng": 135.829955,
      "geocoding_level": 3,
      "phone": "0743-62-6417",
      "license_no": "第0408334号",
      "license_date": "2020-10-01",
      "expire_date": "2026-11-30"
    },
    {
      "name": "有限会社　オクトパス",
      "name_kana": "",
      "business_type": "飲食店営業",
      "address": "天理市田部町　５３８",
      "lat": 34.607304,
      "lng": 135.829955,
      "geocoding_level": 3,
      "phone": "0743-63-2922",
      "license_no": "第0186797号",
      "license_date": "2020-11-10",
      "expire_date": "2026-11-30"
    },
    {
      "name": "天理市丹波市小学校",
      "name_kana": "",
      "business_type": "飲食店営業",
      "address": "天理市丹波市町　１８０",
      "lat": 34.594829,
      "lng": 135.83252,
      "geocoding_level": 3,
      "phone": "",
      "license_no": "第0413338号",
      "license_date": "2020-11-11",
      "expire_date": "2026-11-30"
    },
    {
      "name": "カラオケラウンジ　小雪",
      "name_kana": "",
      "business_type": "飲食店営業",
      "address": "天理市西長柄町　４２３　長柄プラザ１Ｆ",
      "lat": 34.57192,
      "lng": 135.821896,
      "geocoding_level": 3,
      "phone": "",
      "license_no": "第0420243号",
      "license_date": "2020-11-16",
      "expire_date": "2026-11-30"
    },
    {
      "name": "冨士",
      "name_kana": "",
      "business_type": "飲食店営業",
      "address": "天理市西長柄町　５８３－１",
      "lat": 34.57192,
      "lng": 135.821896,
      "geocoding_level": 3,
      "phone": "0743-67-1178",
      "license_no": "第0186408号",
      "license_date": "2020-11-16",
      "expire_date": "2026-11-30"
    },
    {
      "name": "サニーサイド・バック・アレイ",
      "name_kana": "",
      "business_type": "飲食店営業",
      "address": "天理市川原城町　６７",
      "lat": 34.599518,
      "lng": 135.834639,
      "geocoding_level": 3,
      "phone": "0743-63-3266",
      "license_no": "第0408179号",
      "license_date": "2020-11-17",
      "expire_date": "2026-11-30"
    },
    {
      "name": "セブン－イレブン天理三島町北大路店",
      "name_kana": "",
      "business_type": "飲食店営業",
      "address": "天理市三島町　１２２－１",
      "lat": 34.603743865,
      "lng": 135.83557988,
      "geocoding_level": 8,
      "phone": "0743-62-5553",
      "license_no": "第0420245号",
      "license_date": "2020-11-18",
      "expire_date": "2026-11-30"
    },
    {
      "name": "ホテル　セリーヌ",
      "name_kana": "",
      "business_type": "飲食店営業",
      "address": "天理市南六条町　１０１－１",
      "lat": 34.608718,
      "lng": 135.803447,
      "geocoding_level": 3,
      "phone": "0743-64-0005",
      "license_no": "第0186533号",
      "license_date": "2020-11-20",
      "expire_date": "2026-11-30"
    },
    {
      "name": "歴史を刻め　天理街道",
      "name_kana": "",
      "business_type": "飲食店営業",
      "address": "天理市三昧田町　１３６－３",
      "lat": 34.580928,
      "lng": 135.838148,
      "geocoding_level": 3,
      "phone": "",
      "license_no": "第0420251号",
      "license_date": "2020-11-25",
      "expire_date": "2026-11-30"
    },
    {
      "name": "乙　おとめ",
      "name_kana": "",
      "business_type": "飲食店営業",
      "address": "天理市西長柄町　３６７－１",
      "lat": 34.57192,
      "lng": 135.821896,
      "geocoding_level": 3,
      "phone": "0743-66-3511",
      "license_no": "第0186400号",
      "license_date": "2020-11-30",
      "expire_date": "2026-11-30"
    },
    {
      "name": "Ｂ－３１５　ＢＡＳＥ",
      "name_kana": "",
      "business_type": "飲食店営業",
      "address": "天理市小田中町　１１５－１",
      "lat": 34.610092,
      "lng": 135.826051,
      "geocoding_level": 3,
      "phone": "",
      "license_no": "第0420255号",
      "license_date": "2020-12-03",
      "expire_date": "2027-11-30"
    },
    {
      "name": "ＣＯＦＦＥＥ　ＳＴＡＮＤ　ｍｏｉ",
      "name_kana": "",
      "business_type": "飲食店営業",
      "address": "天理市川原城町　２７６－２",
      "lat": 34.60125191,
      "lng": 135.834568506,
      "geocoding_level": 8,
      "phone": "0743-62-3677",
      "license_no": "第0420270号",
      "license_date": "2020-12-11",
      "expire_date": "2027-11-30"
    },
    {
      "name": "大西商店",
      "name_kana": "",
      "business_type": "飲食店営業",
      "address": "天理市川原城町　３４０",
      "lat": 34.599518,
      "lng": 135.834639,
      "geocoding_level": 3,
      "phone": "0743-62-0615",
      "license_no": "第0420280号",
      "license_date": "2020-12-15",
      "expire_date": "2027-11-30"
    },
    {
      "name": "鶏笑",
      "name_kana": "",
      "business_type": "飲食店営業",
      "address": "天理市庵治町　３５５－１",
      "lat": 34.581956,
      "lng": 135.793285,
      "geocoding_level": 3,
      "phone": "",
      "license_no": "第0420291号",
      "license_date": "2020-12-23",
      "expire_date": "2027-11-30"
    },
    {
      "name": "Ｄｉｎｉｎｇ＆Ｂａｒ　ＭＵＫＵＲＯ",
      "name_kana": "",
      "business_type": "飲食店営業",
      "address": "天理市川原城町　６９３－３",
      "lat": 34.599518,
      "lng": 135.834639,
      "geocoding_level": 3,
      "phone": "",
      "license_no": "第0420300号",
      "license_date": "2021-01-15",
      "expire_date": "2027-11-30"
    },
    {
      "name": "ＶＯＸ",
      "name_kana": "",
      "business_type": "飲食店営業",
      "address": "天理市川原城町　７８８",
      "lat": 34.599661398,
      "lng": 135.831711737,
      "geocoding_level": 8,
      "phone": "0743-62-2394",
      "license_no": "第0420306号",
      "license_date": "2021-01-18",
      "expire_date": "2027-11-30"
    },
    {
      "name": "とんこつ愛があふれてる　ラーメンとりこ",
      "name_kana": "",
      "business_type": "飲食店営業",
      "address": "天理市石上町　５０５－１",
      "lat": 34.613034,
      "lng": 135.854541,
      "geocoding_level": 3,
      "phone": "",
      "license_no": "第0420317号",
      "license_date": "2021-02-03",
      "expire_date": "2027-11-30"
    },
    {
      "name": "すぎ乃",
      "name_kana": "",
      "business_type": "食肉販売業",
      "address": "天理市川原城町　２２９",
      "lat": 34.599518,
      "lng": 135.834639,
      "geocoding_level": 3,
      "phone": "0743-63-3559",
      "license_no": "第0420037号",
      "license_date": "2020-05-01",
      "expire_date": "2026-11-30"
    },
    {
      "name": "すぎ乃",
      "name_kana": "",
      "business_type": "そうざい製造業",
      "address": "天理市川原城町　２２９",
      "lat": 34.599518,
      "lng": 135.834639,
      "geocoding_level": 3,
      "phone": "0743-63-3559",
      "license_no": "第0420318号",
      "license_date": "2021-02-03",
      "expire_date": "2027-11-30"
    },
    {
      "name": "ちゃんこ　飛鳥山",
      "name_kana": "",
      "business_type": "食肉販売業",
      "address": "天理市川原城町　２７３－５",
      "lat": 34.600082633,
      "lng": 135.834382345,
      "geocoding_level": 8,
      "phone": "0743-62-2113",
      "license_no": "第0420323号",
      "license_date": "2021-02-08",
      "expire_date": "2027-11-30"
    },
    {
      "name": "すぎ乃",
      "name_kana": "",
      "business_type": "麺類製造業",
      "address": "天理市川原城町　２２９",
      "lat": 34.599518,
      "lng": 135.834639,
      "geocoding_level": 3,
      "phone": "0743-63-3559",
      "license_no": "第0420325号",
      "license_date": "2021-02-12",
      "expire_date": "2027-11-30"
    },
    {
      "name": "ＨｉＳａＳｏ　ヒサソ",
      "name_kana": "",
      "business_type": "飲食店営業",
      "address": "天理市川原城町　６５５",
      "lat": 34.60204222,
      "lng": 135.830470973,
      "geocoding_level": 8,
      "phone": "0743-63-4368",
      "license_no": "第0186457号",
      "license_date": "2020-09-24",
      "expire_date": "2026-11-30"
    },
    {
      "name": "ｄａｉｓｙ",
      "name_kana": "",
      "business_type": "飲食店営業",
      "address": "天理市川原城町　２６８－１２",
      "lat": 34.600046255,
      "lng": 135.833759761,
      "geocoding_level": 8,
      "phone": "",
      "license_no": "第0420326号",
      "license_date": "2021-02-16",
      "expire_date": "2027-11-30"
    },
    {
      "name": "株式会社創企",
      "name_kana": "",
      "business_type": "麺類製造業",
      "address": "天理市柳本町　１３４６－１",
      "lat": 34.555738,
      "lng": 135.847709,
      "geocoding_level": 3,
      "phone": "0743-67-2796",
      "license_no": "第0420336号",
      "license_date": "2021-03-03",
      "expire_date": "2027-11-30"
    },
    {
      "name": "肉匠　迎賓館",
      "name_kana": "",
      "business_type": "食肉販売業",
      "address": "天理市勾田町　１１５－１",
      "lat": 34.589717,
      "lng": 135.838151,
      "geocoding_level": 3,
      "phone": "0743-63-0029",
      "license_no": "第0420338号",
      "license_date": "2021-03-04",
      "expire_date": "2027-11-30"
    },
    {
      "name": "天理教炊事本部",
      "name_kana": "",
      "business_type": "飲食店営業",
      "address": "天理市田町　２３９－１",
      "lat": 34.589244,
      "lng": 135.830684,
      "geocoding_level": 3,
      "phone": "0743-62-4537",
      "license_no": "第0420360号",
      "license_date": "2021-03-19",
      "expire_date": "2028-11-30"
    },
    {
      "name": "Ｇｏｌｄ　Ｂａｋｅｒ",
      "name_kana": "",
      "business_type": "飲食店営業",
      "address": "天理市別所町　８１－８",
      "lat": 34.60978500000001,
      "lng": 135.836398,
      "geocoding_level": 3,
      "phone": "0743-25-1491",
      "license_no": "第0420362号",
      "license_date": "2021-03-22",
      "expire_date": "2027-11-30"
    },
    {
      "name": "饗の焼肉　うしん",
      "name_kana": "",
      "business_type": "飲食店営業",
      "address": "天理市指柳町　３４６－４",
      "lat": 34.604535,
      "lng": 135.825512,
      "geocoding_level": 3,
      "phone": "0743-85-4529",
      "license_no": "第0420365号",
      "license_date": "2021-03-22",
      "expire_date": "2027-11-30"
    },
    {
      "name": "Ｓｉｍｐｌｅ　ｃｏｍｍｅ　Ｂｏｎｊｏｕｒ",
      "name_kana": "",
      "business_type": "飲食店営業",
      "address": "天理市川原城町　６８－３",
      "lat": 34.600071115,
      "lng": 135.833310404,
      "geocoding_level": 8,
      "phone": "0743-61-5657",
      "license_no": "第0421003号",
      "license_date": "2021-04-05",
      "expire_date": "2027-11-30"
    },
    {
      "name": "くぬぎ",
      "name_kana": "",
      "business_type": "みそ製造業",
      "address": "天理市櫟本町　１４８９",
      "lat": 34.619672,
      "lng": 135.827452,
      "geocoding_level": 3,
      "phone": "",
      "license_no": "第0421047号",
      "license_date": "2021-05-10",
      "expire_date": "2027-11-30"
    },
    {
      "name": "Ｆａｒｍｅｒ＇ｓ　Ｓｈｏｐ　＆　Ｃａｆｅ　けやき",
      "name_kana": "",
      "business_type": "そうざい製造業",
      "address": "天理市杣之内町　１２３－１",
      "lat": 34.591928,
      "lng": 135.850883,
      "geocoding_level": 3,
      "phone": "",
      "license_no": "第0421049号",
      "license_date": "2021-05-10",
      "expire_date": "2027-11-30"
    },
    {
      "name": "Ｌｅｅ",
      "name_kana": "",
      "business_type": "飲食店営業",
      "address": "天理市西長柄町　７８－２ ジョイフル６　２ＦＣ",
      "lat": 34.57192,
      "lng": 135.821896,
      "geocoding_level": 3,
      "phone": "",
      "license_no": "第0421052号",
      "license_date": "2021-05-11",
      "expire_date": "2027-11-30"
    },
    {
      "name": "ｆｏｏｄ　ｔｒａｃｋ　ＨＫ",
      "name_kana": "",
      "business_type": "自動車飲食店営業",
      "address": "天理市他県内一円（奈良市を除く）",
      "lat": 34.596617,
      "lng": 135.837367,
      "geocoding_level": 2,
      "phone": "",
      "license_no": "第0421065号",
      "license_date": "2021-05-20",
      "expire_date": "2026-11-30"
    },
    {
      "name": "Ｒ＆Ｒ居酒屋ばんちゃん",
      "name_kana": "",
      "business_type": "露店飲食店営業",
      "address": "天理市他県内一円（奈良市を除く）",
      "lat": 34.596617,
      "lng": 135.837367,
      "geocoding_level": 2,
      "phone": "",
      "license_no": "第0421067号",
      "license_date": "2021-05-21",
      "expire_date": "2026-11-30"
    },
    {
      "name": "韓国屋台　좋아요－チョアヨ－",
      "name_kana": "",
      "business_type": "飲食店営業",
      "address": "天理市川原城町　８８６",
      "lat": 34.599761248,
      "lng": 135.829081712,
      "geocoding_level": 8,
      "phone": "",
      "license_no": "第0421079号",
      "license_date": "2021-05-31",
      "expire_date": "2027-11-30"
    },
    {
      "name": "Ｆａｒｍｅｒ＇ｓ　Ｓｈｏｐ　＆　Ｃａｆｅ　けやき",
      "name_kana": "",
      "business_type": "漬物製造業",
      "address": "天理市杣之内町　１２３－１",
      "lat": 34.591928,
      "lng": 135.850883,
      "geocoding_level": 3,
      "phone": "",
      "license_no": "第0421087号",
      "license_date": "2021-06-09",
      "expire_date": "2027-11-30"
    },
    {
      "name": "ジーニー",
      "name_kana": "",
      "business_type": "自動車飲食店営業",
      "address": "天理市他県内一円（奈良市を除く）",
      "lat": 34.596617,
      "lng": 135.837367,
      "geocoding_level": 2,
      "phone": "",
      "license_no": "第0421089号",
      "license_date": "2021-06-10",
      "expire_date": "2026-11-30"
    },
    {
      "name": "丸亀製麺　天理",
      "name_kana": "",
      "business_type": "飲食店営業",
      "address": "天理市勾田町　８０－１",
      "lat": 34.589717,
      "lng": 135.838151,
      "geocoding_level": 3,
      "phone": "0743-62-0701",
      "license_no": "第0408014号",
      "license_date": "2020-10-20",
      "expire_date": "2026-11-30"
    },
    {
      "name": "やまのべ焙煎所",
      "name_kana": "",
      "business_type": "自動車飲食店営業",
      "address": "天理市他県内一円（奈良市を除く）",
      "lat": 34.596617,
      "lng": 135.837367,
      "geocoding_level": 2,
      "phone": "",
      "license_no": "第0421115号",
      "license_date": "2021-07-05",
      "expire_date": "2026-11-30"
    },
    {
      "name": "ソライロカフェ",
      "name_kana": "",
      "business_type": "自動車飲食店営業",
      "address": "天理市他県内一円（奈良市を除く）",
      "lat": 34.596617,
      "lng": 135.837367,
      "geocoding_level": 2,
      "phone": "",
      "license_no": "第0421119号",
      "license_date": "2021-07-13",
      "expire_date": "2026-11-30"
    },
    {
      "name": "ハウリン　パウリン",
      "name_kana": "",
      "business_type": "飲食店営業",
      "address": "天理市川原城町　２５１　生駒ビル１Ｆ",
      "lat": 34.599768322,
      "lng": 135.83419052,
      "geocoding_level": 8,
      "phone": "",
      "license_no": "第0421123号",
      "license_date": "2021-07-28",
      "expire_date": "2027-11-30"
    },
    {
      "name": "味どころ集",
      "name_kana": "",
      "business_type": "飲食店営業",
      "address": "天理市福住町　４３７８",
      "lat": 34.61232,
      "lng": 135.914051,
      "geocoding_level": 3,
      "phone": "",
      "license_no": "第0421126号",
      "license_date": "2021-07-30",
      "expire_date": "2027-11-30"
    },
    {
      "name": "おしどり。天理インター店",
      "name_kana": "",
      "business_type": "食肉販売業",
      "address": "天理市櫟本町　２２６１－１－２",
      "lat": 34.619672,
      "lng": 135.827452,
      "geocoding_level": 3,
      "phone": "0743-65-3530",
      "license_no": "第0421155号",
      "license_date": "2021-08-17",
      "expire_date": "2027-11-30"
    },
    {
      "name": "おしどり。天理インター店",
      "name_kana": "",
      "business_type": "そうざい製造業",
      "address": "天理市櫟本町　２２６１－１－２",
      "lat": 34.619672,
      "lng": 135.827452,
      "geocoding_level": 3,
      "phone": "0743-65-3530",
      "license_no": "第0421156号",
      "license_date": "2021-08-17",
      "expire_date": "2027-11-30"
    },
    {
      "name": "森島菜園",
      "name_kana": "",
      "business_type": "漬物製造業",
      "address": "天理市合場町　１８２",
      "lat": 34.585892,
      "lng": 135.810945,
      "geocoding_level": 3,
      "phone": "0743-62-5030",
      "license_no": "第0421171号",
      "license_date": "2021-08-23",
      "expire_date": "2027-11-30"
    },
    {
      "name": "天理市立南中学校",
      "name_kana": "",
      "business_type": "飲食店営業",
      "address": "天理市兵庫町　３３６－２天理市立南中学校内",
      "lat": 34.573332,
      "lng": 135.836528,
      "geocoding_level": 3,
      "phone": "0743-67-1128",
      "license_no": "第0406473号",
      "license_date": "2019-11-20",
      "expire_date": "2026-11-30"
    },
    {
      "name": "フルサト",
      "name_kana": "",
      "business_type": "飲食店営業",
      "address": "天理市川原城町　６９７",
      "lat": 34.599823394,
      "lng": 135.832444958,
      "geocoding_level": 8,
      "phone": "0743-63-6878",
      "license_no": "第0421216号",
      "license_date": "2021-09-01",
      "expire_date": "2027-11-30"
    },
    {
      "name": "特別養護老人ホームやすらぎ園厨房",
      "name_kana": "",
      "business_type": "飲食店営業",
      "address": "天理市福住町　５５０４",
      "lat": 34.61232,
      "lng": 135.914051,
      "geocoding_level": 3,
      "phone": "0743-69-2286",
      "license_no": "第0421267号",
      "license_date": "2021-09-14",
      "expire_date": "2027-11-30"
    },
    {
      "name": "カサ・デル・ソル　２Ｆ北",
      "name_kana": "",
      "business_type": "飲食店営業",
      "address": "天理市川原城町　８３５",
      "lat": 34.599262272,
      "lng": 135.830429657,
      "geocoding_level": 8,
      "phone": "",
      "license_no": "第0421272号",
      "license_date": "2021-09-15",
      "expire_date": "2027-11-30"
    },
    {
      "name": "ｃａｆｅ　＆　ｂａｒ　ＨＯＭＥＹＳ",
      "name_kana": "",
      "business_type": "飲食店営業",
      "address": "天理市川原城町　１１３",
      "lat": 34.599518,
      "lng": 135.834639,
      "geocoding_level": 3,
      "phone": "",
      "license_no": "第0421273号",
      "license_date": "2021-09-15",
      "expire_date": "2027-11-30"
    },
    {
      "name": "ＫＡ－５０６１８０",
      "name_kana": "",
      "business_type": "飲食店営業",
      "address": "天理市田井庄町　７１５",
      "lat": 34.598497,
      "lng": 135.82557400000002,
      "geocoding_level": 3,
      "phone": "",
      "license_no": "第0421274号",
      "license_date": "2021-09-15",
      "expire_date": "2028-11-30"
    },
    {
      "name": "春日台カントリークラブ　中１番売店",
      "name_kana": "",
      "business_type": "飲食店営業",
      "address": "天理市福住町　７４５３",
      "lat": 34.61232,
      "lng": 135.914051,
      "geocoding_level": 3,
      "phone": "0743-69-2133",
      "license_no": "第0186838号",
      "license_date": "2020-10-14",
      "expire_date": "2026-11-30"
    },
    {
      "name": "ゴーゴーカレー　天理スタジアム店",
      "name_kana": "",
      "business_type": "飲食店営業",
      "address": "天理市川原城町　２７６－２　シャトー　デュ　ボヌールＣ号室",
      "lat": 34.60125191,
      "lng": 135.834568506,
      "geocoding_level": 8,
      "phone": "0743-63-5540",
      "license_no": "第0421360号",
      "license_date": "2021-10-01",
      "expire_date": "2027-11-30"
    },
    {
      "name": "Ｂａｒ　てん",
      "name_kana": "",
      "business_type": "飲食店営業",
      "address": "天理市川原城町　７０２　ふじやビル２０４号室",
      "lat": 34.599658009,
      "lng": 135.832307806,
      "geocoding_level": 8,
      "phone": "",
      "license_no": "第0421361号",
      "license_date": "2021-10-01",
      "expire_date": "2027-11-30"
    },
    {
      "name": "挽きこもるコーヒー",
      "name_kana": "",
      "business_type": "露店飲食店営業",
      "address": "天理市他県内一円（奈良市を除く）",
      "lat": 34.596617,
      "lng": 135.837367,
      "geocoding_level": 2,
      "phone": "",
      "license_no": "第0421397号",
      "license_date": "2021-10-07",
      "expire_date": "2026-11-30"
    },
    {
      "name": "自然な暮らし　ｃｏｍｍｕ＋ｃａｆｅ　コリコック",
      "name_kana": "",
      "business_type": "自動車飲食店営業",
      "address": "天理市他県内一円（奈良市を除く）",
      "lat": 34.596617,
      "lng": 135.837367,
      "geocoding_level": 2,
      "phone": "",
      "license_no": "第0421434号",
      "license_date": "2021-10-19",
      "expire_date": "2026-11-30"
    },
    {
      "name": "つぼ",
      "name_kana": "",
      "business_type": "飲食店営業",
      "address": "天理市川原城町　７１９",
      "lat": 34.599377225,
      "lng": 135.832391889,
      "geocoding_level": 8,
      "phone": "0743-62-5125",
      "license_no": "第0421435号",
      "license_date": "2021-10-20",
      "expire_date": "2027-11-30"
    },
    {
      "name": "大和まほろば",
      "name_kana": "",
      "business_type": "飲食店営業",
      "address": "天理市渋谷町　３９９－１",
      "lat": 34.552489,
      "lng": 135.854741,
      "geocoding_level": 3,
      "phone": "0743-67-1362",
      "license_no": "第0421436号",
      "license_date": "2021-10-21",
      "expire_date": "2027-11-30"
    },
    {
      "name": "Ｐｅｅｋ　Ａ　Ｂｏｏ",
      "name_kana": "",
      "business_type": "飲食店営業",
      "address": "天理市田部町　５２５",
      "lat": 34.607304,
      "lng": 135.829955,
      "geocoding_level": 3,
      "phone": "0743-63-1428",
      "license_no": "第0421445号",
      "license_date": "2021-10-21",
      "expire_date": "2027-11-30"
    },
    {
      "name": "青山青果株式会社",
      "name_kana": "",
      "business_type": "そうざい製造業",
      "address": "天理市長柄町　１３１４－２",
      "lat": 34.572022,
      "lng": 135.828362,
      "geocoding_level": 3,
      "phone": "0743-67-0391",
      "license_no": "第0421461号",
      "license_date": "2021-10-25",
      "expire_date": "2027-11-30"
    },
    {
      "name": "青山青果株式会社",
      "name_kana": "",
      "business_type": "食品の冷凍又は冷蔵業",
      "address": "天理市長柄町　１３１４－２",
      "lat": 34.572022,
      "lng": 135.828362,
      "geocoding_level": 3,
      "phone": "0743-67-0391",
      "license_no": "第0421462号",
      "license_date": "2021-10-25",
      "expire_date": "2027-11-30"
    },
    {
      "name": "大和軒　本店",
      "name_kana": "",
      "business_type": "飲食店営業",
      "address": "天理市川原城町　２８７",
      "lat": 34.599518,
      "lng": 135.834639,
      "geocoding_level": 3,
      "phone": "0743-62-0810",
      "license_no": "第0421466号",
      "license_date": "2021-10-26",
      "expire_date": "2027-11-30"
    },
    {
      "name": "麺屋　一徳",
      "name_kana": "",
      "business_type": "飲食店営業",
      "address": "天理市川原城町　３７２－２",
      "lat": 34.598586644,
      "lng": 135.836013987,
      "geocoding_level": 8,
      "phone": "",
      "license_no": "第0421468号",
      "license_date": "2021-10-26",
      "expire_date": "2027-11-30"
    },
    {
      "name": "Ｋａｎｔｉｎ　優",
      "name_kana": "",
      "business_type": "飲食店営業",
      "address": "天理市川原城町　７０２",
      "lat": 34.599658009,
      "lng": 135.832307806,
      "geocoding_level": 8,
      "phone": "0743-62-2608",
      "license_no": "第0421469号",
      "license_date": "2021-10-26",
      "expire_date": "2027-11-30"
    },
    {
      "name": "おひさま",
      "name_kana": "",
      "business_type": "飲食店営業",
      "address": "天理市櫟本町　３０３４",
      "lat": 34.619672,
      "lng": 135.827452,
      "geocoding_level": 3,
      "phone": "0743-65-2202",
      "license_no": "第0421470号",
      "license_date": "2021-10-26",
      "expire_date": "2027-11-30"
    },
    {
      "name": "安兵衛",
      "name_kana": "",
      "business_type": "飲食店営業",
      "address": "天理市丹波市町　４７１",
      "lat": 34.594829,
      "lng": 135.83252,
      "geocoding_level": 3,
      "phone": "0743-63-1468",
      "license_no": "第0421472号",
      "license_date": "2021-10-26",
      "expire_date": "2027-11-30"
    },
    {
      "name": "千成",
      "name_kana": "",
      "business_type": "飲食店営業",
      "address": "天理市川原城町新道　３８５－３",
      "lat": 34.599518,
      "lng": 135.834639,
      "geocoding_level": 3,
      "phone": "0743-63-7670",
      "license_no": "第0421473号",
      "license_date": "2021-10-26",
      "expire_date": "2027-11-30"
    },
    {
      "name": "旅館　やまべ",
      "name_kana": "",
      "business_type": "飲食店営業",
      "address": "天理市田部町　５４３",
      "lat": 34.607304,
      "lng": 135.829955,
      "geocoding_level": 3,
      "phone": "0743-63-4730",
      "license_no": "第0421474号",
      "license_date": "2021-10-26",
      "expire_date": "2027-11-30"
    },
    {
      "name": "気まぐれ家",
      "name_kana": "",
      "business_type": "飲食店営業",
      "address": "天理市田井庄町　７１３",
      "lat": 34.598497,
      "lng": 135.82557400000002,
      "geocoding_level": 3,
      "phone": "",
      "license_no": "第0421475号",
      "license_date": "2021-10-26",
      "expire_date": "2027-11-30"
    },
    {
      "name": "山鳩",
      "name_kana": "",
      "business_type": "飲食店営業",
      "address": "天理市三昧田町元東方　４６９－１",
      "lat": 34.596617,
      "lng": 135.837367,
      "geocoding_level": 2,
      "phone": "0743-67-1355",
      "license_no": "第0421476号",
      "license_date": "2021-10-26",
      "expire_date": "2027-11-30"
    },
    {
      "name": "和島精肉店",
      "name_kana": "",
      "business_type": "食肉販売業",
      "address": "天理市指柳町　２８５",
      "lat": 34.604535,
      "lng": 135.825512,
      "geocoding_level": 3,
      "phone": "0743-62-2041",
      "license_no": "第0421480号",
      "license_date": "2021-10-27",
      "expire_date": "2027-11-30"
    },
    {
      "name": "ＣＨＯＴＢＡＲ",
      "name_kana": "",
      "business_type": "飲食店営業",
      "address": "天理市川原城町　３７７－７",
      "lat": 34.599084492,
      "lng": 135.836154712,
      "geocoding_level": 8,
      "phone": "0743-62-7750",
      "license_no": "第0421484号",
      "license_date": "2021-10-27",
      "expire_date": "2027-11-30"
    },
    {
      "name": "居酒屋あんじゅ",
      "name_kana": "",
      "business_type": "飲食店営業",
      "address": "天理市川原城町　９０５",
      "lat": 34.599518,
      "lng": 135.834639,
      "geocoding_level": 3,
      "phone": "0743-63-4416",
      "license_no": "第0421489号",
      "license_date": "2021-10-27",
      "expire_date": "2027-11-30"
    },
    {
      "name": "小梅",
      "name_kana": "",
      "business_type": "飲食店営業",
      "address": "天理市川原城町　８９８",
      "lat": 34.599760691,
      "lng": 135.830033087,
      "geocoding_level": 8,
      "phone": "",
      "license_no": "第0421485号",
      "license_date": "2021-10-27",
      "expire_date": "2027-11-30"
    },
    {
      "name": "小西商店",
      "name_kana": "",
      "business_type": "飲食店営業",
      "address": "天理市山田町　１０６７－２",
      "lat": 34.628658,
      "lng": 135.929874,
      "geocoding_level": 3,
      "phone": "0743-69-2827",
      "license_no": "第0421486号",
      "license_date": "2021-10-27",
      "expire_date": "2027-11-30"
    },
    {
      "name": "自然な暮らし　ｃｏｍｍｕ＋ｃａｆｅ　コリコック",
      "name_kana": "",
      "business_type": "飲食店営業",
      "address": "天理市山田町　６３８－１",
      "lat": 34.628658,
      "lng": 135.929874,
      "geocoding_level": 3,
      "phone": "",
      "license_no": "第0421492号",
      "license_date": "2021-10-28",
      "expire_date": "2027-11-30"
    },
    {
      "name": "自然な暮らし　ｃｏｍｍｕ＋ｃａｆｅ　コリコック",
      "name_kana": "",
      "business_type": "そうざい製造業",
      "address": "天理市山田町　６３８－１",
      "lat": 34.628658,
      "lng": 135.929874,
      "geocoding_level": 3,
      "phone": "",
      "license_no": "第0421494号",
      "license_date": "2021-10-28",
      "expire_date": "2027-11-30"
    },
    {
      "name": "中華食堂　チャオチャオ",
      "name_kana": "",
      "business_type": "飲食店営業",
      "address": "天理市三昧田町　１２８－１",
      "lat": 34.580928,
      "lng": 135.838148,
      "geocoding_level": 3,
      "phone": "0743-67-3688",
      "license_no": "第0421495号",
      "license_date": "2021-10-28",
      "expire_date": "2027-11-30"
    },
    {
      "name": "焼肉　牛松",
      "name_kana": "",
      "business_type": "飲食店営業",
      "address": "天理市荒蒔町　３５７－２",
      "lat": 34.597909,
      "lng": 135.804787,
      "geocoding_level": 3,
      "phone": "",
      "license_no": "第0421496号",
      "license_date": "2021-10-28",
      "expire_date": "2027-11-30"
    },
    {
      "name": "クリーム本舗",
      "name_kana": "",
      "business_type": "飲食店営業",
      "address": "天理市石上町　５９７－１",
      "lat": 34.613034,
      "lng": 135.854541,
      "geocoding_level": 3,
      "phone": "0743-87-9003",
      "license_no": "第0421501号",
      "license_date": "2021-11-01",
      "expire_date": "2027-11-30"
    },
    {
      "name": "仲よし",
      "name_kana": "",
      "business_type": "飲食店営業",
      "address": "天理市荒蒔町宮田　３５７－２",
      "lat": 34.597909,
      "lng": 135.804787,
      "geocoding_level": 3,
      "phone": "0743-64-2923",
      "license_no": "第0421503号",
      "license_date": "2021-11-01",
      "expire_date": "2027-11-30"
    },
    {
      "name": "旭寿司",
      "name_kana": "",
      "business_type": "飲食店営業",
      "address": "天理市川原城町　７２",
      "lat": 34.599518,
      "lng": 135.834639,
      "geocoding_level": 3,
      "phone": "0743-62-0420",
      "license_no": "第0421504号",
      "license_date": "2021-11-01",
      "expire_date": "2027-11-30"
    },
    {
      "name": "魚新",
      "name_kana": "",
      "business_type": "自動車魚介類販売業",
      "address": "天理市他県内一円（奈良市を除く）",
      "lat": 34.596617,
      "lng": 135.837367,
      "geocoding_level": 2,
      "phone": "",
      "license_no": "第0421505号",
      "license_date": "2021-11-02",
      "expire_date": "2026-11-30"
    },
    {
      "name": "てら屋",
      "name_kana": "",
      "business_type": "飲食店営業",
      "address": "天理市東井戸堂町　１７６－４",
      "lat": 34.589918,
      "lng": 135.822208,
      "geocoding_level": 3,
      "phone": "0743-62-1973",
      "license_no": "第0421518号",
      "license_date": "2021-11-04",
      "expire_date": "2027-11-30"
    },
    {
      "name": "陽紀屋",
      "name_kana": "",
      "business_type": "飲食店営業",
      "address": "天理市三島町下五条　３７７",
      "lat": 34.601441,
      "lng": 135.841117,
      "geocoding_level": 3,
      "phone": "0743-62-0741",
      "license_no": "第0421519号",
      "license_date": "2021-11-04",
      "expire_date": "2027-11-30"
    },
    {
      "name": "ジョンソン",
      "name_kana": "",
      "business_type": "露店飲食店営業",
      "address": "天理市他県内一円（奈良市を除く）",
      "lat": 34.596617,
      "lng": 135.837367,
      "geocoding_level": 2,
      "phone": "",
      "license_no": "第0421515号",
      "license_date": "2021-11-04",
      "expire_date": "2026-11-30"
    },
    {
      "name": "大地のぶた　天理店",
      "name_kana": "",
      "business_type": "露店飲食店営業",
      "address": "天理市他県内一円（奈良市を除く）",
      "lat": 34.596617,
      "lng": 135.837367,
      "geocoding_level": 2,
      "phone": "",
      "license_no": "第0421510号",
      "license_date": "2021-11-04",
      "expire_date": "2026-11-30"
    },
    {
      "name": "広井養鶏場直売所",
      "name_kana": "",
      "business_type": "食肉処理業",
      "address": "天理市二階堂上ノ庄町　３３６－２",
      "lat": 34.598804,
      "lng": 135.799351,
      "geocoding_level": 3,
      "phone": "0743-64-0034",
      "license_no": "第0421511号",
      "license_date": "2021-11-04",
      "expire_date": "2027-11-30"
    },
    {
      "name": "白川",
      "name_kana": "",
      "business_type": "飲食店営業",
      "address": "天理市楢町　４７６－４",
      "lat": 34.624916,
      "lng": 135.828293,
      "geocoding_level": 3,
      "phone": "0743-65-4545",
      "license_no": "第0421512号",
      "license_date": "2021-11-04",
      "expire_date": "2027-11-30"
    },
    {
      "name": "ｃａｆ　わわ",
      "name_kana": "",
      "business_type": "飲食店営業",
      "address": "天理市杣之内町　２０２",
      "lat": 34.591928,
      "lng": 135.850883,
      "geocoding_level": 3,
      "phone": "0743-66-1663",
      "license_no": "第0421513号",
      "license_date": "2021-11-04",
      "expire_date": "2027-11-30"
    },
    {
      "name": "つるや",
      "name_kana": "",
      "business_type": "飲食店営業",
      "address": "天理市三島町　４１１",
      "lat": 34.601441,
      "lng": 135.841117,
      "geocoding_level": 3,
      "phone": "0743-62-0335",
      "license_no": "第0421507号",
      "license_date": "2021-11-04",
      "expire_date": "2027-11-30"
    },
    {
      "name": "グッド・ラック",
      "name_kana": "",
      "business_type": "飲食店営業",
      "address": "天理市指柳町　３６１－５",
      "lat": 34.604535,
      "lng": 135.825512,
      "geocoding_level": 3,
      "phone": "0743-62-1801",
      "license_no": "第0421509号",
      "license_date": "2021-11-04",
      "expire_date": "2027-11-30"
    },
    {
      "name": "なか井",
      "name_kana": "",
      "business_type": "飲食店営業",
      "address": "天理市蔵之庄町　４５４－１",
      "lat": 34.63263,
      "lng": 135.826598,
      "geocoding_level": 3,
      "phone": "0743-65-4922",
      "license_no": "第0421517号",
      "license_date": "2021-11-04",
      "expire_date": "2027-11-30"
    },
    {
      "name": "天理スタミナラーメン本店",
      "name_kana": "",
      "business_type": "飲食店営業",
      "address": "天理市櫟本町　３１２０－４",
      "lat": 34.619672,
      "lng": 135.827452,
      "geocoding_level": 3,
      "phone": "0743-65-4925",
      "license_no": "第0421531号",
      "license_date": "2021-11-05",
      "expire_date": "2027-11-30"
    },
    {
      "name": "辰馬食堂",
      "name_kana": "",
      "business_type": "飲食店営業",
      "address": "天理市川原城町　３２５",
      "lat": 34.599518,
      "lng": 135.834639,
      "geocoding_level": 3,
      "phone": "0743-62-1088",
      "license_no": "第0421532号",
      "license_date": "2021-11-05",
      "expire_date": "2027-11-30"
    },
    {
      "name": "山崎商店",
      "name_kana": "",
      "business_type": "豆腐製造業",
      "address": "天理市九条町　３８１－２",
      "lat": 34.580033315,
      "lng": 135.823289272,
      "geocoding_level": 8,
      "phone": "0743-66-0007",
      "license_no": "第0421534号",
      "license_date": "2021-11-05",
      "expire_date": "2027-11-30"
    },
    {
      "name": "晃山",
      "name_kana": "",
      "business_type": "飲食店営業",
      "address": "天理市西井戸堂町　４７３－１",
      "lat": 34.58589,
      "lng": 135.816656,
      "geocoding_level": 3,
      "phone": "0743-63-0577",
      "license_no": "第0421537号",
      "license_date": "2021-11-05",
      "expire_date": "2027-11-30"
    },
    {
      "name": "Ｋ－ＨＯＵＳＥ",
      "name_kana": "",
      "business_type": "露店飲食店営業",
      "address": "天理市他県内一円（奈良市を除く）",
      "lat": 34.596617,
      "lng": 135.837367,
      "geocoding_level": 2,
      "phone": "",
      "license_no": "第0421540号",
      "license_date": "2021-11-09",
      "expire_date": "2026-11-30"
    },
    {
      "name": "シンフォニア",
      "name_kana": "",
      "business_type": "飲食店営業",
      "address": "天理市川原城町　６３７　シンフォニア",
      "lat": 34.599518,
      "lng": 135.834639,
      "geocoding_level": 3,
      "phone": "",
      "license_no": "第0421542号",
      "license_date": "2021-11-10",
      "expire_date": "2027-11-30"
    },
    {
      "name": "ナパラゴルフクラブ　レストラン",
      "name_kana": "",
      "business_type": "飲食店営業",
      "address": "天理市山田町　８８８",
      "lat": 34.628658,
      "lng": 135.929874,
      "geocoding_level": 3,
      "phone": "0743-68-6001",
      "license_no": "第0421543号",
      "license_date": "2021-11-10",
      "expire_date": "2027-11-30"
    },
    {
      "name": "お好み焼　道",
      "name_kana": "",
      "business_type": "飲食店営業",
      "address": "天理市石上町　８４１",
      "lat": 34.613034,
      "lng": 135.854541,
      "geocoding_level": 3,
      "phone": "0743-65-4907",
      "license_no": "第0421544号",
      "license_date": "2021-11-10",
      "expire_date": "2027-11-30"
    },
    {
      "name": "こうすけ",
      "name_kana": "",
      "business_type": "飲食店営業",
      "address": "天理市川原城町　３７７－７",
      "lat": 34.599084492,
      "lng": 135.836154712,
      "geocoding_level": 8,
      "phone": "",
      "license_no": "第0421545号",
      "license_date": "2021-11-10",
      "expire_date": "2027-11-30"
    },
    {
      "name": "居酒屋　夢路",
      "name_kana": "",
      "business_type": "飲食店営業",
      "address": "天理市田井庄町　５２９",
      "lat": 34.598497,
      "lng": 135.82557400000002,
      "geocoding_level": 3,
      "phone": "0743-63-6419",
      "license_no": "第0421547号",
      "license_date": "2021-11-10",
      "expire_date": "2027-11-30"
    },
    {
      "name": "地鶏やきとり　おしどり。",
      "name_kana": "",
      "business_type": "飲食店営業",
      "address": "天理市二階堂上ノ庄町　３４３－３",
      "lat": 34.598804,
      "lng": 135.799351,
      "geocoding_level": 3,
      "phone": "0743-64-5540",
      "license_no": "第0421548号",
      "license_date": "2021-11-10",
      "expire_date": "2027-11-30"
    },
    {
      "name": "カフェ　ブリックス",
      "name_kana": "",
      "business_type": "飲食店営業",
      "address": "天理市別所町　３１９－４",
      "lat": 34.60978500000001,
      "lng": 135.836398,
      "geocoding_level": 3,
      "phone": "0743-63-3278",
      "license_no": "第0421550号",
      "license_date": "2021-11-10",
      "expire_date": "2027-11-30"
    },
    {
      "name": "杉若",
      "name_kana": "",
      "business_type": "飲食店営業",
      "address": "天理市平等坊町　１９３－１０",
      "lat": 34.599667,
      "lng": 135.812174,
      "geocoding_level": 3,
      "phone": "0743-62-7125",
      "license_no": "第0421551号",
      "license_date": "2021-11-10",
      "expire_date": "2027-11-30"
    },
    {
      "name": "東来軒",
      "name_kana": "",
      "business_type": "飲食店営業",
      "address": "天理市川原城町　１８９－６",
      "lat": 34.598663503,
      "lng": 135.833748175,
      "geocoding_level": 8,
      "phone": "0743-62-0679",
      "license_no": "第0421552号",
      "license_date": "2021-11-10",
      "expire_date": "2027-11-30"
    },
    {
      "name": "信華楼",
      "name_kana": "",
      "business_type": "飲食店営業",
      "address": "天理市川原城町　８１６",
      "lat": 34.600428169,
      "lng": 135.830428939,
      "geocoding_level": 8,
      "phone": "0743-62-3441",
      "license_no": "第0421553号",
      "license_date": "2021-11-10",
      "expire_date": "2027-11-30"
    },
    {
      "name": "株式会社山下食品",
      "name_kana": "",
      "business_type": "飲食店営業",
      "address": "天理市中町小袖田　１３１－１",
      "lat": 34.605119,
      "lng": 135.799362,
      "geocoding_level": 3,
      "phone": "0743-64-3001",
      "license_no": "第0421554号",
      "license_date": "2021-11-10",
      "expire_date": "2027-11-30"
    },
    {
      "name": "株式会社山下食品",
      "name_kana": "",
      "business_type": "そうざい製造業",
      "address": "天理市中町小袖田　１３１－１",
      "lat": 34.605119,
      "lng": 135.799362,
      "geocoding_level": 3,
      "phone": "0743-64-3001",
      "license_no": "第0421555号",
      "license_date": "2021-11-10",
      "expire_date": "2027-11-30"
    },
    {
      "name": "ＫＩＮＧ　ＮＩＮＥ",
      "name_kana": "",
      "business_type": "飲食店営業",
      "address": "天理市三昧田町　２０２",
      "lat": 34.580928,
      "lng": 135.838148,
      "geocoding_level": 3,
      "phone": "",
      "license_no": "第0420168号",
      "license_date": "2020-08-27",
      "expire_date": "2026-11-30"
    },
    {
      "name": "かざぐるま",
      "name_kana": "",
      "business_type": "飲食店営業",
      "address": "天理市三島町下五条　３７５",
      "lat": 34.601441,
      "lng": 135.841117,
      "geocoding_level": 3,
      "phone": "0743-63-2125",
      "license_no": "第0421561号",
      "license_date": "2021-11-11",
      "expire_date": "2027-11-30"
    },
    {
      "name": "穴ぐら",
      "name_kana": "",
      "business_type": "飲食店営業",
      "address": "天理市川原城町　８１７",
      "lat": 34.599518,
      "lng": 135.834639,
      "geocoding_level": 3,
      "phone": "0743-63-2466",
      "license_no": "第0421562号",
      "license_date": "2021-11-11",
      "expire_date": "2027-11-30"
    },
    {
      "name": "すぎ乃",
      "name_kana": "",
      "business_type": "飲食店営業",
      "address": "天理市川原城町　２２９",
      "lat": 34.599518,
      "lng": 135.834639,
      "geocoding_level": 3,
      "phone": "0743-63-3559",
      "license_no": "第0421564号",
      "license_date": "2021-11-11",
      "expire_date": "2027-11-30"
    },
    {
      "name": "株式会社本源",
      "name_kana": "",
      "business_type": "魚介類販売業",
      "address": "天理市守目堂町　１１０",
      "lat": 34.595222,
      "lng": 135.837805,
      "geocoding_level": 3,
      "phone": "0743-62-0818",
      "license_no": "第0421565号",
      "license_date": "2021-11-11",
      "expire_date": "2027-11-30"
    },
    {
      "name": "セブン－イレブン　天理成願寺町店",
      "name_kana": "",
      "business_type": "飲食店営業",
      "address": "天理市成願寺町　３４６－３",
      "lat": 34.569385,
      "lng": 135.841751,
      "geocoding_level": 3,
      "phone": "0743-67-3005",
      "license_no": "第0421576号",
      "license_date": "2021-11-17",
      "expire_date": "2027-11-30"
    },
    {
      "name": "オステリア　マンジャベーネ",
      "name_kana": "",
      "business_type": "飲食店営業",
      "address": "天理市川原城町　７３０　２Ｆ",
      "lat": 34.598965026,
      "lng": 135.832754616,
      "geocoding_level": 8,
      "phone": "0743-62-7822",
      "license_no": "第0421581号",
      "license_date": "2021-11-18",
      "expire_date": "2027-11-30"
    },
    {
      "name": "越前すし",
      "name_kana": "",
      "business_type": "飲食店営業",
      "address": "天理市川原城町　７９０",
      "lat": 34.599815627,
      "lng": 135.831421061,
      "geocoding_level": 8,
      "phone": "0743-63-5566",
      "license_no": "第0421582号",
      "license_date": "2021-11-18",
      "expire_date": "2027-11-30"
    },
    {
      "name": "ほのぼのcafe",
      "name_kana": "",
      "business_type": "飲食店営業",
      "address": "天理市富堂町　２９７－２８",
      "lat": 34.595596,
      "lng": 135.819836,
      "geocoding_level": 3,
      "phone": "0743-63-4774",
      "license_no": "第0421583号",
      "license_date": "2021-11-18",
      "expire_date": "2027-11-30"
    },
    {
      "name": "天こ森",
      "name_kana": "",
      "business_type": "水産製品製造業",
      "address": "天理市三島町下五条アーケード内",
      "lat": 34.601441,
      "lng": 135.841117,
      "geocoding_level": 3,
      "phone": "",
      "license_no": "第0421584号",
      "license_date": "2021-11-18",
      "expire_date": "2027-11-30"
    },
    {
      "name": "有限会社　辻井食品工業所",
      "name_kana": "",
      "business_type": "麺類製造業",
      "address": "天理市川原城町　６６６",
      "lat": 34.601838653,
      "lng": 135.833227366,
      "geocoding_level": 8,
      "phone": "0743-62-0147",
      "license_no": "第0186110号",
      "license_date": "2020-09-24",
      "expire_date": "2026-11-30"
    },
    {
      "name": "ビジネスホテル喜楽荘",
      "name_kana": "",
      "business_type": "飲食店営業",
      "address": "天理市川原城町　３６６－２",
      "lat": 34.597492694,
      "lng": 135.83574004,
      "geocoding_level": 8,
      "phone": "0743-62-1668",
      "license_no": "第0421595号",
      "license_date": "2021-11-25",
      "expire_date": "2027-11-30"
    },
    {
      "name": "麺屋ＰＡＩＴＯＮ",
      "name_kana": "",
      "business_type": "飲食店営業",
      "address": "天理市川原城町　１１３－１",
      "lat": 34.599832994,
      "lng": 135.833247112,
      "geocoding_level": 8,
      "phone": "0743-62-1555",
      "license_no": "第0421596号",
      "license_date": "2021-11-26",
      "expire_date": "2027-11-30"
    },
    {
      "name": "櫟",
      "name_kana": "",
      "business_type": "飲食店営業",
      "address": "天理市櫟本町　１０３０－１",
      "lat": 34.619672,
      "lng": 135.827452,
      "geocoding_level": 3,
      "phone": "0743-65-2215",
      "license_no": "第0421598号",
      "license_date": "2021-11-29",
      "expire_date": "2027-11-30"
    },
    {
      "name": "角常食料品店",
      "name_kana": "",
      "business_type": "食品の小分け業",
      "address": "天理市二階堂南菅田町　３",
      "lat": 34.595028,
      "lng": 135.792562,
      "geocoding_level": 3,
      "phone": "0743-64-0045",
      "license_no": "第0421603号",
      "license_date": "2021-11-30",
      "expire_date": "2027-11-30"
    },
    {
      "name": "お好み焼き　ひろっちゃん",
      "name_kana": "",
      "business_type": "飲食店営業",
      "address": "天理市田井庄町　７１３",
      "lat": 34.598497,
      "lng": 135.82557400000002,
      "geocoding_level": 3,
      "phone": "0743-62-2116",
      "license_no": "第0421577号",
      "license_date": "2021-11-17",
      "expire_date": "2027-11-30"
    },
    {
      "name": "株式会社鮮魚  ．松本",
      "name_kana": "",
      "business_type": "魚介類販売業",
      "address": "天理市三昧田町　１７－１",
      "lat": 34.580928,
      "lng": 135.838148,
      "geocoding_level": 3,
      "phone": "0743-67-7070",
      "license_no": "第0421483号",
      "license_date": "2021-10-27",
      "expire_date": "2027-11-30"
    },
    {
      "name": "スマイル　キッチン",
      "name_kana": "",
      "business_type": "自動車飲食店営業",
      "address": "天理市他県内一円（奈良市を除く）",
      "lat": 34.596617,
      "lng": 135.837367,
      "geocoding_level": 2,
      "phone": "",
      "license_no": "第0421626号",
      "license_date": "2021-12-23",
      "expire_date": "2027-11-30"
    },
    {
      "name": "直会屋まんま",
      "name_kana": "",
      "business_type": "飲食店営業",
      "address": "天理市川原城町　３０１",
      "lat": 34.599518,
      "lng": 135.834639,
      "geocoding_level": 3,
      "phone": "",
      "license_no": "第0421632号",
      "license_date": "2021-12-28",
      "expire_date": "2028-11-30"
    },
    {
      "name": "出口　庄次",
      "name_kana": "",
      "business_type": "漬物製造業",
      "address": "天理市九条町　６７２",
      "lat": 34.581534,
      "lng": 135.821236,
      "geocoding_level": 3,
      "phone": "",
      "license_no": "第0421637号",
      "license_date": "2022-01-07",
      "expire_date": "2028-11-30"
    },
    {
      "name": "ＬＯＣＯＬＯＣＯ　～ａｌｏｈａ　ｆｏｏｄ　ｔｒｕｃｋ～",
      "name_kana": "",
      "business_type": "自動車飲食店営業",
      "address": "天理市他県内一円（奈良市を除く）",
      "lat": 34.596617,
      "lng": 135.837367,
      "geocoding_level": 2,
      "phone": "",
      "license_no": "第0421656号",
      "license_date": "2022-02-03",
      "expire_date": "2027-11-30"
    },
    {
      "name": "おか天作業所",
      "name_kana": "",
      "business_type": "そうざい製造業",
      "address": "天理市櫟本町　２９３－１",
      "lat": 34.619672,
      "lng": 135.827452,
      "geocoding_level": 3,
      "phone": "0743-65-5051",
      "license_no": "第0421658号",
      "license_date": "2022-02-04",
      "expire_date": "2028-11-30"
    },
    {
      "name": "庵　いおり",
      "name_kana": "",
      "business_type": "飲食店営業",
      "address": "天理市庵治町　１００－１",
      "lat": 34.581956,
      "lng": 135.793285,
      "geocoding_level": 3,
      "phone": "0743-64-4921",
      "license_no": "第0421669号",
      "license_date": "2022-02-17",
      "expire_date": "2028-11-30"
    },
    {
      "name": "から揚げ専門店あげよし　天理店",
      "name_kana": "",
      "business_type": "飲食店営業",
      "address": "天理市別所町　２４０－１",
      "lat": 34.60978500000001,
      "lng": 135.836398,
      "geocoding_level": 3,
      "phone": "0743-86-4260",
      "license_no": "第0421673号",
      "license_date": "2022-02-22",
      "expire_date": "2028-11-30"
    },
    {
      "name": "フルーツサンド専門店果実堂　天理店",
      "name_kana": "",
      "business_type": "飲食店営業",
      "address": "天理市別所町　２４０－１",
      "lat": 34.60978500000001,
      "lng": 135.836398,
      "geocoding_level": 3,
      "phone": "0743-84-4830",
      "license_no": "第0421674号",
      "license_date": "2022-02-22",
      "expire_date": "2028-11-30"
    },
    {
      "name": "３４番地・ＬＯＣＡＬ３４",
      "name_kana": "",
      "business_type": "飲食店営業",
      "address": "天理市御経野町　３４－４",
      "lat": 34.592613,
      "lng": 135.838622,
      "geocoding_level": 3,
      "phone": "",
      "license_no": "第0421679号",
      "license_date": "2022-02-28",
      "expire_date": "2028-11-30"
    },
    {
      "name": "ｎａｍｕ／ｎａｍｕ",
      "name_kana": "",
      "business_type": "自動車飲食店営業",
      "address": "天理市他県内一円（奈良市を除く）",
      "lat": 34.596617,
      "lng": 135.837367,
      "geocoding_level": 2,
      "phone": "",
      "license_no": "第0421680号",
      "license_date": "2022-02-28",
      "expire_date": "2027-11-30"
    },
    {
      "name": "奈良名産レストラン＆ＣＡＦＥ　まるかつ",
      "name_kana": "",
      "business_type": "飲食店営業",
      "address": "天理市杣之内町　４３７－３",
      "lat": 34.591928,
      "lng": 135.850883,
      "geocoding_level": 3,
      "phone": "0743-86-4479",
      "license_no": "第0421682号",
      "license_date": "2022-03-02",
      "expire_date": "2029-11-30"
    },
    {
      "name": "東大門",
      "name_kana": "",
      "business_type": "そうざい製造業",
      "address": "天理市川原城町　６９８－１　天理駅前第２ビル２Ｆ",
      "lat": 34.599518,
      "lng": 135.834639,
      "geocoding_level": 3,
      "phone": "0743-69-4661",
      "license_no": "第04210695号",
      "license_date": "2022-03-09",
      "expire_date": "2028-11-30"
    },
    {
      "name": "天理市立前栽こども園",
      "name_kana": "",
      "business_type": "飲食店営業",
      "address": "天理市杉本町　２４３－１",
      "lat": 34.601706,
      "lng": 135.815434,
      "geocoding_level": 3,
      "phone": "",
      "license_no": "第04210708号",
      "license_date": "2022-03-16",
      "expire_date": "2029-11-30"
    },
    {
      "name": "ホテル　グラマーラ　ラフェット郡山店",
      "name_kana": "",
      "business_type": "飲食店営業",
      "address": "天理市南六条町元六条方　９９－４",
      "lat": 34.596617,
      "lng": 135.837367,
      "geocoding_level": 2,
      "phone": "0743-64-2270",
      "license_no": "第04210718号",
      "license_date": "2022-03-22",
      "expire_date": "2028-11-30"
    },
    {
      "name": "天理市立二階堂小学校",
      "name_kana": "",
      "business_type": "飲食店営業",
      "address": "天理市二階堂南菅田町　６４０",
      "lat": 34.595028,
      "lng": 135.792562,
      "geocoding_level": 3,
      "phone": "",
      "license_no": "第04220004号",
      "license_date": "2022-04-04",
      "expire_date": "2029-11-30"
    },
    {
      "name": "マチュープロジェクト",
      "name_kana": "",
      "business_type": "自動車飲食店営業",
      "address": "天理市他県内一円（奈良市を除く）",
      "lat": 34.596617,
      "lng": 135.837367,
      "geocoding_level": 2,
      "phone": "",
      "license_no": "第04220007号",
      "license_date": "2022-04-05",
      "expire_date": "2027-11-30"
    },
    {
      "name": "キッチンカーデル",
      "name_kana": "",
      "business_type": "自動車飲食店営業",
      "address": "天理市他県内一円（奈良市を除く）",
      "lat": 34.596617,
      "lng": 135.837367,
      "geocoding_level": 2,
      "phone": "",
      "license_no": "第04220013号",
      "license_date": "2022-04-12",
      "expire_date": "2027-11-30"
    },
    {
      "name": "粉もん屋八イオンビック天理店",
      "name_kana": "",
      "business_type": "飲食店営業",
      "address": "天理市東井戸堂町　３８１",
      "lat": 34.589918,
      "lng": 135.822208,
      "geocoding_level": 3,
      "phone": "0743-62-7707",
      "license_no": "第04220015号",
      "license_date": "2022-04-13",
      "expire_date": "2029-11-30"
    },
    {
      "name": "レモン",
      "name_kana": "",
      "business_type": "飲食店営業",
      "address": "天理市嘉幡町　４１２－２",
      "lat": 34.589665,
      "lng": 135.797859,
      "geocoding_level": 3,
      "phone": "",
      "license_no": "第04210723号",
      "license_date": "2022-03-23",
      "expire_date": "2028-11-30"
    },
    {
      "name": "クリームボーイ",
      "name_kana": "",
      "business_type": "自動車飲食店営業",
      "address": "天理市他県内一円（奈良市を除く）",
      "lat": 34.596617,
      "lng": 135.837367,
      "geocoding_level": 2,
      "phone": "",
      "license_no": "第04220035号",
      "license_date": "2022-05-09",
      "expire_date": "2027-11-30"
    },
    {
      "name": "天理塩元帥",
      "name_kana": "",
      "business_type": "飲食店営業",
      "address": "天理市嘉幡町　５９２－１",
      "lat": 34.589665,
      "lng": 135.797859,
      "geocoding_level": 3,
      "phone": "0743-85-6570",
      "license_no": "第04220046号",
      "license_date": "2022-05-13",
      "expire_date": "2028-11-30"
    },
    {
      "name": "焼肉一番",
      "name_kana": "",
      "business_type": "飲食店営業",
      "address": "天理市川原城町　８３６",
      "lat": 34.599339919,
      "lng": 135.830418539,
      "geocoding_level": 8,
      "phone": "0743-63-1495",
      "license_no": "第04220029号",
      "license_date": "2022-04-21",
      "expire_date": "2028-11-30"
    },
    {
      "name": "ファミリーマート郡山南インター店",
      "name_kana": "",
      "business_type": "飲食店営業",
      "address": "天理市南六条町元六条方　１７９－１",
      "lat": 34.596617,
      "lng": 135.837367,
      "geocoding_level": 2,
      "phone": "0743-68-3262",
      "license_no": "第0421467号",
      "license_date": "2021-10-26",
      "expire_date": "2027-11-30"
    },
    {
      "name": "奈良かぐわ",
      "name_kana": "",
      "business_type": "飲食店営業",
      "address": "天理市東井戸堂町　３８１",
      "lat": 34.589918,
      "lng": 135.822208,
      "geocoding_level": 3,
      "phone": "",
      "license_no": "第04220121号",
      "license_date": "2022-06-14",
      "expire_date": "2028-11-30"
    },
    {
      "name": "カラオケゆいまーる",
      "name_kana": "",
      "business_type": "飲食店営業",
      "address": "天理市西長柄町　７８－２",
      "lat": 34.57192,
      "lng": 135.821896,
      "geocoding_level": 3,
      "phone": "",
      "license_no": "第04220132号",
      "license_date": "2022-06-21",
      "expire_date": "2028-11-30"
    },
    {
      "name": "３４番地・ＬＯＣＡＬ３４",
      "name_kana": "",
      "business_type": "そうざい製造業",
      "address": "天理市御経野町　３４－４",
      "lat": 34.592613,
      "lng": 135.838622,
      "geocoding_level": 3,
      "phone": "",
      "license_no": "第04220133号",
      "license_date": "2022-06-22",
      "expire_date": "2028-11-30"
    },
    {
      "name": "ＧＥＮＴＥＮ",
      "name_kana": "",
      "business_type": "自動車飲食店営業",
      "address": "天理市他県内一円（奈良市を除く）",
      "lat": 34.596617,
      "lng": 135.837367,
      "geocoding_level": 2,
      "phone": "",
      "license_no": "第04220138号",
      "license_date": "2022-06-23",
      "expire_date": "2027-11-30"
    },
    {
      "name": "ライフデリ　天理店",
      "name_kana": "",
      "business_type": "飲食店営業",
      "address": "天理市兵庫町　４３４－１　ステーションプラザ１Ｆ南",
      "lat": 34.573332,
      "lng": 135.836528,
      "geocoding_level": 3,
      "phone": "0743-86-4438",
      "license_no": "第0421642号",
      "license_date": "2022-01-18",
      "expire_date": "2028-11-30"
    },
    {
      "name": "ランチボックス",
      "name_kana": "",
      "business_type": "そうざい製造業",
      "address": "天理市兵庫町　４３４－１　ステーションプラザ１Ｆ南",
      "lat": 34.573332,
      "lng": 135.836528,
      "geocoding_level": 3,
      "phone": "0743-86-4438",
      "license_no": "第04220143号",
      "license_date": "2022-06-30",
      "expire_date": "2028-11-30"
    },
    {
      "name": "ロゼッタ　カフェ　カンパニー",
      "name_kana": "",
      "business_type": "飲食店営業",
      "address": "天理市田井庄町　４８１－５",
      "lat": 34.598497,
      "lng": 135.82557400000002,
      "geocoding_level": 3,
      "phone": "0743-68-1977",
      "license_no": "第04220049号",
      "license_date": "2022-05-17",
      "expire_date": "2028-11-30"
    },
    {
      "name": "山の辺の道　ｔｅｋｕ　ｔｅｋｕ",
      "name_kana": "",
      "business_type": "飲食店営業",
      "address": "天理市萱生町　４７１－５",
      "lat": 34.570931,
      "lng": 135.849252,
      "geocoding_level": 3,
      "phone": "",
      "license_no": "第04220161号",
      "license_date": "2022-07-26",
      "expire_date": "2028-11-30"
    },
    {
      "name": "はれんちないなかっ娘バー",
      "name_kana": "",
      "business_type": "飲食店営業",
      "address": "天理市指柳町　３６１－５　西村商事ビル１Ｆ",
      "lat": 34.604535,
      "lng": 135.825512,
      "geocoding_level": 3,
      "phone": "",
      "license_no": "第04220162号",
      "license_date": "2022-07-26",
      "expire_date": "2028-11-30"
    },
    {
      "name": "ピノキオ　天理岩室店",
      "name_kana": "",
      "business_type": "飲食店営業",
      "address": "天理市岩室町　６９－１　アクロスプラザ天理",
      "lat": 34.593747,
      "lng": 135.812111,
      "geocoding_level": 3,
      "phone": "0743-62-0101",
      "license_no": "第04220163号",
      "license_date": "2022-07-26",
      "expire_date": "2028-11-30"
    },
    {
      "name": "井上農園",
      "name_kana": "",
      "business_type": "漬物製造業",
      "address": "天理市杣之内町　２６３",
      "lat": 34.591928,
      "lng": 135.850883,
      "geocoding_level": 3,
      "phone": "0743-62-1480",
      "license_no": "第04220167号",
      "license_date": "2022-07-29",
      "expire_date": "2028-11-30"
    },
    {
      "name": "天理市立北中学校",
      "name_kana": "",
      "business_type": "飲食店営業",
      "address": "天理市石上町　７７７",
      "lat": 34.613034,
      "lng": 135.854541,
      "geocoding_level": 3,
      "phone": "0743-63-1001",
      "license_no": "第04220186号",
      "license_date": "2022-08-17",
      "expire_date": "2029-11-30"
    },
    {
      "name": "ｃａｆｅてまり",
      "name_kana": "",
      "business_type": "飲食店営業",
      "address": "天理市櫟本町　１４６４－２",
      "lat": 34.619672,
      "lng": 135.827452,
      "geocoding_level": 3,
      "phone": "0743-99-2068",
      "license_no": "第04220281号",
      "license_date": "2022-09-14",
      "expire_date": "2028-11-30"
    },
    {
      "name": "らぁ麺　せんいち",
      "name_kana": "",
      "business_type": "飲食店営業",
      "address": "天理市川原城町　８０１　辻村ビル　D",
      "lat": 34.599744087,
      "lng": 135.830914023,
      "geocoding_level": 8,
      "phone": "",
      "license_no": "第04220282号",
      "license_date": "2022-09-15",
      "expire_date": "2028-11-30"
    },
    {
      "name": "ＢＬＵＥＧ",
      "name_kana": "",
      "business_type": "自動車飲食店営業",
      "address": "天理市他県内一円（奈良市を除く）",
      "lat": 34.596617,
      "lng": 135.837367,
      "geocoding_level": 2,
      "phone": "",
      "license_no": "第04220284号",
      "license_date": "2022-09-15",
      "expire_date": "2027-11-30"
    },
    {
      "name": "とろり天使のわらびもち天理駅前店",
      "name_kana": "",
      "business_type": "飲食店営業",
      "address": "天理市川原城町　８０１　辻村ビルＢ号",
      "lat": 34.599744087,
      "lng": 135.830914023,
      "geocoding_level": 8,
      "phone": "",
      "license_no": "第04220302号",
      "license_date": "2022-09-27",
      "expire_date": "2028-11-30"
    },
    {
      "name": "ＫＫ",
      "name_kana": "",
      "business_type": "飲食店営業",
      "address": "天理市田部町　５１７",
      "lat": 34.607304,
      "lng": 135.829955,
      "geocoding_level": 3,
      "phone": "",
      "license_no": "第04220304号",
      "license_date": "2022-09-27",
      "expire_date": "2028-11-30"
    },
    {
      "name": "奈良健康ランド・奈良プラザホテル",
      "name_kana": "",
      "business_type": "そうざい製造業",
      "address": "天理市嘉幡町　６００－１",
      "lat": 34.589665,
      "lng": 135.797859,
      "geocoding_level": 3,
      "phone": "0743-64-1126",
      "license_no": "第0420152号",
      "license_date": "2020-08-07",
      "expire_date": "2026-11-30"
    },
    {
      "name": "Ｎ４３°",
      "name_kana": "",
      "business_type": "飲食店営業",
      "address": "天理市川原城町　２５１　生駒ビル１Ｆ",
      "lat": 34.599768322,
      "lng": 135.83419052,
      "geocoding_level": 8,
      "phone": "",
      "license_no": "第04220338号",
      "license_date": "2022-09-30",
      "expire_date": "2028-11-30"
    },
    {
      "name": "ホテル　グラマーラ　ラフェット郡山店",
      "name_kana": "",
      "business_type": "飲食店営業",
      "address": "天理市南六条町元六条方　９９－４",
      "lat": 34.596617,
      "lng": 135.837367,
      "geocoding_level": 2,
      "phone": "0743-64-2270",
      "license_no": "第04220350号",
      "license_date": "2022-10-05",
      "expire_date": "2028-11-30"
    },
    {
      "name": "辰己本舗",
      "name_kana": "",
      "business_type": "露店飲食店営業",
      "address": "天理市他県内一円（奈良市を除く）",
      "lat": 34.596617,
      "lng": 135.837367,
      "geocoding_level": 2,
      "phone": "",
      "license_no": "第04220353号",
      "license_date": "2022-10-06",
      "expire_date": "2027-11-30"
    },
    {
      "name": "ＭＩＭＩＫＯ　ＨＡＴ",
      "name_kana": "",
      "business_type": "自動車飲食店営業",
      "address": "天理市他県内一円（奈良市を除く）",
      "lat": 34.596617,
      "lng": 135.837367,
      "geocoding_level": 2,
      "phone": "",
      "license_no": "第04220366号",
      "license_date": "2022-10-07",
      "expire_date": "2027-11-30"
    },
    {
      "name": "Ｆｕｗａｒｉｎ",
      "name_kana": "",
      "business_type": "自動車飲食店営業",
      "address": "天理市他県内一円（奈良市を除く）",
      "lat": 34.596617,
      "lng": 135.837367,
      "geocoding_level": 2,
      "phone": "",
      "license_no": "第04220405号",
      "license_date": "2022-10-14",
      "expire_date": "2027-11-30"
    },
    {
      "name": "夜喫茶　アルカ",
      "name_kana": "",
      "business_type": "露店飲食店営業",
      "address": "天理市他県内一円（奈良市を除く）",
      "lat": 34.596617,
      "lng": 135.837367,
      "geocoding_level": 2,
      "phone": "",
      "license_no": "第04220445号",
      "license_date": "2022-10-20",
      "expire_date": "2027-11-30"
    },
    {
      "name": "タコッパち",
      "name_kana": "",
      "business_type": "自動車飲食店営業",
      "address": "天理市他県内一円（奈良市を除く）",
      "lat": 34.596617,
      "lng": 135.837367,
      "geocoding_level": 2,
      "phone": "",
      "license_no": "第04220461号",
      "license_date": "2022-10-21",
      "expire_date": "2027-11-30"
    },
    {
      "name": "Ｄａｙ　ｂｙ　Ｃｏｆｆｅｅ　ｒｏａｓｔｅｒｓ",
      "name_kana": "",
      "business_type": "露店飲食店営業",
      "address": "天理市他県内一円（奈良市を除く）",
      "lat": 34.596617,
      "lng": 135.837367,
      "geocoding_level": 2,
      "phone": "",
      "license_no": "第04220463号",
      "license_date": "2022-10-25",
      "expire_date": "2027-11-30"
    },
    {
      "name": "タコッパち",
      "name_kana": "",
      "business_type": "自動車飲食店営業",
      "address": "天理市他県内一円（奈良市を除く）",
      "lat": 34.596617,
      "lng": 135.837367,
      "geocoding_level": 2,
      "phone": "",
      "license_no": "第04220542号",
      "license_date": "2022-10-27",
      "expire_date": "2027-11-30"
    },
    {
      "name": "５ｋｉｔｃｈｅｎ",
      "name_kana": "",
      "business_type": "露店飲食店営業",
      "address": "天理市他県内一円（奈良市を除く）",
      "lat": 34.596617,
      "lng": 135.837367,
      "geocoding_level": 2,
      "phone": "",
      "license_no": "第04220563号",
      "license_date": "2022-11-01",
      "expire_date": "2027-11-30"
    },
    {
      "name": "かつ工房　さかもと",
      "name_kana": "",
      "business_type": "飲食店営業",
      "address": "天理市田井庄町　６９６",
      "lat": 34.598497,
      "lng": 135.82557400000002,
      "geocoding_level": 3,
      "phone": "0743-62-9494",
      "license_no": "第04220564号",
      "license_date": "2022-11-01",
      "expire_date": "2028-11-30"
    },
    {
      "name": "小料理みつば",
      "name_kana": "",
      "business_type": "飲食店営業",
      "address": "天理市田井庄町　５４６",
      "lat": 34.598497,
      "lng": 135.82557400000002,
      "geocoding_level": 3,
      "phone": "0743-85-5877",
      "license_no": "第04220565号",
      "license_date": "2022-11-01",
      "expire_date": "2028-11-30"
    },
    {
      "name": "カラオケ倶楽部ゆう",
      "name_kana": "",
      "business_type": "飲食店営業",
      "address": "天理市川原城町　３４１",
      "lat": 34.599518,
      "lng": 135.834639,
      "geocoding_level": 3,
      "phone": "",
      "license_no": "第04220570号",
      "license_date": "2022-11-01",
      "expire_date": "2028-11-30"
    },
    {
      "name": "天ぷらと旬鮮魚　のだま",
      "name_kana": "",
      "business_type": "飲食店営業",
      "address": "天理市富堂町　２９７－８",
      "lat": 34.595596,
      "lng": 135.819836,
      "geocoding_level": 3,
      "phone": "0743-63-4848",
      "license_no": "第04220571号",
      "license_date": "2022-11-01",
      "expire_date": "2028-11-30"
    },
    {
      "name": "角ハイボール麺酒場　天",
      "name_kana": "",
      "business_type": "飲食店営業",
      "address": "天理市嘉幡町　６００－１",
      "lat": 34.589665,
      "lng": 135.797859,
      "geocoding_level": 3,
      "phone": "0743-64-1126",
      "license_no": "第04220573号",
      "license_date": "2022-11-02",
      "expire_date": "2028-11-30"
    },
    {
      "name": "来春",
      "name_kana": "",
      "business_type": "飲食店営業",
      "address": "天理市成願寺町　３４８",
      "lat": 34.569385,
      "lng": 135.841751,
      "geocoding_level": 3,
      "phone": "0743-66-3230",
      "license_no": "第04220574号",
      "license_date": "2022-11-02",
      "expire_date": "2028-11-30"
    },
    {
      "name": "セブン－イレブン天理喜殿町店",
      "name_kana": "",
      "business_type": "飲食店営業",
      "address": "天理市喜殿町　１５３－１",
      "lat": 34.608837,
      "lng": 135.815309,
      "geocoding_level": 3,
      "phone": "0743-63-8870",
      "license_no": "第04220575号",
      "license_date": "2022-11-02",
      "expire_date": "2028-11-30"
    },
    {
      "name": "喫茶　ナチューる",
      "name_kana": "",
      "business_type": "飲食店営業",
      "address": "天理市勾田町　５８",
      "lat": 34.589717,
      "lng": 135.838151,
      "geocoding_level": 3,
      "phone": "0743-62-0141",
      "license_no": "第04220577号",
      "license_date": "2022-11-04",
      "expire_date": "2028-11-30"
    },
    {
      "name": "コメダ珈琲店天理岩室店",
      "name_kana": "",
      "business_type": "飲食店営業",
      "address": "天理市岩室町　８８－１",
      "lat": 34.593747,
      "lng": 135.812111,
      "geocoding_level": 3,
      "phone": "0743-62-1212",
      "license_no": "第04220578号",
      "license_date": "2022-11-04",
      "expire_date": "2028-11-30"
    },