{
  "meta": {
    "updated": 1783906731,
    "sources": [
      {
        "source": "名古屋市 【名古屋市】食品営業許可施設一覧",
        "license": "Creative Commons Attribution 4.0 International"
      }
    ]
  },
  "data": [
    {
      "name": "成城石井　アスナル金山店",
      "name_kana": "",
      "business_type": "飲食店営業",
      "address": "名古屋市中区金山一丁目１７番１号　アスナル金山 １Ｆ",
      "lat": 35.143739146,
      "lng": 136.900138909,
      "geocoding_level": 8,
      "phone": "",
      "license_no": "7中保管第1-491号",
      "license_date": "2025-06-20",
      "expire_date": null
    },
    {
      "name": "アルファショップ",
      "name_kana": "",
      "business_type": "飲食店営業",
      "address": "名古屋市中区錦三丁目７番３号　シャトレーヌ錦ビル １Ｆ",
      "lat": 35.172509168,
      "lng": 136.90569601,
      "geocoding_level": 8,
      "phone": "",
      "license_no": "7中保管第1-434号",
      "license_date": "2025-06-18",
      "expire_date": null
    },
    {
      "name": "サイゼリヤ　大須３０１ビル店",
      "name_kana": "",
      "business_type": "飲食店営業",
      "address": "名古屋市中区大須三丁目３０番６０号　大須３０１ビル ３階",
      "lat": 35.158749253,
      "lng": 136.905282043,
      "geocoding_level": 8,
      "phone": "",
      "license_no": "7中保管第1-484号",
      "license_date": "2025-06-25",
      "expire_date": null
    },
    {
      "name": "ホノルルアサイー　大須店",
      "name_kana": "",
      "business_type": "菓子製造業",
      "address": "名古屋市中区大須四丁目１１番１４号",
      "lat": 35.158339179,
      "lng": 136.906765103,
      "geocoding_level": 8,
      "phone": "",
      "license_no": "7中保管第1-432号",
      "license_date": "2025-06-11",
      "expire_date": null
    },
    {
      "name": "セブン－イレブン　名古屋栄２丁目東店",
      "name_kana": "",
      "business_type": "飲食店営業",
      "address": "名古屋市中区栄二丁目７番１６号",
      "lat": 35.166727299,
      "lng": 136.901114751,
      "geocoding_level": 8,
      "phone": "",
      "license_no": "7中保管第1-308号",
      "license_date": "2025-06-06",
      "expire_date": null
    },
    {
      "name": "ＨＡＮＣＯＣＫ",
      "name_kana": "",
      "business_type": "飲食店営業",
      "address": "名古屋市中区錦三丁目１９番２６号　ＡＴＳ錦ビル４階Ａ４０３",
      "lat": 35.169867883,
      "lng": 136.90334222000004,
      "geocoding_level": 8,
      "phone": "",
      "license_no": "7中保管第1-353号",
      "license_date": "2025-06-10",
      "expire_date": null
    },
    {
      "name": "オステリア　モカイオ",
      "name_kana": "",
      "business_type": "飲食店営業",
      "address": "名古屋市中区錦一丁目２番１６号　スタービル １Ｆ",
      "lat": 35.172250691,
      "lng": 136.894516051,
      "geocoding_level": 8,
      "phone": "",
      "license_no": "7中保管第1-289号",
      "license_date": "2025-06-02",
      "expire_date": null
    },
    {
      "name": "エンドレスＭＫ",
      "name_kana": "",
      "business_type": "飲食店営業",
      "address": "名古屋市中区栄四丁目１２番２０号　栄ストーンビル５階C号",
      "lat": 35.166794253,
      "lng": 136.911160663,
      "geocoding_level": 8,
      "phone": "",
      "license_no": "7中保管第1-331号",
      "license_date": "2025-06-02",
      "expire_date": null
    },
    {
      "name": "名古屋　なだ万",
      "name_kana": "",
      "business_type": "飲食店営業",
      "address": "名古屋市中区栄四丁目６番８号　名古屋東急ホテル ２階",
      "lat": 35.169207715,
      "lng": 136.913794232,
      "geocoding_level": 8,
      "phone": "",
      "license_no": "7中保管第1-255号",
      "license_date": "2025-06-02",
      "expire_date": null
    },
    {
      "name": "サステキ",
      "name_kana": "",
      "business_type": "飲食店営業",
      "address": "名古屋市中区新栄一丁目５番６号　スタービル６階Ｂ号",
      "lat": 35.16946999,
      "lng": 136.917596723,
      "geocoding_level": 8,
      "phone": "",
      "license_no": "7中保管第1-376号",
      "license_date": "2025-06-03",
      "expire_date": null
    },
    {
      "name": "ａｕｔｕｍｎ　ｒｅｎ",
      "name_kana": "",
      "business_type": "飲食店営業",
      "address": "名古屋市中区大須二丁目１８番１４号",
      "lat": 35.15940274700001,
      "lng": 136.900583009,
      "geocoding_level": 8,
      "phone": "",
      "license_no": "7中保管第1-288号",
      "license_date": "2025-06-03",
      "expire_date": null
    },
    {
      "name": "ｋｏｒｅａｎ　ｄｉｎｉｎｇ　Ｍａｒｕ",
      "name_kana": "",
      "business_type": "飲食店営業",
      "address": "名古屋市中区錦三丁目７番２９号　ANNEX　PIA５ビル　１F",
      "lat": 35.172084987,
      "lng": 136.905493277,
      "geocoding_level": 8,
      "phone": "",
      "license_no": "7中保管第1-307号",
      "license_date": "2025-06-03",
      "expire_date": null
    },
    {
      "name": "スパゲッティハウス　ＨＩＲＯＳＨＩ",
      "name_kana": "",
      "business_type": "飲食店営業",
      "address": "名古屋市中区新栄二丁目４７番２号",
      "lat": 35.161161357,
      "lng": 136.921832809,
      "geocoding_level": 8,
      "phone": "",
      "license_no": "7中保管第1-290号",
      "license_date": "2025-06-03",
      "expire_date": null
    },
    {
      "name": "スガキヤ",
      "name_kana": "",
      "business_type": "飲食店営業",
      "address": "名古屋市中区錦三丁目２３番１８号　ニューサカエビル Ｂ２",
      "lat": 35.168921374,
      "lng": 136.905516651,
      "geocoding_level": 8,
      "phone": "",
      "license_no": "7中保管第1-303号",
      "license_date": "2025-06-04",
      "expire_date": null
    },
    {
      "name": "スガキヤ",
      "name_kana": "",
      "business_type": "飲食店営業",
      "address": "名古屋市中区大須三丁目２５番２８号　第１渡辺ビル １Ｆ",
      "lat": 35.159148583,
      "lng": 136.902070221,
      "geocoding_level": 8,
      "phone": "",
      "license_no": "7中保管第1-304号",
      "license_date": "2025-06-05",
      "expire_date": null
    },
    {
      "name": "鶏白湯らーめん鶏神　鶴舞店",
      "name_kana": "",
      "business_type": "飲食店営業",
      "address": "名古屋市中区千代田三丁目１１番１３番",
      "lat": 35.155693264,
      "lng": 136.915823967,
      "geocoding_level": 8,
      "phone": "",
      "license_no": "7中保管第1-345号",
      "license_date": "2025-06-05",
      "expire_date": null
    },
    {
      "name": "麻辣湯倶楽部",
      "name_kana": "",
      "business_type": "飲食店営業",
      "address": "名古屋市中区錦三丁目６番１０号　大丸ビル１Ｆ",
      "lat": 35.17261406,
      "lng": 136.907686666,
      "geocoding_level": 8,
      "phone": "",
      "license_no": "7中保管第1-228号",
      "license_date": "2025-06-12",
      "expire_date": null
    },
    {
      "name": "炭火焼鳥　しげ　金山店",
      "name_kana": "",
      "business_type": "飲食店営業",
      "address": "名古屋市中区金山一丁目１番１１号　ジャルダンシャポー１階",
      "lat": 35.146710279,
      "lng": 136.900163355,
      "geocoding_level": 8,
      "phone": "",
      "license_no": "7中保管第1-241号",
      "license_date": "2025-06-05",
      "expire_date": null
    },
    {
      "name": "Ｂａｒ　Ｖｅｒｍｏｕｔｈ",
      "name_kana": "",
      "business_type": "飲食店営業",
      "address": "名古屋市中区栄三丁目９番１７号　松樹ビル４０２号",
      "lat": 35.166872857,
      "lng": 136.904601279,
      "geocoding_level": 8,
      "phone": "",
      "license_no": "7中保管第1-414号",
      "license_date": "2025-06-16",
      "expire_date": null
    },
    {
      "name": "ＳＥＴＵＰＰＥＲ",
      "name_kana": "",
      "business_type": "飲食店営業",
      "address": "名古屋市中区栄三丁目２３番９号　アンビデックスビル２階",
      "lat": 35.164818209,
      "lng": 136.904392818,
      "geocoding_level": 8,
      "phone": "",
      "license_no": "7中保管第1-415号",
      "license_date": "2025-06-11",
      "expire_date": null
    },
    {
      "name": "やよい軒　名古屋伏見店",
      "name_kana": "",
      "business_type": "飲食店営業",
      "address": "名古屋市中区栄一丁目４番９号　加藤ビル１Ｆ",
      "lat": 35.167995255,
      "lng": 136.895919022,
      "geocoding_level": 8,
      "phone": "",
      "license_no": "7中保管第1-418号",
      "license_date": "2025-06-11",
      "expire_date": null
    },
    {
      "name": "マゴコロヤ",
      "name_kana": "",
      "business_type": "飲食店営業",
      "address": "名古屋市中区錦二丁目１３番２４号先　伏見地下街",
      "lat": 35.1696941,
      "lng": 136.90114921200004,
      "geocoding_level": 8,
      "phone": "",
      "license_no": "7中保管第1-399号",
      "license_date": "2025-06-09",
      "expire_date": null
    },
    {
      "name": "酒ＢＡＲ　ＺＥＲＯ",
      "name_kana": "",
      "business_type": "飲食店営業",
      "address": "名古屋市中区栄四丁目８番１５号　ジギースターダストビル １Ｆ（１０２）",
      "lat": 35.167219143,
      "lng": 136.913906854,
      "geocoding_level": 8,
      "phone": "",
      "license_no": "7中保管第1-326号",
      "license_date": "2025-06-06",
      "expire_date": null
    },
    {
      "name": "マリーヌ",
      "name_kana": "",
      "business_type": "飲食店営業",
      "address": "名古屋市中区新栄二丁目１０番４号　神谷ビル １Ｆ",
      "lat": 35.16875193,
      "lng": 136.921733651,
      "geocoding_level": 8,
      "phone": "",
      "license_no": "7中保管第1-365号",
      "license_date": "2025-06-09",
      "expire_date": null
    },
    {
      "name": "イル・アマーロ",
      "name_kana": "",
      "business_type": "飲食店営業",
      "address": "名古屋市中区錦三丁目１８番１３号　アミューズ錦 ８Ｆ",
      "lat": 35.170303409,
      "lng": 136.905526461,
      "geocoding_level": 8,
      "phone": "",
      "license_no": "7中保管第1-322号",
      "license_date": "2025-06-09",
      "expire_date": null
    },
    {
      "name": "小皿食堂　一拓",
      "name_kana": "",
      "business_type": "飲食店営業",
      "address": "名古屋市中区金山四丁目１番９号　マリエビル３Ｆ",
      "lat": 35.144103723,
      "lng": 136.90366334700002,
      "geocoding_level": 8,
      "phone": "",
      "license_no": "7中保管第1-410号",
      "license_date": "2025-06-10",
      "expire_date": null
    },
    {
      "name": "幸せの天才",
      "name_kana": "",
      "business_type": "飲食店営業",
      "address": "名古屋市中区錦二丁目１６番１号　アベニューフシミ１６０１　２Ｆ",
      "lat": 35.170089785,
      "lng": 136.897646627,
      "geocoding_level": 8,
      "phone": "",
      "license_no": "7中保管第1-397号",
      "license_date": "2025-06-10",
      "expire_date": null
    },
    {
      "name": "ジャストインプレミアム名古屋駅",
      "name_kana": "",
      "business_type": "飲食店営業",
      "address": "名古屋市中区丸の内一丁目１３番９号　ジャストインプレミアム名古屋駅１F",
      "lat": 35.173101363,
      "lng": 136.893209099,
      "geocoding_level": 8,
      "phone": "",
      "license_no": "7中保管第1-330号",
      "license_date": "2025-06-10",
      "expire_date": null
    },
    {
      "name": "博多花串　錦店",
      "name_kana": "",
      "business_type": "飲食店営業",
      "address": "名古屋市中区錦三丁目１２番２５号　サミットビル　２F",
      "lat": 35.170598782,
      "lng": 136.903457244,
      "geocoding_level": 8,
      "phone": "",
      "license_no": "7中保管第1-325号",
      "license_date": "2025-06-10",
      "expire_date": null
    },
    {
      "name": "御園飯店",
      "name_kana": "",
      "business_type": "飲食店営業",
      "address": "名古屋市中区栄一丁目６番７号　１Ｆ",
      "lat": 35.167665503,
      "lng": 136.89715098,
      "geocoding_level": 8,
      "phone": "",
      "license_no": "7中保管第1-428号",
      "license_date": "2025-06-26",
      "expire_date": null
    },
    {
      "name": "Ｒｖｅｒｂｅｒｅ",
      "name_kana": "",
      "business_type": "飲食店営業",
      "address": "名古屋市中区大須四丁目１番９号　菱水ビル　２階",
      "lat": 35.161823648,
      "lng": 136.907083286,
      "geocoding_level": 8,
      "phone": "",
      "license_no": "7中保管第1-409号",
      "license_date": "2025-06-11",
      "expire_date": null
    },
    {
      "name": "ＴＡＬＩＮＡ",
      "name_kana": "",
      "business_type": "飲食店営業",
      "address": "名古屋市中区丸の内三丁目１５番３２号　丸ノ内メイプルビル ４Ｆ",
      "lat": 35.17496676,
      "lng": 136.902825505,
      "geocoding_level": 8,
      "phone": "",
      "license_no": "7中保管第1-347号",
      "license_date": "2025-06-10",
      "expire_date": null
    },
    {
      "name": "Ｒｏｍａｎ",
      "name_kana": "",
      "business_type": "飲食店営業",
      "address": "名古屋市中区錦三丁目１２番１７号　内外ビル地下１階Ｂ号室",
      "lat": 35.170772639,
      "lng": 136.904264896,
      "geocoding_level": 8,
      "phone": "",
      "license_no": "7中保管第1-426号",
      "license_date": "2025-06-12",
      "expire_date": null
    },
    {
      "name": "アロハテーブル",
      "name_kana": "",
      "business_type": "飲食店営業",
      "address": "名古屋市中区金山一丁目１７番１号　 １Ｆ",
      "lat": 35.143739146,
      "lng": 136.900138909,
      "geocoding_level": 8,
      "phone": "",
      "license_no": "7中保管第1-388号",
      "license_date": "2025-06-11",
      "expire_date": null
    },
    {
      "name": "伏見バル",
      "name_kana": "",
      "business_type": "飲食店営業",
      "address": "名古屋市中区栄一丁目１１番２７号　富善ビル １Ｆ",
      "lat": 35.166622091,
      "lng": 136.896555243,
      "geocoding_level": 8,
      "phone": "",
      "license_no": "7中保管第1-384号",
      "license_date": "2025-06-11",
      "expire_date": null
    },
    {
      "name": "炭火焼鳥　まるいち",
      "name_kana": "",
      "business_type": "飲食店営業",
      "address": "名古屋市中区栄三丁目９番２２号　グランドビル １Ｆ",
      "lat": 35.16674274900001,
      "lng": 136.904148848,
      "geocoding_level": 8,
      "phone": "",
      "license_no": "7中保管第1-413号",
      "license_date": "2025-06-11",
      "expire_date": null
    },
    {
      "name": "ダンディーライオン",
      "name_kana": "",
      "business_type": "飲食店営業",
      "address": "名古屋市中区栄三丁目９番３４号　東和住吉ビル ４階 Ａ号室",
      "lat": 35.16737187,
      "lng": 136.903570111,
      "geocoding_level": 8,
      "phone": "",
      "license_no": "7中保管第1-358号",
      "license_date": "2025-06-11",
      "expire_date": null
    },
    {
      "name": "澤田商店",
      "name_kana": "",
      "business_type": "飲食店営業",
      "address": "名古屋市中区栄一丁目１３番３１号　１、２F",
      "lat": 35.165626361,
      "lng": 136.895256939,
      "geocoding_level": 8,
      "phone": "",
      "license_no": "7中保管第1-291号",
      "license_date": "2025-06-12",
      "expire_date": null
    },
    {
      "name": "ＭＩＮＧＬＥ　伏見",
      "name_kana": "",
      "business_type": "菓子製造業",
      "address": "名古屋市中区栄一丁目１３番３１号　１F",
      "lat": 35.165626361,
      "lng": 136.895256939,
      "geocoding_level": 8,
      "phone": "",
      "license_no": "7中保管第1-293号",
      "license_date": "2025-06-12",
      "expire_date": null
    },
    {
      "name": "ＭＩＮＧＬＥ　伏見",
      "name_kana": "",
      "business_type": "飲食店営業",
      "address": "名古屋市中区栄一丁目１３番３１号　１F",
      "lat": 35.165626361,
      "lng": 136.895256939,
      "geocoding_level": 8,
      "phone": "",
      "license_no": "7中保管第1-292号",
      "license_date": "2025-06-12",
      "expire_date": null
    },
    {
      "name": "ＬＡＣ　ＤＵＯＮＧ　Ⅱ",
      "name_kana": "",
      "business_type": "飲食店営業",
      "address": "名古屋市中区栄四丁目１１番２６号　女子大ビル３Ｆ",
      "lat": 35.167318655,
      "lng": 136.911805025,
      "geocoding_level": 8,
      "phone": "",
      "license_no": "7中保管第1-422号",
      "license_date": "2025-06-13",
      "expire_date": null
    },
    {
      "name": "がんばるーな　伏見店",
      "name_kana": "",
      "business_type": "飲食店営業",
      "address": "名古屋市中区錦二丁目１３番２４号先　伏見地下街　２７",
      "lat": 35.1696941,
      "lng": 136.90114921200004,
      "geocoding_level": 8,
      "phone": "",
      "license_no": "7中保管第1-406号",
      "license_date": "2025-06-12",
      "expire_date": null
    },
    {
      "name": "Ｓ’ａｌｌｉｅ",
      "name_kana": "",
      "business_type": "菓子製造業",
      "address": "名古屋市中区橘一丁目４番１１号　２階",
      "lat": 35.155281501,
      "lng": 136.900467451,
      "geocoding_level": 8,
      "phone": "",
      "license_no": "7中保管第1-336号",
      "license_date": "2025-06-13",
      "expire_date": null
    },
    {
      "name": "洋麺屋 五右衛門 メルサ栄店",
      "name_kana": "",
      "business_type": "飲食店営業",
      "address": "名古屋市中区栄三丁目４番５号　栄ビル（スカイル）　Ｂ１Ｆ",
      "lat": 35.168658267000005,
      "lng": 136.906312779,
      "geocoding_level": 8,
      "phone": "",
      "license_no": "7中保管第1-421号",
      "license_date": "2025-06-12",
      "expire_date": null
    },
    {
      "name": "ＭＡＩＳＯＮ　ＹＷＥ",
      "name_kana": "",
      "business_type": "飲食店営業",
      "address": "名古屋市中区錦二丁目６番３０号　ＢＡＳＥ　ＬＡＹＥＲ　ＨＯＴＥＬ　名古屋　１階",
      "lat": 35.171522498,
      "lng": 136.899637402,
      "geocoding_level": 8,
      "phone": "",
      "license_no": "7中保管第1-445号",
      "license_date": "2025-06-16",
      "expire_date": null
    },
    {
      "name": "三代目鳥メロ　栄広小路店",
      "name_kana": "",
      "business_type": "飲食店営業",
      "address": "名古屋市中区栄四丁目５番８号　エアリビル　３階",
      "lat": 35.169148728,
      "lng": 136.912773778,
      "geocoding_level": 8,
      "phone": "",
      "license_no": "7中保管第1-472号",
      "license_date": "2025-06-16",
      "expire_date": null
    },
    {
      "name": "ＡＢホテル名古屋栄",
      "name_kana": "",
      "business_type": "飲食店営業",
      "address": "名古屋市中区栄五丁目３番５号",
      "lat": 35.165852832,
      "lng": 136.911456495,
      "geocoding_level": 8,
      "phone": "",
      "license_no": "7中保管第1-316号",
      "license_date": "2025-06-16",
      "expire_date": null
    },
    {
      "name": "ＴＲＩＶＥＮＩ",
      "name_kana": "",
      "business_type": "飲食店営業",
      "address": "名古屋市中区丸の内二丁目８番２５号　丸の内中野ビル２Ｆ",
      "lat": 35.175793656,
      "lng": 136.897994768,
      "geocoding_level": 8,
      "phone": "",
      "license_no": "7中保管第1-343号",
      "license_date": "2025-06-13",
      "expire_date": null
    },
    {
      "name": "昔の矢場とん",
      "name_kana": "",
      "business_type": "飲食店営業",
      "address": "名古屋市中区金山一丁目１７番１号　アスナル金山 １Ｆ",
      "lat": 35.143739146,
      "lng": 136.900138909,
      "geocoding_level": 8,
      "phone": "",
      "license_no": "7中保管第1-477号",
      "license_date": "2025-06-17",
      "expire_date": null
    },
    {
      "name": "ＫＡＫＵＲＥ　Ｃａｆｆｅｅ　＆　Ｂａｒ　★ＲＣＫ★",
      "name_kana": "",
      "business_type": "飲食店営業",
      "address": "名古屋市中区大須一丁目１６番３６号",
      "lat": 35.160067209,
      "lng": 136.893008503,
      "geocoding_level": 8,
      "phone": "",
      "license_no": "7中保管第1-485号",
      "license_date": "2025-06-18",
      "expire_date": null
    },
    {
      "name": "カフェ＆ダイニングバー　Ｊｕｎｅ",
      "name_kana": "",
      "business_type": "飲食店営業",
      "address": "名古屋市中区新栄一丁目３５番４号　新栄１丁目ビル１Ｆ",
      "lat": 35.164660671,
      "lng": 136.91965934,
      "geocoding_level": 8,
      "phone": "",
      "license_no": "7中保管第1-423号",
      "license_date": "2025-06-19",
      "expire_date": null
    },
    {
      "name": "極濃豚骨らーめん小僧　名古屋錦店",
      "name_kana": "",
      "business_type": "飲食店営業",
      "address": "名古屋市中区錦三丁目１４番１４号　セントラル錦ビル１階",
      "lat": 35.171096591,
      "lng": 136.90645149,
      "geocoding_level": 8,
      "phone": "",
      "license_no": "7中保管第1-482号",
      "license_date": "2025-06-20",
      "expire_date": null
    },
    {
      "name": "ＳＩＧＮＡＬ",
      "name_kana": "",
      "business_type": "飲食店営業",
      "address": "名古屋市中区栄四丁目２１番２３号　ライオン進光ビル　２階２０５～７号室",
      "lat": 35.166553782,
      "lng": 136.914079079,
      "geocoding_level": 8,
      "phone": "",
      "license_no": "7中保管第1-486号",
      "license_date": "2025-06-23",
      "expire_date": null
    },
    {
      "name": "ｇｕｒｉ",
      "name_kana": "",
      "business_type": "飲食店営業",
      "address": "名古屋市中区錦三丁目３番１９号　ＪＰ錦ビル５階　全号室",
      "lat": 35.17260968,
      "lng": 136.90514056700002,
      "geocoding_level": 8,
      "phone": "",
      "license_no": "7中保管第1-429号",
      "license_date": "2025-06-19",
      "expire_date": null
    },
    {
      "name": "ファミリーマート桜通本町店",
      "name_kana": "",
      "business_type": "飲食店営業",
      "address": "名古屋市中区丸の内二丁目２０番１９号　名古屋東京海上日動ビルディング１Ｆ",
      "lat": 35.173551675,
      "lng": 136.901418801,
      "geocoding_level": 8,
      "phone": "",
      "license_no": "7中保管第1-359号",
      "license_date": "2025-06-23",
      "expire_date": null
    },
    {
      "name": "ＥＬＥＶＥＮ　ＢＡＳＥ",
      "name_kana": "",
      "business_type": "飲食店営業",
      "address": "名古屋市中区栄五丁目１６番１４号　新東陽ビル９階",
      "lat": 35.162902604,
      "lng": 136.909720274,
      "geocoding_level": 8,
      "phone": "",
      "license_no": "7中保管第1-504号",
      "license_date": "2025-06-25",
      "expire_date": null
    },
    {
      "name": "スタンツァ・マローネ",
      "name_kana": "",
      "business_type": "飲食店営業",
      "address": "名古屋市中区東桜二丁目１８番２４号　サンマルコビル Ｂ１Ｆ",
      "lat": 35.16979704,
      "lng": 136.918494044,
      "geocoding_level": 8,
      "phone": "",
      "license_no": "7中保管第1-468号",
      "license_date": "2025-06-20",
      "expire_date": null
    },
    {
      "name": "とんかつ　マ・メゾン　アスナル金山店",
      "name_kana": "",
      "business_type": "飲食店営業",
      "address": "名古屋市中区金山一丁目１７番１号　アスナル金山 １Ｆ",
      "lat": 35.143739146,
      "lng": 136.900138909,
      "geocoding_level": 8,
      "phone": "",
      "license_no": "7中保管第1-492号",
      "license_date": "2025-06-20",
      "expire_date": null
    },
    {
      "name": "カレーうどん　千吉",
      "name_kana": "",
      "business_type": "飲食店営業",
      "address": "名古屋市中区錦二丁目１６番１１号",
      "lat": 35.169835491,
      "lng": 136.898459267,
      "geocoding_level": 8,
      "phone": "",
      "license_no": "7中保管第1-524号",
      "license_date": "2025-06-25",
      "expire_date": null
    },
    {
      "name": "ラウンジ  Ｌａ　ｍｅｒ",
      "name_kana": "",
      "business_type": "飲食店営業",
      "address": "名古屋市中区錦三丁目１８番１３号　アミューズ錦ビル２階A号室",
      "lat": 35.170303409,
      "lng": 136.905526461,
      "geocoding_level": 8,
      "phone": "",
      "license_no": "7中保管第1-539号",
      "license_date": "2025-06-26",
      "expire_date": null
    },
    {
      "name": "文化洋食店　松坂屋北館店",
      "name_kana": "",
      "business_type": "飲食店営業",
      "address": "名古屋市中区栄三丁目１５番２０号　松坂屋北館地下１階",
      "lat": 35.165935232,
      "lng": 136.908368461,
      "geocoding_level": 8,
      "phone": "",
      "license_no": "7中保管第1-380号",
      "license_date": "2025-06-26",
      "expire_date": null
    },
    {
      "name": "ＭＯＯＮ",
      "name_kana": "",
      "business_type": "飲食店営業",
      "address": "名古屋市中区栄三丁目１３番３１号　プリンセスガーデンホテルＢ１",
      "lat": 35.16641033,
      "lng": 136.904866747,
      "geocoding_level": 8,
      "phone": "",
      "license_no": "7中保管第1-567号",
      "license_date": "2025-06-30",
      "expire_date": null
    },
    {
      "name": "マクドナルド伏見広小路店",
      "name_kana": "",
      "business_type": "飲食店営業",
      "address": "名古屋市中区栄二丁目１番１号　日土地名古屋ビル　Ｂ１",
      "lat": 35.168045663,
      "lng": 136.897862011,
      "geocoding_level": 8,
      "phone": "",
      "license_no": "7中保管第1-383号",
      "license_date": "2025-06-27",
      "expire_date": null
    },
    {
      "name": "フードショップ　イトウ",
      "name_kana": "",
      "business_type": "魚介類販売業",
      "address": "名古屋市中区大須三丁目３４番２１号",
      "lat": 35.158498735,
      "lng": 136.903966533,
      "geocoding_level": 8,
      "phone": "",
      "license_no": "7中保管第1-501号",
      "license_date": "2025-06-20",
      "expire_date": null
    },
    {
      "name": "ｂａｒ　Ｄｅｅ",
      "name_kana": "",
      "business_type": "飲食店営業",
      "address": "名古屋市中区千代田三丁目３２番２０号　千代田コーポ １Ｆ",
      "lat": 35.153072033,
      "lng": 136.912210397,
      "geocoding_level": 8,
      "phone": "",
      "license_no": "7中保管第1-505号",
      "license_date": "2025-06-27",
      "expire_date": null
    },
    {
      "name": "ラブ　トレイン",
      "name_kana": "",
      "business_type": "飲食店営業",
      "address": "名古屋市中区錦三丁目９番１５号　サンロード錦ビル ５Ｆ",
      "lat": 35.171915807,
      "lng": 136.904145112,
      "geocoding_level": 8,
      "phone": "",
      "license_no": "7中保管第1-512号",
      "license_date": "2025-06-27",
      "expire_date": null
    },
    {
      "name": "ｍｅｍｂｅｒ’ｓ　Ｊｕｎｏ",
      "name_kana": "",
      "business_type": "飲食店営業",
      "address": "名古屋市中区錦三丁目８番１５号　第２山清ビル　３階　C号室",
      "lat": 35.171999358,
      "lng": 136.905327408,
      "geocoding_level": 8,
      "phone": "",
      "license_no": "7中保管第1-523号",
      "license_date": "2025-06-30",
      "expire_date": null
    },
    {
      "name": "有限会社や松本店",
      "name_kana": "",
      "business_type": "飲食店営業",
      "address": "名古屋市中区丸の内一丁目１０番１７号",
      "lat": 35.174010121,
      "lng": 136.89543373,
      "geocoding_level": 8,
      "phone": "",
      "license_no": "7中保管第1-549号",
      "license_date": "2025-06-30",
      "expire_date": null
    },
    {
      "name": "マホロバ",
      "name_kana": "",
      "business_type": "飲食店営業",
      "address": "名古屋市中区千代田四丁目１１番８号　鶴舞アネックス１階A",
      "lat": 35.152507153,
      "lng": 136.91181076,
      "geocoding_level": 8,
      "phone": "",
      "license_no": "7中保管第1-551号",
      "license_date": "2025-06-30",
      "expire_date": null
    }
  ]
}
