{
  "meta": {
    "updated": 1783906731,
    "sources": [
      {
        "source": "福島県食品営業許可施設一覧",
        "license": "CC BY 2.1 JP"
      },
      {
        "source": "厚生労働省 食品衛生申請等システム（オープンデータ）",
        "license": "公共データ利用規約（第1.0版, PDL1.0）"
      }
    ]
  },
  "data": [
    {
      "name": "幸助",
      "name_kana": "",
      "business_type": "飲食店営業",
      "address": "石川郡石川町字南町４０－６",
      "lat": 37.146131484,
      "lng": 140.45388663,
      "geocoding_level": 8,
      "phone": "0247-26-7972",
      "license_no": "2-246",
      "license_date": null,
      "expire_date": null
    },
    {
      "name": "喜山食堂",
      "name_kana": "",
      "business_type": "飲食店営業",
      "address": "石川郡石川町字境ノ内１９２－２",
      "lat": 37.154219224,
      "lng": 140.457345512,
      "geocoding_level": 8,
      "phone": "0247-26-5088",
      "license_no": "2-183",
      "license_date": null,
      "expire_date": null
    },
    {
      "name": "美保旅舘",
      "name_kana": "",
      "business_type": "飲食店営業",
      "address": "石川郡石川町字下泉１",
      "lat": 37.144342,
      "lng": 140.45225,
      "geocoding_level": 3,
      "phone": "0247-26-2860",
      "license_no": "2-257",
      "license_date": null,
      "expire_date": null
    },
    {
      "name": "西田屋",
      "name_kana": "",
      "business_type": "飲食店営業",
      "address": "石川郡石川町字猫啼２７",
      "lat": 37.135510434,
      "lng": 140.43634014900002,
      "geocoding_level": 8,
      "phone": "0247-26-1012",
      "license_no": "2-179",
      "license_date": null,
      "expire_date": null
    },
    {
      "name": "レストラングリーン",
      "name_kana": "",
      "business_type": "飲食店営業",
      "address": "石川郡石川町字塩ノ平１９６－８",
      "lat": 37.165860637,
      "lng": 140.432054328,
      "geocoding_level": 8,
      "phone": "0247-26-0580",
      "license_no": "2-362",
      "license_date": null,
      "expire_date": null
    },
    {
      "name": "スナック潤",
      "name_kana": "",
      "business_type": "飲食店営業",
      "address": "石川郡石川町字南町３５",
      "lat": 37.14637,
      "lng": 140.454454,
      "geocoding_level": 3,
      "phone": "0247-26-2885",
      "license_no": "2-185",
      "license_date": null,
      "expire_date": null
    },
    {
      "name": "フレッシュマートせきね",
      "name_kana": "",
      "business_type": "飲食店営業",
      "address": "石川郡石川町字立ケ岡３３５－２",
      "lat": 37.135971259,
      "lng": 140.445315796,
      "geocoding_level": 8,
      "phone": "0247-26-2620",
      "license_no": "2-364",
      "license_date": null,
      "expire_date": null
    },
    {
      "name": "フレッシュマートせきね",
      "name_kana": "",
      "business_type": "魚介類販売業",
      "address": "石川郡石川町字立ケ岡３３５－２",
      "lat": 37.135971259,
      "lng": 140.445315796,
      "geocoding_level": 8,
      "phone": "0247-26-2620",
      "license_no": "2-365",
      "license_date": null,
      "expire_date": null
    },
    {
      "name": "林魚店",
      "name_kana": "",
      "business_type": "飲食店営業",
      "address": "石川郡石川町字大室５５４",
      "lat": 37.140697,
      "lng": 140.45352,
      "geocoding_level": 3,
      "phone": "0247-26-1472",
      "license_no": "2-258",
      "license_date": null,
      "expire_date": null
    },
    {
      "name": "林魚店",
      "name_kana": "",
      "business_type": "魚介類販売業",
      "address": "石川郡石川町字大室５５４",
      "lat": 37.140697,
      "lng": 140.45352,
      "geocoding_level": 3,
      "phone": "0247-26-1472",
      "license_no": "2-260",
      "license_date": null,
      "expire_date": null
    },
    {
      "name": "ホズミ・ソラ",
      "name_kana": "",
      "business_type": "菓子製造業",
      "address": "石川郡石川町字北町９６",
      "lat": 37.152010393,
      "lng": 140.45628348,
      "geocoding_level": 8,
      "phone": "0247-26-2373",
      "license_no": "2-186",
      "license_date": null,
      "expire_date": null
    },
    {
      "name": "加ト吉水産株式会社フーズ部福島工場",
      "name_kana": "",
      "business_type": "冷凍食品製造業",
      "address": "石川郡石川町字猫啼１７２番地",
      "lat": 37.132772,
      "lng": 140.429221,
      "geocoding_level": 3,
      "phone": "0247-26-3325",
      "license_no": "2-248",
      "license_date": null,
      "expire_date": null
    },
    {
      "name": "会田魚店",
      "name_kana": "",
      "business_type": "魚介類販売業",
      "address": "石川郡石川町字鹿ノ坂３６３",
      "lat": 37.148844,
      "lng": 140.44617800000003,
      "geocoding_level": 3,
      "phone": "0247-26-4836",
      "license_no": "2-180",
      "license_date": null,
      "expire_date": null
    },
    {
      "name": "石井屋",
      "name_kana": "",
      "business_type": "魚介類販売業",
      "address": "石川郡石川町大字母畑字樋田４１－９",
      "lat": 37.157055,
      "lng": 140.446767,
      "geocoding_level": 2,
      "phone": "0247-26-1543",
      "license_no": "2-183",
      "license_date": null,
      "expire_date": null
    },
    {
      "name": "石井屋",
      "name_kana": "",
      "business_type": "食肉販売業",
      "address": "石川郡石川町大字母畑字樋田４１－９",
      "lat": 37.157055,
      "lng": 140.446767,
      "geocoding_level": 2,
      "phone": "0247-26-1543",
      "license_no": "2-184",
      "license_date": null,
      "expire_date": null
    },
    {
      "name": "吉田食品",
      "name_kana": "",
      "business_type": "みそ又はしょうゆ製造業",
      "address": "石川郡石川町大字双里字谷津前２８－２",
      "lat": 37.148943967,
      "lng": 140.468566963,
      "geocoding_level": 8,
      "phone": "0247-26-1830",
      "license_no": "2-185",
      "license_date": null,
      "expire_date": null
    },
    {
      "name": "吉田食品",
      "name_kana": "",
      "business_type": "納豆製造業",
      "address": "石川郡石川町大字双里字谷津前２８－２",
      "lat": 37.148943967,
      "lng": 140.468566963,
      "geocoding_level": 8,
      "phone": "0247-26-1830",
      "license_no": "2-186",
      "license_date": null,
      "expire_date": null
    },
    {
      "name": "女庭鉱泉",
      "name_kana": "",
      "business_type": "飲食店営業",
      "address": "石川郡石川町大字板橋字女庭１１５",
      "lat": 37.091454297,
      "lng": 140.480471864,
      "geocoding_level": 8,
      "phone": "",
      "license_no": "2-250",
      "license_date": null,
      "expire_date": null
    },
    {
      "name": "みやこ旅館",
      "name_kana": "",
      "business_type": "飲食店営業",
      "address": "石川郡石川町字当町１６－１",
      "lat": 37.143517578,
      "lng": 140.447494675,
      "geocoding_level": 8,
      "phone": "0247-26-1057",
      "license_no": "2-189",
      "license_date": null,
      "expire_date": null
    },
    {
      "name": "片倉温泉薬王館",
      "name_kana": "",
      "business_type": "飲食店営業",
      "address": "石川郡石川町字立ケ岡１７８",
      "lat": 37.135906,
      "lng": 140.446409,
      "geocoding_level": 3,
      "phone": "0247-26-2206",
      "license_no": "2-187",
      "license_date": null,
      "expire_date": null
    },
    {
      "name": "いっぷく処昭和軒",
      "name_kana": "",
      "business_type": "飲食店営業",
      "address": "石川郡石川町字南町１８－２",
      "lat": 37.145583676,
      "lng": 140.453808137,
      "geocoding_level": 8,
      "phone": "0247-26-2528",
      "license_no": "2-189",
      "license_date": null,
      "expire_date": null
    },
    {
      "name": "丸昌精肉店",
      "name_kana": "",
      "business_type": "飲食店営業",
      "address": "石川郡石川町字北町４５",
      "lat": 37.150747545,
      "lng": 140.456222511,
      "geocoding_level": 8,
      "phone": "0247-26-1695",
      "license_no": "2-192",
      "license_date": null,
      "expire_date": null
    },
    {
      "name": "丸昌精肉店",
      "name_kana": "",
      "business_type": "食肉販売業",
      "address": "石川郡石川町字北町４５",
      "lat": 37.150747545,
      "lng": 140.456222511,
      "geocoding_level": 8,
      "phone": "0247-26-1695",
      "license_no": "2-193",
      "license_date": null,
      "expire_date": null
    },
    {
      "name": "寿亭",
      "name_kana": "",
      "business_type": "飲食店営業",
      "address": "石川郡石川町大字沢井字上ノ原９６－１３",
      "lat": 37.1415365,
      "lng": 140.397075203,
      "geocoding_level": 8,
      "phone": "0247-26-0657",
      "license_no": "2-368",
      "license_date": null,
      "expire_date": null
    },
    {
      "name": "峰清館",
      "name_kana": "",
      "business_type": "飲食店営業",
      "address": "石川郡石川町字新町９２",
      "lat": 37.148187,
      "lng": 140.455507,
      "geocoding_level": 3,
      "phone": "0247-26-1115",
      "license_no": "2-369",
      "license_date": null,
      "expire_date": null
    },
    {
      "name": "恵びす屋",
      "name_kana": "",
      "business_type": "菓子製造業",
      "address": "石川郡石川町字新町１２",
      "lat": 37.147908124,
      "lng": 140.457460334,
      "geocoding_level": 8,
      "phone": "0247-26-1082",
      "license_no": "2-370",
      "license_date": null,
      "expire_date": null
    },
    {
      "name": "ラーメン舞",
      "name_kana": "",
      "business_type": "飲食店営業",
      "address": "石川郡石川町字南町３５",
      "lat": 37.14637,
      "lng": 140.454454,
      "geocoding_level": 3,
      "phone": "0247-26-3883",
      "license_no": "2-262",
      "license_date": null,
      "expire_date": null
    },
    {
      "name": "（株）お菓子のさかい",
      "name_kana": "",
      "business_type": "菓子製造業",
      "address": "石川郡石川町字長久保２７７－２０",
      "lat": 37.156122861,
      "lng": 140.448877802,
      "geocoding_level": 8,
      "phone": "0247-26-2522",
      "license_no": "2-263",
      "license_date": null,
      "expire_date": null
    },
    {
      "name": "紅天楼",
      "name_kana": "",
      "business_type": "飲食店営業",
      "address": "石川郡石川町字高田１５９－１",
      "lat": 37.14970494100001,
      "lng": 140.453248939,
      "geocoding_level": 8,
      "phone": "0247-26-5199",
      "license_no": "2-190",
      "license_date": null,
      "expire_date": null
    },
    {
      "name": "スナックパルジュー",
      "name_kana": "",
      "business_type": "飲食店営業",
      "address": "石川郡石川町字新町５５",
      "lat": 37.147843471,
      "lng": 140.455468672,
      "geocoding_level": 8,
      "phone": "0247-26-7886",
      "license_no": "2-373",
      "license_date": null,
      "expire_date": null
    },
    {
      "name": "井筒屋",
      "name_kana": "",
      "business_type": "飲食店営業",
      "address": "石川郡石川町字猫啼２２",
      "lat": 37.135368722,
      "lng": 140.437004965,
      "geocoding_level": 8,
      "phone": "0247-26-1131",
      "license_no": "2-374",
      "license_date": null,
      "expire_date": null
    },
    {
      "name": "井筒屋ラウンジしきぶ",
      "name_kana": "",
      "business_type": "飲食店営業",
      "address": "石川郡石川町字猫啼２２",
      "lat": 37.135368722,
      "lng": 140.437004965,
      "geocoding_level": 8,
      "phone": "0247-26-1131",
      "license_no": "2-375",
      "license_date": null,
      "expire_date": null
    },
    {
      "name": "めん処「月見茶屋」",
      "name_kana": "",
      "business_type": "飲食店営業",
      "address": "石川郡石川町大字母畑字樋田７５－１",
      "lat": 37.157055,
      "lng": 140.446767,
      "geocoding_level": 2,
      "phone": "0247-26-3131",
      "license_no": "2-192",
      "license_date": null,
      "expire_date": null
    },
    {
      "name": "コーヒーラウンジ「月の樹」",
      "name_kana": "",
      "business_type": "飲食店営業",
      "address": "石川郡石川町大字母畑字樋田７５－１",
      "lat": 37.157055,
      "lng": 140.446767,
      "geocoding_level": 2,
      "phone": "0247-26-3131",
      "license_no": "2-193",
      "license_date": null,
      "expire_date": null
    },
    {
      "name": "ナイト・ステージ「銀河」",
      "name_kana": "",
      "business_type": "飲食店営業",
      "address": "石川郡石川町大字母畑字樋田７５－１",
      "lat": 37.157055,
      "lng": 140.446767,
      "geocoding_level": 2,
      "phone": "0247-26-3131",
      "license_no": "2-194",
      "license_date": null,
      "expire_date": null
    },
    {
      "name": "カラオケスナック「織姫」・「彦星」・「コメット」",
      "name_kana": "",
      "business_type": "飲食店営業",
      "address": "石川郡石川町大字母畑字樋田７５－１",
      "lat": 37.157055,
      "lng": 140.446767,
      "geocoding_level": 2,
      "phone": "0247-26-3131",
      "license_no": "2-195",
      "license_date": null,
      "expire_date": null
    },
    {
      "name": "田中屋",
      "name_kana": "",
      "business_type": "飲食店営業",
      "address": "石川郡石川町字南町４２－３",
      "lat": 37.146262585,
      "lng": 140.453603365,
      "geocoding_level": 8,
      "phone": "0247-26-2856",
      "license_no": "2-384",
      "license_date": null,
      "expire_date": null
    },
    {
      "name": "養老乃瀧いわき石川店",
      "name_kana": "",
      "business_type": "飲食店営業",
      "address": "石川郡石川町字下泉５",
      "lat": 37.144342,
      "lng": 140.45225,
      "geocoding_level": 3,
      "phone": "0247-26-2350",
      "license_no": "2-270",
      "license_date": null,
      "expire_date": null
    },
    {
      "name": "有限会社大膳",
      "name_kana": "",
      "business_type": "飲食店営業",
      "address": "石川郡石川町字南町７２",
      "lat": 37.14637,
      "lng": 140.454454,
      "geocoding_level": 3,
      "phone": "0247-26-2234",
      "license_no": "2-274",
      "license_date": null,
      "expire_date": null
    },
    {
      "name": "有限会社大膳",
      "name_kana": "",
      "business_type": "そうざい製造業",
      "address": "石川郡石川町字南町７２",
      "lat": 37.14637,
      "lng": 140.454454,
      "geocoding_level": 3,
      "phone": "0247-26-2234",
      "license_no": "1-90",
      "license_date": null,
      "expire_date": null
    },
    {
      "name": "よしだや　中野店",
      "name_kana": "",
      "business_type": "菓子製造業",
      "address": "石川郡石川町大字中野字矢ノ内５７－２",
      "lat": 37.181853516,
      "lng": 140.419025546,
      "geocoding_level": 8,
      "phone": "0247-26-7288",
      "license_no": "2-275",
      "license_date": null,
      "expire_date": null
    },
    {
      "name": "株式会社タゴショウフーズ日の丸亭石川南町店",
      "name_kana": "",
      "business_type": "飲食店営業",
      "address": "石川郡石川町字南町８－２",
      "lat": 37.145145894,
      "lng": 140.454258353,
      "geocoding_level": 8,
      "phone": "0247-26-6911",
      "license_no": "2-201",
      "license_date": null,
      "expire_date": null
    },
    {
      "name": "（有）食道楽ひさご",
      "name_kana": "",
      "business_type": "飲食店営業",
      "address": "石川郡石川町大字塩沢字大日向７２",
      "lat": 37.162925342,
      "lng": 140.443553452,
      "geocoding_level": 8,
      "phone": "0247-26-5305",
      "license_no": "2-263",
      "license_date": null,
      "expire_date": null
    },
    {
      "name": "有限会社松山製麺所",
      "name_kana": "",
      "business_type": "麺類製造業",
      "address": "石川郡石川町大字双里字本宮６５－１",
      "lat": 37.147752911000005,
      "lng": 140.460563576,
      "geocoding_level": 8,
      "phone": "0247-26-2845",
      "license_no": "2-277",
      "license_date": null,
      "expire_date": null
    },
    {
      "name": "リオン・ドール石川店",
      "name_kana": "",
      "business_type": "魚介類販売業",
      "address": "石川郡石川町大字双里字赤沼５",
      "lat": 37.147701655,
      "lng": 140.465543456,
      "geocoding_level": 8,
      "phone": "0247-26-1141",
      "license_no": "2-389",
      "license_date": null,
      "expire_date": null
    },
    {
      "name": "本格手打そば・うどん　芭蕉苑本店",
      "name_kana": "",
      "business_type": "飲食店営業",
      "address": "石川郡石川町大字中野字八斗蒔５－５",
      "lat": 37.175216787,
      "lng": 140.421773638,
      "geocoding_level": 8,
      "phone": "0247-26-1505",
      "license_no": "2-202",
      "license_date": null,
      "expire_date": null
    },
    {
      "name": "（有）高蔵内ホテル",
      "name_kana": "",
      "business_type": "飲食店営業",
      "address": "石川郡石川町大字母畑字湯前３２－１",
      "lat": 37.166655286,
      "lng": 140.46718713,
      "geocoding_level": 8,
      "phone": "0247-26-5111",
      "license_no": "2-270",
      "license_date": null,
      "expire_date": null
    },
    {
      "name": "居酒屋　Ｂｅｅｒｓ’",
      "name_kana": "",
      "business_type": "飲食店営業",
      "address": "石川郡石川町字南町５５－３",
      "lat": 37.146636804,
      "lng": 140.453662975,
      "geocoding_level": 8,
      "phone": "0247-26-8002",
      "license_no": "2-264",
      "license_date": null,
      "expire_date": null
    },
    {
      "name": "ラーメンハウスこぅこぅ亭",
      "name_kana": "",
      "business_type": "飲食店営業",
      "address": "石川郡石川町字石田４３－１",
      "lat": 37.16107019100001,
      "lng": 140.445014525,
      "geocoding_level": 8,
      "phone": "0247-26-8718",
      "license_no": "2-398",
      "license_date": null,
      "expire_date": null
    },
    {
      "name": "有限会社みはる屋",
      "name_kana": "",
      "business_type": "菓子製造業",
      "address": "石川郡石川町字下泉２４０",
      "lat": 37.144342,
      "lng": 140.45225,
      "geocoding_level": 3,
      "phone": "0247-26-1313",
      "license_no": "2-400",
      "license_date": null,
      "expire_date": null
    },
    {
      "name": "幸っちゃん",
      "name_kana": "",
      "business_type": "飲食店営業",
      "address": "石川郡石川町字高田１５９－２",
      "lat": 37.149475302,
      "lng": 140.45308314,
      "geocoding_level": 8,
      "phone": "0247-26-0302",
      "license_no": "2-206",
      "license_date": null,
      "expire_date": null
    },
    {
      "name": "津幡商店",
      "name_kana": "",
      "business_type": "魚介類販売業",
      "address": "石川郡石川町大字双里字双里２２－１",
      "lat": 37.146886435,
      "lng": 140.473374726,
      "geocoding_level": 8,
      "phone": "0247-26-2775",
      "license_no": "2-402",
      "license_date": null,
      "expire_date": null
    },
    {
      "name": "蕎麦美人",
      "name_kana": "",
      "business_type": "飲食店営業",
      "address": "石川郡石川町大字湯郷渡字米子平１",
      "lat": 37.167473671,
      "lng": 140.46900953,
      "geocoding_level": 8,
      "phone": "0247-26-1251",
      "license_no": "2-403",
      "license_date": null,
      "expire_date": null
    },
    {
      "name": "みなみ",
      "name_kana": "",
      "business_type": "飲食店営業",
      "address": "石川郡石川町字鹿ノ坂７",
      "lat": 37.147178077,
      "lng": 140.452604699,
      "geocoding_level": 8,
      "phone": "0247-26-5700",
      "license_no": "2-270",
      "license_date": null,
      "expire_date": null
    },
    {
      "name": "スナック苺",
      "name_kana": "",
      "business_type": "飲食店営業",
      "address": "石川郡石川町字南町３５－７",
      "lat": 37.146073131,
      "lng": 140.453819562,
      "geocoding_level": 8,
      "phone": "0247-26-0990",
      "license_no": "2-271",
      "license_date": null,
      "expire_date": null
    },
    {
      "name": "株式会社お菓子のさかい荒町本店",
      "name_kana": "",
      "business_type": "飲食店営業",
      "address": "石川郡石川町字下泉２３１",
      "lat": 37.144218579,
      "lng": 140.45445742900003,
      "geocoding_level": 8,
      "phone": "0247-26-2823",
      "license_no": "2-211",
      "license_date": null,
      "expire_date": null
    },
    {
      "name": "株式会社お菓子のさかい荒町本店",
      "name_kana": "",
      "business_type": "菓子製造業",
      "address": "石川郡石川町字下泉２３１",
      "lat": 37.144218579,
      "lng": 140.45445742900003,
      "geocoding_level": 8,
      "phone": "0247-26-2823",
      "license_no": "2-212",
      "license_date": null,
      "expire_date": null
    },
    {
      "name": "有限会社鈴木畜産",
      "name_kana": "",
      "business_type": "食肉販売業",
      "address": "石川郡石川町大字坂路字馬場宿７８",
      "lat": 37.157055,
      "lng": 140.446767,
      "geocoding_level": 2,
      "phone": "0247-26-1721",
      "license_no": "2-213",
      "license_date": null,
      "expire_date": null
    },
    {
      "name": "ヨークベニマルメガステージ石川店",
      "name_kana": "",
      "business_type": "飲食店営業",
      "address": "石川郡石川町字長久保２９４－７",
      "lat": 37.154910897,
      "lng": 140.445954157,
      "geocoding_level": 8,
      "phone": "0247-56-4301",
      "license_no": "2-273",
      "license_date": null,
      "expire_date": null
    },
    {
      "name": "ヨークベニマルメガステージ石川店",
      "name_kana": "",
      "business_type": "魚介類販売業",
      "address": "石川郡石川町字長久保２９４－７",
      "lat": 37.154910897,
      "lng": 140.445954157,
      "geocoding_level": 8,
      "phone": "0247-56-4301",
      "license_no": "2-274",
      "license_date": null,
      "expire_date": null
    },
    {
      "name": "ヨークベニマルメガステージ石川店",
      "name_kana": "",
      "business_type": "食肉販売業",
      "address": "石川郡石川町字長久保２９４－７",
      "lat": 37.154910897,
      "lng": 140.445954157,
      "geocoding_level": 8,
      "phone": "0247-56-4301",
      "license_no": "2-275",
      "license_date": null,
      "expire_date": null
    },
    {
      "name": "ヨークベニマルメガステージ石川店",
      "name_kana": "",
      "business_type": "菓子製造業",
      "address": "石川郡石川町字長久保２９４番地７　ヨークベニマル石川店内",
      "lat": 37.154910897,
      "lng": 140.445954157,
      "geocoding_level": 8,
      "phone": "0247-56-4301",
      "license_no": "2-277",
      "license_date": null,
      "expire_date": null
    },
    {
      "name": "ヨークベニマルメガステージ石川店",
      "name_kana": "",
      "business_type": "そうざい製造業",
      "address": "石川郡石川町字長久保２９４番地７",
      "lat": 37.154910897,
      "lng": 140.445954157,
      "geocoding_level": 8,
      "phone": "0247-56-4301",
      "license_no": "1-137",
      "license_date": null,
      "expire_date": null
    },
    {
      "name": "たけしま",
      "name_kana": "",
      "business_type": "飲食店営業",
      "address": "石川郡石川町字古舘３７６",
      "lat": 37.152397056,
      "lng": 140.454522431,
      "geocoding_level": 8,
      "phone": "0247-26-1480",
      "license_no": "2-280",
      "license_date": null,
      "expire_date": null
    },
    {
      "name": "（有）すし扇仕出しセンター",
      "name_kana": "",
      "business_type": "飲食店営業",
      "address": "石川郡石川町大字双里字谷津５７－５",
      "lat": 37.153660201,
      "lng": 140.468570499,
      "geocoding_level": 8,
      "phone": "0247-26-0432",
      "license_no": "2-279",
      "license_date": null,
      "expire_date": null
    },
    {
      "name": "ショークラブダイヤモンドスター",
      "name_kana": "",
      "business_type": "飲食店営業",
      "address": "石川郡石川町大字湯郷渡字米子平１０７",
      "lat": 37.157055,
      "lng": 140.446767,
      "geocoding_level": 2,
      "phone": "0247-56-3313",
      "license_no": "2-280",
      "license_date": null,
      "expire_date": null
    },
    {
      "name": "ふかや斎苑",
      "name_kana": "",
      "business_type": "飲食店営業",
      "address": "石川郡石川町字王子平４７７",
      "lat": 37.141222042,
      "lng": 140.417001088,
      "geocoding_level": 8,
      "phone": "0247-26-1059",
      "license_no": "2-284",
      "license_date": null,
      "expire_date": null
    },
    {
      "name": "愛恵給食センター",
      "name_kana": "",
      "business_type": "飲食店営業",
      "address": "石川郡石川町字古舘３４０",
      "lat": 37.153452872,
      "lng": 140.455656779,
      "geocoding_level": 8,
      "phone": "0247-26-1181",
      "license_no": "2-319",
      "license_date": null,
      "expire_date": null
    },
    {
      "name": "農園やい子ばあちゃん",
      "name_kana": "",
      "business_type": "飲食店営業",
      "address": "石川郡石川町大字南山形字羽貫田１４１",
      "lat": 37.109832944,
      "lng": 140.475044507,
      "geocoding_level": 8,
      "phone": "0247-26-4773",
      "license_no": "2-207",
      "license_date": null,
      "expire_date": null
    },
    {
      "name": "農園やい子ばあちゃん",
      "name_kana": "",
      "business_type": "菓子製造業",
      "address": "石川郡石川町大字南山形字羽貫田１４１",
      "lat": 37.109832944,
      "lng": 140.475044507,
      "geocoding_level": 8,
      "phone": "0247-26-4773",
      "license_no": "2-208",
      "license_date": null,
      "expire_date": null
    },
    {
      "name": "農園やい子ばあちゃん",
      "name_kana": "",
      "business_type": "そうざい製造業",
      "address": "石川郡石川町大字南山形字羽貫田１４１",
      "lat": 37.109832944,
      "lng": 140.475044507,
      "geocoding_level": 8,
      "phone": "0247-26-4773",
      "license_no": "1-27",
      "license_date": null,
      "expire_date": null
    },
    {
      "name": "農園やい子ばあちゃん",
      "name_kana": "",
      "business_type": "密封包装食品製造業",
      "address": "石川郡石川町大字南山形字羽貫田１４１",
      "lat": 37.109832944,
      "lng": 140.475044507,
      "geocoding_level": 8,
      "phone": "0247-26-4773",
      "license_no": "2-283",
      "license_date": null,
      "expire_date": null
    },
    {
      "name": "ＭＵＳＩＣ　ＭＩＤＯＲＩ",
      "name_kana": "",
      "business_type": "飲食店営業",
      "address": "石川郡石川町字下泉１６８－３",
      "lat": 37.143915244,
      "lng": 140.453812481,
      "geocoding_level": 8,
      "phone": "0247-26-3303",
      "license_no": "2-412",
      "license_date": null,
      "expire_date": null
    },
    {
      "name": "居酒屋ろぎん",
      "name_kana": "",
      "business_type": "飲食店営業",
      "address": "石川郡石川町字新町６６",
      "lat": 37.148187,
      "lng": 140.455507,
      "geocoding_level": 3,
      "phone": "0247-26-0202",
      "license_no": "2-285",
      "license_date": null,
      "expire_date": null
    },
    {
      "name": "いで湯の里　塩ノ沢　旅館しおや",
      "name_kana": "",
      "business_type": "飲食店営業",
      "address": "石川郡石川町大字板橋字塩ノ沢８８－１",
      "lat": 37.085882634,
      "lng": 140.467197791,
      "geocoding_level": 8,
      "phone": "0247-26-6188",
      "license_no": "2-286",
      "license_date": null,
      "expire_date": null
    },
    {
      "name": "ホテル　シークレットⅡ",
      "name_kana": "",
      "business_type": "飲食店営業",
      "address": "石川郡石川町大字母畑字辺栗８７",
      "lat": 37.190961776,
      "lng": 140.484341052,
      "geocoding_level": 8,
      "phone": "0247-26-0111",
      "license_no": "2-211",
      "license_date": null,
      "expire_date": null
    },
    {
      "name": "のみくい処　千香",
      "name_kana": "",
      "business_type": "飲食店営業",
      "address": "石川郡石川町字南町３３－１１",
      "lat": 37.145854513,
      "lng": 140.454487706,
      "geocoding_level": 8,
      "phone": "",
      "license_no": "2-277",
      "license_date": null,
      "expire_date": null
    },
    {
      "name": "ホテル　ナナッツ",
      "name_kana": "",
      "business_type": "飲食店営業",
      "address": "石川郡石川町大字塩沢字佐武内１０５－３９",
      "lat": 37.164360273,
      "lng": 140.436817171,
      "geocoding_level": 8,
      "phone": "0247-26-3003",
      "license_no": "2-287",
      "license_date": null,
      "expire_date": null
    },
    {
      "name": "ｃｏｎｎｅｃｔｉｏｎ　ｂａｒ　ＤＩＦＵＫＵ",
      "name_kana": "",
      "business_type": "飲食店営業",
      "address": "石川郡石川町字南町１１０",
      "lat": 37.146873256000006,
      "lng": 140.45618377,
      "geocoding_level": 8,
      "phone": "",
      "license_no": "2-278",
      "license_date": null,
      "expire_date": null
    },
    {
      "name": "くっちーな　じらそーれ",
      "name_kana": "",
      "business_type": "飲食店営業",
      "address": "石川郡石川町字当町７７－３　江尻ビル２Ｆ",
      "lat": 37.14271,
      "lng": 140.44282,
      "geocoding_level": 3,
      "phone": "0247-26-8055",
      "license_no": "2-288",
      "license_date": null,
      "expire_date": null
    },
    {
      "name": "丸喜鮨",
      "name_kana": "",
      "business_type": "飲食店営業",
      "address": "石川郡石川町字南町１",
      "lat": 37.144928702,
      "lng": 140.454750507,
      "geocoding_level": 8,
      "phone": "0247-26-3731",
      "license_no": "2-289",
      "license_date": null,
      "expire_date": null
    },
    {
      "name": "添田　秀子",
      "name_kana": "",
      "business_type": "かん詰又はびん詰食品製造業",
      "address": "石川郡石川町大字形見字明内３１",
      "lat": 37.139741261,
      "lng": 140.492587738,
      "geocoding_level": 8,
      "phone": "0247-26-5746",
      "license_no": "2-338",
      "license_date": null,
      "expire_date": null
    },
    {
      "name": "添田　秀子",
      "name_kana": "",
      "business_type": "そうざい製造業",
      "address": "石川郡石川町大字形見字明内３１",
      "lat": 37.139741261,
      "lng": 140.492587738,
      "geocoding_level": 8,
      "phone": "0247-26-5746",
      "license_no": "1-114",
      "license_date": null,
      "expire_date": null
    },
    {
      "name": "添田　秀子",
      "name_kana": "",
      "business_type": "漬物製造業",
      "address": "石川郡石川町大字形見字明内３１",
      "lat": 37.139741261,
      "lng": 140.492587738,
      "geocoding_level": 8,
      "phone": "0247-26-5746",
      "license_no": "1-25",
      "license_date": null,
      "expire_date": null
    },
    {
      "name": "母畑温泉　八幡屋",
      "name_kana": "",
      "business_type": "飲食店営業",
      "address": "石川郡石川町大字母畑字樋田７５－１",
      "lat": 37.157055,
      "lng": 140.446767,
      "geocoding_level": 2,
      "phone": "0247-26-3131",
      "license_no": "2-342",
      "license_date": null,
      "expire_date": null
    },
    {
      "name": "ベーカリー　あい",
      "name_kana": "",
      "business_type": "菓子製造業",
      "address": "石川郡石川町字古舘３２１",
      "lat": 37.153390721,
      "lng": 140.455955053,
      "geocoding_level": 8,
      "phone": "0247-26-1277",
      "license_no": "2-344",
      "license_date": null,
      "expire_date": null
    },
    {
      "name": "日清医療食品（株）いしかわリハビリテーション・ケアセンター",
      "name_kana": "",
      "business_type": "飲食店営業",
      "address": "石川郡石川町字新町４６－１",
      "lat": 37.148407114,
      "lng": 140.454674288,
      "geocoding_level": 8,
      "phone": "0247-26-3415",
      "license_no": "2-293",
      "license_date": null,
      "expire_date": null
    },
    {
      "name": "ＨａＮａ",
      "name_kana": "",
      "business_type": "飲食店営業",
      "address": "石川郡石川町字南町３３－６",
      "lat": 37.145951172,
      "lng": 140.453999158,
      "geocoding_level": 8,
      "phone": "0247-57-6250",
      "license_no": "2-436",
      "license_date": null,
      "expire_date": null
    },
    {
      "name": "野木沢加工所　ふじわちゃん",
      "name_kana": "",
      "business_type": "飲食店営業",
      "address": "石川郡石川町大字中野字八斗蒔５－２",
      "lat": 37.157055,
      "lng": 140.446767,
      "geocoding_level": 2,
      "phone": "",
      "license_no": "2-441",
      "license_date": null,
      "expire_date": null
    },
    {
      "name": "野木沢加工所　ふじわちゃん",
      "name_kana": "",
      "business_type": "菓子製造業",
      "address": "石川郡石川町大字中野字八斗蒔５－２",
      "lat": 37.157055,
      "lng": 140.446767,
      "geocoding_level": 2,
      "phone": "",
      "license_no": "2-442",
      "license_date": null,
      "expire_date": null
    },
    {
      "name": "野木沢加工所　ふじわちゃん",
      "name_kana": "",
      "business_type": "そうざい製造業",
      "address": "石川郡石川町大字中野字八斗蒔５－２",
      "lat": 37.157055,
      "lng": 140.446767,
      "geocoding_level": 2,
      "phone": "",
      "license_no": "2-443",
      "license_date": null,
      "expire_date": null
    },
    {
      "name": "野木沢加工所　ふじわちゃん",
      "name_kana": "",
      "business_type": "漬物製造業",
      "address": "石川郡石川町大字中野字八斗蒔５－２",
      "lat": 37.157055,
      "lng": 140.446767,
      "geocoding_level": 2,
      "phone": "",
      "license_no": "1-24",
      "license_date": null,
      "expire_date": null
    },
    {
      "name": "レストラン　スワン",
      "name_kana": "",
      "business_type": "飲食店営業",
      "address": "石川郡石川町大字母畑字梅木入７０－１７",
      "lat": 37.192159315,
      "lng": 140.483857246,
      "geocoding_level": 8,
      "phone": "0247-26-1809",
      "license_no": "2-294",
      "license_date": null,
      "expire_date": null
    },
    {
      "name": "味の駅沙瓏石川店",
      "name_kana": "",
      "business_type": "飲食店営業",
      "address": "石川郡石川町大字塩沢字広畑３４－５",
      "lat": 37.172693733,
      "lng": 140.427929706,
      "geocoding_level": 8,
      "phone": "0247-26-8393",
      "license_no": "2-297",
      "license_date": null,
      "expire_date": null
    },
    {
      "name": "メフォス５０６１７号店",
      "name_kana": "",
      "business_type": "飲食店営業",
      "address": "石川郡石川町大字南山形字中野沢５４",
      "lat": 37.115685309,
      "lng": 140.469245238,
      "geocoding_level": 8,
      "phone": "0247-26-4271",
      "license_no": "2-300",
      "license_date": null,
      "expire_date": null
    },
    {
      "name": "鈴木肉店",
      "name_kana": "",
      "business_type": "飲食店営業",
      "address": "石川郡石川町大字母畑字樋田３－１",
      "lat": 37.157055,
      "lng": 140.446767,
      "geocoding_level": 2,
      "phone": "0247-26-4306",
      "license_no": "2-448",
      "license_date": null,
      "expire_date": null
    },
    {
      "name": "鈴木肉店",
      "name_kana": "",
      "business_type": "飲食店営業",
      "address": "石川郡石川町大字母畑字樋田３－１",
      "lat": 37.157055,
      "lng": 140.446767,
      "geocoding_level": 2,
      "phone": "0247-26-4306",
      "license_no": "2-450",
      "license_date": null,
      "expire_date": null
    },
    {
      "name": "鈴木肉店",
      "name_kana": "",
      "business_type": "食肉販売業",
      "address": "石川郡石川町大字母畑字樋田３－１",
      "lat": 37.157055,
      "lng": 140.446767,
      "geocoding_level": 2,
      "phone": "0247-26-4306",
      "license_no": "2-449",
      "license_date": null,
      "expire_date": null
    },
    {
      "name": "そば屋源重",
      "name_kana": "",
      "business_type": "飲食店営業",
      "address": "石川郡石川町大字双里字谷津前７番",
      "lat": 37.157055,
      "lng": 140.446767,
      "geocoding_level": 2,
      "phone": "0247-26-5440",
      "license_no": "2-306",
      "license_date": null,
      "expire_date": null
    },
    {
      "name": "やまき",
      "name_kana": "",
      "business_type": "魚介類販売業",
      "address": "石川郡石川町大字双里字谷津前７番",
      "lat": 37.157055,
      "lng": 140.446767,
      "geocoding_level": 2,
      "phone": "0247-26-5440",
      "license_no": "2-307",
      "license_date": null,
      "expire_date": null
    },
    {
      "name": "水晶館石川斎場",
      "name_kana": "",
      "business_type": "飲食店営業",
      "address": "石川郡石川町字下泉１４６－１",
      "lat": 37.143338656,
      "lng": 140.450914649,
      "geocoding_level": 8,
      "phone": "0247-56-2772",
      "license_no": "2-309",
      "license_date": null,
      "expire_date": null
    },
    {
      "name": "あすかめん",
      "name_kana": "",
      "business_type": "麺類製造業",
      "address": "石川郡石川町大字双里字桜町２４－１",
      "lat": 37.149324486,
      "lng": 140.466092104,
      "geocoding_level": 8,
      "phone": "0247-26-5251",
      "license_no": "2-310",
      "license_date": null,
      "expire_date": null
    },
    {
      "name": "カフェ凛",
      "name_kana": "",
      "business_type": "飲食店営業",
      "address": "石川郡石川町字南町３３",
      "lat": 37.14637,
      "lng": 140.454454,
      "geocoding_level": 3,
      "phone": "0247-57-6407",
      "license_no": "2-284",
      "license_date": null,
      "expire_date": null
    },
    {
      "name": "めん工房　嬉遊",
      "name_kana": "",
      "business_type": "麺類製造業",
      "address": "石川郡石川町大字塩沢字割田作３４－１０６",
      "lat": 37.16863423,
      "lng": 140.440208571,
      "geocoding_level": 8,
      "phone": "",
      "license_no": "2-285",
      "license_date": null,
      "expire_date": null
    },
    {
      "name": "農村食堂　里のカフェ",
      "name_kana": "",
      "business_type": "飲食店営業",
      "address": "石川郡石川町字梁瀬４５５－３",
      "lat": 37.149514,
      "lng": 140.417785,
      "geocoding_level": 3,
      "phone": "0247-57-6909",
      "license_no": "2-315",
      "license_date": null,
      "expire_date": null
    },
    {
      "name": "農村食堂　里のカフェ",
      "name_kana": "",
      "business_type": "菓子製造業",
      "address": "石川郡石川町字梁瀬４５５－３",
      "lat": 37.149514,
      "lng": 140.417785,
      "geocoding_level": 3,
      "phone": "0247-57-6909",
      "license_no": "2-286",
      "license_date": null,
      "expire_date": null
    },
    {
      "name": "農村食堂　里のカフェ",
      "name_kana": "",
      "business_type": "漬物製造業",
      "address": "石川郡石川町字梁瀬４５５－３",
      "lat": 37.149514,
      "lng": 140.417785,
      "geocoding_level": 3,
      "phone": "0247-57-6909",
      "license_no": "1-105",
      "license_date": null,
      "expire_date": null
    },
    {
      "name": "手打中華　餐",
      "name_kana": "",
      "business_type": "飲食店営業",
      "address": "石川郡石川町大字形見字大工内１６１",
      "lat": 37.144468826,
      "lng": 140.485017756,
      "geocoding_level": 8,
      "phone": "0247-26-0511",
      "license_no": "2-290",
      "license_date": null,
      "expire_date": null
    },
    {
      "name": "ゆるりと菜　村さ来　石川店",
      "name_kana": "",
      "business_type": "飲食店営業",
      "address": "石川郡石川町字新町４４－１６",
      "lat": 37.148237224,
      "lng": 140.455174901,
      "geocoding_level": 8,
      "phone": "0247-57-5011",
      "license_no": "2-291",
      "license_date": null,
      "expire_date": null
    },
    {
      "name": "幸楽苑メガステージ石川店",
      "name_kana": "",
      "business_type": "飲食店営業",
      "address": "石川郡石川町字長久保１１１－１",
      "lat": 37.154143816,
      "lng": 140.444691437,
      "geocoding_level": 8,
      "phone": "0247-57-5653",
      "license_no": "2-228",
      "license_date": null,
      "expire_date": null
    },
    {
      "name": "セブン－イレブン磐城石川駅前店",
      "name_kana": "",
      "business_type": "飲食店営業",
      "address": "石川郡石川町字当町１１９－４",
      "lat": 37.139899768,
      "lng": 140.443986643,
      "geocoding_level": 8,
      "phone": "0247-26-1775",
      "license_no": "2-230",
      "license_date": null,
      "expire_date": null
    },
    {
      "name": "ＯＲＡＧＥＮＯ（オラゲーノ）",
      "name_kana": "",
      "business_type": "飲食店営業",
      "address": "石川郡石川町大字赤羽字新宿１２９－１",
      "lat": 37.133768551,
      "lng": 140.375173084,
      "geocoding_level": 8,
      "phone": "0247-57-6004",
      "license_no": "2-232",
      "license_date": null,
      "expire_date": null
    },
    {
      "name": "ＯＲＡＧＥＮＯ（オラゲーノ）",
      "name_kana": "",
      "business_type": "菓子製造業",
      "address": "石川郡石川町大字赤羽字新宿１２９－１",
      "lat": 37.133768551,
      "lng": 140.375173084,
      "geocoding_level": 8,
      "phone": "0247-57-6004",
      "license_no": "2-233",
      "license_date": null,
      "expire_date": null
    },
    {
      "name": "ＯＲＡＧＥＮＯ（オラゲーノ）",
      "name_kana": "",
      "business_type": "密封包装食品製造業",
      "address": "石川郡石川町大字赤羽字新宿１２９－１",
      "lat": 37.133768551,
      "lng": 140.375173084,
      "geocoding_level": 8,
      "phone": "0247-57-6004",
      "license_no": "2-234",
      "license_date": null,
      "expire_date": null
    },
    {
      "name": "セブン－イレブン石川南町店",
      "name_kana": "",
      "business_type": "飲食店営業",
      "address": "石川郡石川町字南町１１－２",
      "lat": 37.14637,
      "lng": 140.454454,
      "geocoding_level": 3,
      "phone": "0247-26-0656",
      "license_no": "2-294",
      "license_date": null,
      "expire_date": null
    },
    {
      "name": "ＪＡ夢みなみ　いしかわ営農センター　支援課",
      "name_kana": "",
      "business_type": "食肉販売業",
      "address": "石川郡石川町字当町１０９－８",
      "lat": 37.142048695,
      "lng": 140.445076244,
      "geocoding_level": 8,
      "phone": "0247-26-3101",
      "license_no": "2-296",
      "license_date": null,
      "expire_date": null
    },
    {
      "name": "セブンイレブン石川長久保店",
      "name_kana": "",
      "business_type": "飲食店営業",
      "address": "石川郡石川町字石田４５－２",
      "lat": 37.160349986,
      "lng": 140.444673716,
      "geocoding_level": 8,
      "phone": "0247-26-7784",
      "license_no": "2-300",
      "license_date": null,
      "expire_date": null
    },
    {
      "name": "マリーの桜",
      "name_kana": "",
      "business_type": "菓子製造業",
      "address": "石川郡石川町大字塩沢字広畑４２－４",
      "lat": 37.171802113,
      "lng": 140.42772671,
      "geocoding_level": 8,
      "phone": "0247-26-2484",
      "license_no": "2-303",
      "license_date": null,
      "expire_date": null
    },
    {
      "name": "マルコーラーメン",
      "name_kana": "",
      "business_type": "飲食店営業",
      "address": "石川郡石川町大字赤羽字新宿６５－２",
      "lat": 37.131487865000004,
      "lng": 140.37441015,
      "geocoding_level": 8,
      "phone": "0247-57-8380",
      "license_no": "2-228",
      "license_date": null,
      "expire_date": null
    },
    {
      "name": "スナック希望",
      "name_kana": "",
      "business_type": "飲食店営業",
      "address": "石川郡石川町字矢ノ目田６５　磐成ビル２Ｆ",
      "lat": 37.150164,
      "lng": 140.448986,
      "geocoding_level": 3,
      "phone": "0247-26-4186",
      "license_no": "1-157",
      "license_date": null,
      "expire_date": null
    },
    {
      "name": "呉竹鮨",
      "name_kana": "",
      "business_type": "飲食店営業",
      "address": "石川郡石川町大字双里字谷津前３９－５",
      "lat": 37.146871756,
      "lng": 140.466466506,
      "geocoding_level": 8,
      "phone": "0247-26-7146",
      "license_no": "1-33",
      "license_date": null,
      "expire_date": null
    },
    {
      "name": "くわざわ",
      "name_kana": "",
      "business_type": "菓子製造業",
      "address": "石川郡石川町大字双里字神主２０－１",
      "lat": 37.146882273,
      "lng": 140.476000937,
      "geocoding_level": 8,
      "phone": "0247-26-2851",
      "license_no": "1-88",
      "license_date": null,
      "expire_date": null
    },
    {
      "name": "くわざわ",
      "name_kana": "",
      "business_type": "喫茶店営業",
      "address": "石川郡石川町大字双里字神主２０－１",
      "lat": 37.146882273,
      "lng": 140.476000937,
      "geocoding_level": 8,
      "phone": "0247-26-2851",
      "license_no": "1-89",
      "license_date": null,
      "expire_date": null
    },
    {
      "name": "ふるーる",
      "name_kana": "",
      "business_type": "飲食店営業",
      "address": "石川郡石川町字草倉田７１－５８",
      "lat": 37.164060077,
      "lng": 140.435193048,
      "geocoding_level": 8,
      "phone": "0247-26-5560",
      "license_no": "1-109",
      "license_date": null,
      "expire_date": null
    },
    {
      "name": "セブン・イレブン石川沢田店",
      "name_kana": "",
      "business_type": "飲食店営業",
      "address": "石川郡石川町大字沢井字西ノ作４－１",
      "lat": 37.140820746,
      "lng": 140.395888045,
      "geocoding_level": 8,
      "phone": "0247-26-2328",
      "license_no": "1-115",
      "license_date": null,
      "expire_date": null
    },
    {
      "name": "居酒屋ともし火",
      "name_kana": "",
      "business_type": "飲食店営業",
      "address": "石川郡石川町大字双里字本宮４２－１４",
      "lat": 37.147612596,
      "lng": 140.458980546,
      "geocoding_level": 8,
      "phone": "0247-26-5018",
      "license_no": "1-134",
      "license_date": null,
      "expire_date": null
    },
    {
      "name": "石川スケートセンター",
      "name_kana": "",
      "business_type": "飲食店営業",
      "address": "石川郡石川町大字母畑字梅木入７１－８",
      "lat": 37.194890475,
      "lng": 140.484986343,
      "geocoding_level": 8,
      "phone": "0247-26-3040",
      "license_no": "1-148",
      "license_date": null,
      "expire_date": null
    },
    {
      "name": "郷隆果樹園",
      "name_kana": "",
      "business_type": "菓子製造業",
      "address": "石川郡石川町大字沢井字十三塚２９－２",
      "lat": 37.138551117,
      "lng": 140.38917908,
      "geocoding_level": 8,
      "phone": "0247-26-5591",
      "license_no": "1-164",
      "license_date": null,
      "expire_date": null
    },
    {
      "name": "郷隆果樹園",
      "name_kana": "",
      "business_type": "漬物製造業",
      "address": "石川郡石川町大字沢井字十三塚２９－２",
      "lat": 37.138551117,
      "lng": 140.38917908,
      "geocoding_level": 8,
      "phone": "0247-26-5591",
      "license_no": "1-34",
      "license_date": null,
      "expire_date": null
    },
    {
      "name": "あぶくま斎場石川",
      "name_kana": "",
      "business_type": "飲食店営業",
      "address": "石川郡石川町字当町３７３－５",
      "lat": 37.143835684,
      "lng": 140.441775056,
      "geocoding_level": 8,
      "phone": "0247-26-9888",
      "license_no": "1-178",
      "license_date": null,
      "expire_date": null
    },
    {
      "name": "石川町立石川小学校",
      "name_kana": "",
      "business_type": "飲食店営業",
      "address": "石川郡石川町大字双里字川向２－１",
      "lat": 37.146281706,
      "lng": 140.462709365,
      "geocoding_level": 8,
      "phone": "0247-26-3335",
      "license_no": "1-37",
      "license_date": null,
      "expire_date": null
    },
    {
      "name": "石川町立石川中学校",
      "name_kana": "",
      "business_type": "飲食店営業",
      "address": "石川郡石川町大字双里字川向１６５",
      "lat": 37.145867214,
      "lng": 140.466455821,
      "geocoding_level": 8,
      "phone": "0247-26-2315",
      "license_no": "1-38",
      "license_date": null,
      "expire_date": null
    },
    {
      "name": "メフォス５１０３６号店",
      "name_kana": "",
      "business_type": "飲食店営業",
      "address": "石川郡石川町字猫啼３６０－３",
      "lat": 37.136548271,
      "lng": 140.43351569,
      "geocoding_level": 8,
      "phone": "0247-26-5544",
      "license_no": "1-29",
      "license_date": null,
      "expire_date": null
    },
    {
      "name": "和風スナック　ゆう",
      "name_kana": "",
      "business_type": "飲食店営業",
      "address": "石川郡石川町字新町６６－２　２Ｆ",
      "lat": 37.147712426,
      "lng": 140.454335658,
      "geocoding_level": 8,
      "phone": "0247-57-8437",
      "license_no": "1-78",
      "license_date": null,
      "expire_date": null
    },
    {
      "name": "ミニストップ石川町野木沢店",
      "name_kana": "",
      "business_type": "飲食店営業",
      "address": "石川郡石川町大字中野字矢ノ内５７－３",
      "lat": 37.182136644,
      "lng": 140.418776095,
      "geocoding_level": 8,
      "phone": "0247-26-9515",
      "license_no": "1-86",
      "license_date": null,
      "expire_date": null
    },
    {
      "name": "縁　～ｅｎｎ～",
      "name_kana": "",
      "business_type": "飲食店営業",
      "address": "石川郡石川町大字双里字谷津前５６－２",
      "lat": 37.14895999,
      "lng": 140.466477471,
      "geocoding_level": 8,
      "phone": "",
      "license_no": "1-11",
      "license_date": null,
      "expire_date": null
    },
    {
      "name": "丸仙食堂",
      "name_kana": "",
      "business_type": "飲食店営業",
      "address": "石川郡石川町大字中野字高ノ内３－１",
      "lat": 37.177782414,
      "lng": 140.42236534,
      "geocoding_level": 8,
      "phone": "0247-26-5597",
      "license_no": "1-107",
      "license_date": null,
      "expire_date": null
    },
    {
      "name": "たいむず",
      "name_kana": "",
      "business_type": "飲食店営業",
      "address": "石川郡石川町字新町８－１",
      "lat": 37.147378924,
      "lng": 140.45748903,
      "geocoding_level": 8,
      "phone": "0247-26-3412",
      "license_no": "1-110",
      "license_date": null,
      "expire_date": null
    },
    {
      "name": "ｃａｆｅ　ｃｏｍｏｄｏ",
      "name_kana": "",
      "business_type": "飲食店営業",
      "address": "石川郡石川町大字中野字八斗蒔５－２",
      "lat": 37.157055,
      "lng": 140.446767,
      "geocoding_level": 2,
      "phone": "",
      "license_no": "1-142",
      "license_date": null,
      "expire_date": null
    },
    {
      "name": "星の屋",
      "name_kana": "",
      "business_type": "菓子製造業",
      "address": "石川郡石川町大字塩沢字割田作３４－４２",
      "lat": 37.16755048,
      "lng": 140.440966376,
      "geocoding_level": 8,
      "phone": "",
      "license_no": "1-25",
      "license_date": null,
      "expire_date": null
    },
    {
      "name": "べんとうＳＨＯＰ石川店",
      "name_kana": "",
      "business_type": "飲食店営業",
      "address": "石川郡石川町大字双里字本宮３６",
      "lat": 37.14785958,
      "lng": 140.458256871,
      "geocoding_level": 8,
      "phone": "0247-26-5454",
      "license_no": "1-74",
      "license_date": null,
      "expire_date": null
    },
    {
      "name": "ファーム　りとるうっど",
      "name_kana": "",
      "business_type": "そうざい製造業",
      "address": "石川郡石川町大字板橋字沢古屋１９９",
      "lat": 37.100686546,
      "lng": 140.471411081,
      "geocoding_level": 8,
      "phone": "0247-26-3634",
      "license_no": "1-89",
      "license_date": null,
      "expire_date": null
    },
    {
      "name": "天山",
      "name_kana": "",
      "business_type": "飲食店営業",
      "address": "石川郡石川町大字谷沢字榎町１５－１",
      "lat": 37.136552664,
      "lng": 140.492741502,
      "geocoding_level": 8,
      "phone": "0247-26-1233",
      "license_no": "1-140",
      "license_date": null,
      "expire_date": null
    },
    {
      "name": "カフェ＆レストランビーフォレスト",
      "name_kana": "",
      "business_type": "飲食店営業",
      "address": "石川郡石川町字長久保７９",
      "lat": 37.152224716,
      "lng": 140.445368468,
      "geocoding_level": 8,
      "phone": "050-8887-1233",
      "license_no": "1-152",
      "license_date": null,
      "expire_date": null
    },
    {
      "name": "手打中華　餐分店",
      "name_kana": "",
      "business_type": "飲食店営業",
      "address": "石川郡石川町字当町１１５",
      "lat": 37.14271,
      "lng": 140.44282,
      "geocoding_level": 3,
      "phone": "",
      "license_no": "1-154",
      "license_date": null,
      "expire_date": null
    },
    {
      "name": "ファミリーマート石川町双里店",
      "name_kana": "",
      "business_type": "飲食店営業",
      "address": "石川郡石川町大字双里字谷津前１７",
      "lat": 37.149805137,
      "lng": 140.467121181,
      "geocoding_level": 8,
      "phone": "0247-56-4581",
      "license_no": "1-161",
      "license_date": null,
      "expire_date": null
    },
    {
      "name": "モトガッコサポータークラブ　モットカフェ",
      "name_kana": "",
      "business_type": "飲食店営業",
      "address": "石川郡石川町字関根１６５",
      "lat": 37.146522356,
      "lng": 140.459184994,
      "geocoding_level": 8,
      "phone": "0247-26-2566",
      "license_no": "1-51",
      "license_date": null,
      "expire_date": null
    },
    {
      "name": "白河手打中華　せいくん家",
      "name_kana": "",
      "business_type": "飲食店営業",
      "address": "石川郡石川町大字中野字八斗蒔１５－５",
      "lat": 37.175271318,
      "lng": 140.422327035,
      "geocoding_level": 8,
      "phone": "",
      "license_no": "1-111",
      "license_date": null,
      "expire_date": null
    },
    {
      "name": "あら家",
      "name_kana": "",
      "business_type": "飲食店営業",
      "address": "石川郡石川町字下泉１２９",
      "lat": 37.143787279,
      "lng": 140.44877524800003,
      "geocoding_level": 8,
      "phone": "0247-57-7547",
      "license_no": "1-132",
      "license_date": null,
      "expire_date": null
    },
    {
      "name": "石川町立認定こども園",
      "name_kana": "",
      "business_type": "飲食店営業",
      "address": "石川郡石川町字関根５番地の２",
      "lat": 37.146191328,
      "lng": 140.456807733,
      "geocoding_level": 8,
      "phone": "",
      "license_no": "1-148",
      "license_date": null,
      "expire_date": null
    },
    {
      "name": "学校法人掛田学園　認定こども園　石川文化幼稚園・クローバー保育園",
      "name_kana": "",
      "business_type": "飲食店営業",
      "address": "石川郡石川町字当町６７－２",
      "lat": 37.14295398,
      "lng": 140.44610776700003,
      "geocoding_level": 8,
      "phone": "0247-26-9638",
      "license_no": "1-159",
      "license_date": null,
      "expire_date": null
    },
    {
      "name": "Ｋａｒｉｎｔｏ",
      "name_kana": "",
      "business_type": "菓子製造業",
      "address": "石川郡石川町形見字漆方１８－３",
      "lat": 37.143712285,
      "lng": 140.487259945,
      "geocoding_level": 8,
      "phone": "8011661380",
      "license_no": "1-38",
      "license_date": null,
      "expire_date": null
    },
    {
      "name": "ダイソー　メガステージ石川店",
      "name_kana": "ダイソー　メガステージイシカワテン",
      "business_type": "⑬ その他の食料・飲料販売業",
      "address": "福島県石川郡石川町字長久保３１３",
      "lat": 37.154255,
      "lng": 140.444625,
      "geocoding_level": null,
      "phone": "",
      "license_no": "",
      "license_date": null,
      "expire_date": null
    },
    {
      "name": "薬王堂　福島石川店",
      "name_kana": "ヤクオウドウ　フクシマイシカワテン",
      "business_type": "① 魚介類販売業（包装済みの魚介類のみの販売）",
      "address": "福島県石川郡石川町当町131",
      "lat": 37.141972,
      "lng": 140.442445,
      "geocoding_level": null,
      "phone": "0247-57-7461",
      "license_no": "",
      "license_date": null,
      "expire_date": null
    },
    {
      "name": "薬王堂　福島石川店",
      "name_kana": "ヤクオウドウ　フクシマイシカワテン",
      "business_type": "② 食肉販売業（包装済みの食肉のみの販売）",
      "address": "福島県石川郡石川町当町131",
      "lat": 37.141972,
      "lng": 140.442445,
      "geocoding_level": null,
      "phone": "0247-57-7461",
      "license_no": "",
      "license_date": null,
      "expire_date": null
    },
    {
      "name": "薬王堂　福島石川店",
      "name_kana": "ヤクオウドウ　フクシマイシカワテン",
      "business_type": "③ 乳類販売業",
      "address": "福島県石川郡石川町当町131",
      "lat": 37.141972,
      "lng": 140.442445,
      "geocoding_level": null,
      "phone": "0247-57-7461",
      "license_no": "",
      "license_date": null,
      "expire_date": null
    },
    {
      "name": "八幡屋",
      "name_kana": "ヤハタヤ",
      "business_type": "⑫ 自動販売機による販売業（コップ式自動販売機（自動洗浄・屋内設置）及び営業許可の対象となる自動販売機を除く）",
      "address": "福島県石川郡石川町母畑字樋田75-1",
      "lat": 37.175905,
      "lng": 140.466512,
      "geocoding_level": null,
      "phone": "",
      "license_no": "",
      "license_date": null,
      "expire_date": null
    },
    {
      "name": "桜が丘学園",
      "name_kana": "サクラガオカガクエン",
      "business_type": "⑫ 自動販売機による販売業（コップ式自動販売機（自動洗浄・屋内設置）及び営業許可の対象となる自動販売機を除く）",
      "address": "福島県石川郡石川町猫啼359-1",
      "lat": 37.13696,
      "lng": 140.431732,
      "geocoding_level": null,
      "phone": "",
      "license_no": "",
      "license_date": null,
      "expire_date": null
    },
    {
      "name": "831屋自然農",
      "name_kana": "ヤサイヤシゼンノウ",
      "business_type": "㉔ その他の食料品製造・加工業",
      "address": "福島県石川郡石川町大内235",
      "lat": 37.152972,
      "lng": 140.440728,
      "geocoding_level": null,
      "phone": "08055121582",
      "license_no": "",
      "license_date": null,
      "expire_date": null
    },
    {
      "name": "ツルハドラッグ石川店",
      "name_kana": "ツルハドラッグイシカワテン",
      "business_type": "⑬ その他の食料・飲料販売業",
      "address": "福島県石川郡石川町長久保82番",
      "lat": 37.152484,
      "lng": 140.445772,
      "geocoding_level": null,
      "phone": "0247-57-8737",
      "license_no": "",
      "license_date": null,
      "expire_date": null
    },
    {
      "name": "幸楽苑メガステージ石川店",
      "name_kana": "コウラクエンメガステージイシカワテン",
      "business_type": "⑬ その他の食料・飲料販売業",
      "address": "福島県石川郡石川町長久保111-2",
      "lat": 37.155373,
      "lng": 140.447614,
      "geocoding_level": null,
      "phone": "0247-57-5653",
      "license_no": "",
      "license_date": null,
      "expire_date": null
    },
    {
      "name": "大野農園",
      "name_kana": "オオノノウエン",
      "business_type": "⑬ その他の食料・飲料販売業",
      "address": "福島県石川郡石川町赤羽字新宿130",
      "lat": 37.133642,
      "lng": 140.375648,
      "geocoding_level": null,
      "phone": "",
      "license_no": "",
      "license_date": null,
      "expire_date": null
    },
    {
      "name": "郡山ヤクルト石川センター",
      "name_kana": "コオリヤマヤクルトイシカワセンター",
      "business_type": "③ 乳類販売業",
      "address": "福島県石川郡石川町双里字谷津前43-1",
      "lat": 37.147264,
      "lng": 140.466675,
      "geocoding_level": null,
      "phone": "",
      "license_no": "",
      "license_date": null,
      "expire_date": null
    },
    {
      "name": "石川義塾桜花寮",
      "name_kana": "イシカワギジュクオウカリョウ",
      "business_type": "① 飲食店営業",
      "address": "福島県石川郡石川町北町６２－３",
      "lat": 37.150716,
      "lng": 140.457307,
      "geocoding_level": null,
      "phone": "",
      "license_no": "福島県指令中保第1-9号",
      "license_date": "2026-05-13",
      "expire_date": "2033-11-30"
    },
    {
      "name": "石川義塾魚水寮",
      "name_kana": "イシカワギジュクギョスイリョウ",
      "business_type": "① 飲食店営業",
      "address": "福島県石川郡石川町塩ノ平２０１－１",
      "lat": 37.16372,
      "lng": 140.431674,
      "geocoding_level": null,
      "phone": "",
      "license_no": "福島県指令中保第1-10号",
      "license_date": "2026-05-13",
      "expire_date": "2033-11-30"
    }
  ]
}
