{
  "meta": {
    "updated": 1783906731,
    "sources": [
      {
        "source": "島根県食品営業許可一覧（松江市を除く）",
        "license": "要確認"
      },
      {
        "source": "厚生労働省 食品衛生申請等システム（オープンデータ）",
        "license": "公共データ利用規約（第1.0版, PDL1.0）"
      }
    ]
  },
  "data": [
    {
      "name": "おおち山くじら",
      "name_kana": "",
      "business_type": "",
      "address": "邑智郡美郷町乙原３６３（県内一円）",
      "lat": 35.012303,
      "lng": 132.544587,
      "geocoding_level": 3,
      "phone": "0855-75-0887",
      "license_no": "070410007",
      "license_date": null,
      "expire_date": null
    },
    {
      "name": "広島風お好み焼「ふくだ」",
      "name_kana": "",
      "business_type": "",
      "address": "邑智郡美郷町久保１６５－５",
      "lat": 35.074851414,
      "lng": 132.59668139,
      "geocoding_level": 8,
      "phone": "0855-75-0777",
      "license_no": "050418095",
      "license_date": null,
      "expire_date": null
    },
    {
      "name": "ジョイワーク　みさと",
      "name_kana": "",
      "business_type": "",
      "address": "邑智郡美郷町久保４１、７４０－７、７４０－１３",
      "lat": 35.081551,
      "lng": 132.620492,
      "geocoding_level": 3,
      "phone": "0855-74-6033",
      "license_no": "040418288",
      "license_date": null,
      "expire_date": null
    },
    {
      "name": "とんねる",
      "name_kana": "",
      "business_type": "",
      "address": "邑智郡美郷町久保５４－１",
      "lat": 35.072276629,
      "lng": 132.594970402,
      "geocoding_level": 8,
      "phone": "0855-75-1536",
      "license_no": "070418205",
      "license_date": null,
      "expire_date": null
    },
    {
      "name": "キッチン　そら豆",
      "name_kana": "",
      "business_type": "",
      "address": "邑智郡美郷町久保７４０－７（県内一円）",
      "lat": 35.071209976,
      "lng": 132.592976201,
      "geocoding_level": 8,
      "phone": "0855-74-6033",
      "license_no": "030410007",
      "license_date": null,
      "expire_date": null
    },
    {
      "name": "シンマイ",
      "name_kana": "",
      "business_type": "",
      "address": "邑智郡美郷町京覧原３５６（県内一円）",
      "lat": 35.07042472,
      "lng": 132.512327939,
      "geocoding_level": 8,
      "phone": "",
      "license_no": "060410008",
      "license_date": null,
      "expire_date": null
    },
    {
      "name": "やすな商店",
      "name_kana": "",
      "business_type": "",
      "address": "邑智郡美郷町吾郷２８５－１",
      "lat": 35.04500647,
      "lng": 132.576140084,
      "geocoding_level": 8,
      "phone": "0855-75-1327",
      "license_no": "040418132",
      "license_date": null,
      "expire_date": null
    },
    {
      "name": "邑智園",
      "name_kana": "",
      "business_type": "",
      "address": "邑智郡美郷町小谷３６１",
      "lat": 35.028825865,
      "lng": 132.51225515,
      "geocoding_level": 8,
      "phone": "0855-77-8011",
      "license_no": "080418053",
      "license_date": null,
      "expire_date": null
    },
    {
      "name": "もかちゃん",
      "name_kana": "",
      "business_type": "",
      "address": "邑智郡美郷町上野４８－２",
      "lat": 34.946409929,
      "lng": 132.643337798,
      "geocoding_level": 8,
      "phone": "",
      "license_no": "050418269",
      "license_date": null,
      "expire_date": null
    },
    {
      "name": "花田商店",
      "name_kana": "",
      "business_type": "",
      "address": "邑智郡美郷町石原２６６－２",
      "lat": 35.056333611,
      "lng": 132.642832845,
      "geocoding_level": 8,
      "phone": "0855-76-0303",
      "license_no": "040418137",
      "license_date": null,
      "expire_date": null
    },
    {
      "name": "双葉園",
      "name_kana": "",
      "business_type": "",
      "address": "邑智郡美郷町滝原１６７－１",
      "lat": 35.051457424,
      "lng": 132.600194199,
      "geocoding_level": 8,
      "phone": "0855-75-1870",
      "license_no": "080418041",
      "license_date": null,
      "expire_date": null
    },
    {
      "name": "アスカ",
      "name_kana": "",
      "business_type": "",
      "address": "邑智郡美郷町潮村１２３（県内一円）",
      "lat": 35.020694319,
      "lng": 132.633283677,
      "geocoding_level": 8,
      "phone": "0855-82-2759",
      "license_no": "050410008",
      "license_date": null,
      "expire_date": null
    },
    {
      "name": "カフェ　グリーンロード",
      "name_kana": "",
      "business_type": "",
      "address": "邑智郡美郷町長藤２３０－２",
      "lat": 34.967557939,
      "lng": 132.641771189,
      "geocoding_level": 8,
      "phone": "0855-82-2812",
      "license_no": "070418093",
      "license_date": null,
      "expire_date": null
    },
    {
      "name": "石見ワイナリーホテル美郷",
      "name_kana": "",
      "business_type": "",
      "address": "邑智郡美郷町長藤７６０－１",
      "lat": 35.013221342,
      "lng": 132.63166416100003,
      "geocoding_level": 8,
      "phone": "0855-74-6588",
      "license_no": "040410008",
      "license_date": null,
      "expire_date": null
    },
    {
      "name": "藤の華",
      "name_kana": "",
      "business_type": "",
      "address": "邑智郡美郷町都賀西５６７－３",
      "lat": 34.951433047,
      "lng": 132.636596104,
      "geocoding_level": 8,
      "phone": "",
      "license_no": "060418104",
      "license_date": null,
      "expire_date": null
    },
    {
      "name": "中村旅館",
      "name_kana": "",
      "business_type": "",
      "address": "邑智郡美郷町湯抱３１５－３",
      "lat": 35.096643679,
      "lng": 132.569488672,
      "geocoding_level": 8,
      "phone": "0855-75-1250",
      "license_no": "030418054",
      "license_date": null,
      "expire_date": null
    },
    {
      "name": "神湯　なかだ",
      "name_kana": "",
      "business_type": "",
      "address": "邑智郡美郷町湯抱３４８",
      "lat": 35.102104,
      "lng": 132.567347,
      "geocoding_level": 3,
      "phone": "0855-75-1241",
      "license_no": "030418086",
      "license_date": null,
      "expire_date": null
    },
    {
      "name": "みさと産直企業組合",
      "name_kana": "",
      "business_type": "",
      "address": "邑智郡美郷町粕渕１７７－１５（島根県下一円）",
      "lat": 35.075846739000006,
      "lng": 132.589985328,
      "geocoding_level": 8,
      "phone": "0855-74-6230",
      "license_no": "080418065",
      "license_date": null,
      "expire_date": null
    },
    {
      "name": "ローソン・ポプラ　美郷町粕渕店",
      "name_kana": "",
      "business_type": "",
      "address": "邑智郡美郷町粕渕１８２－３",
      "lat": 35.07598521,
      "lng": 132.590128505,
      "geocoding_level": 8,
      "phone": "0855-75-1051",
      "license_no": "030418082",
      "license_date": null,
      "expire_date": null
    },
    {
      "name": "エネピア　美郷",
      "name_kana": "",
      "business_type": "",
      "address": "邑智郡美郷町粕渕２００－１",
      "lat": 35.075299697,
      "lng": 132.591434135,
      "geocoding_level": 8,
      "phone": "0855-75-1361",
      "license_no": "060410030",
      "license_date": null,
      "expire_date": null
    },
    {
      "name": "またたび",
      "name_kana": "",
      "business_type": "",
      "address": "邑智郡美郷町粕渕２５２",
      "lat": 35.095737,
      "lng": 132.599754,
      "geocoding_level": 3,
      "phone": "",
      "license_no": "030410046",
      "license_date": null,
      "expire_date": null
    },
    {
      "name": "菓子屋　Ｍｏｇ．",
      "name_kana": "",
      "business_type": "",
      "address": "邑智郡美郷町粕渕２５２－３",
      "lat": 35.074738247,
      "lng": 132.590248957,
      "geocoding_level": 8,
      "phone": "",
      "license_no": "050410035",
      "license_date": null,
      "expire_date": null
    },
    {
      "name": "亀遊亭",
      "name_kana": "",
      "business_type": "",
      "address": "邑智郡美郷町粕渕３４０",
      "lat": 35.073813897,
      "lng": 132.589137965,
      "geocoding_level": 8,
      "phone": "0855-75-1245",
      "license_no": "060418102",
      "license_date": null,
      "expire_date": null
    },
    {
      "name": "京極商店",
      "name_kana": "",
      "business_type": "",
      "address": "邑智郡美郷町粕渕３６８－１",
      "lat": 35.074173936,
      "lng": 132.590336263,
      "geocoding_level": 8,
      "phone": "0855-75-1818",
      "license_no": "030418071",
      "license_date": null,
      "expire_date": null
    },
    {
      "name": "はしれ！！カブやきくん",
      "name_kana": "",
      "business_type": "",
      "address": "邑智郡美郷町粕渕４６４－１（県内一円）",
      "lat": 35.074423509,
      "lng": 132.592915501,
      "geocoding_level": 8,
      "phone": "",
      "license_no": "070410016",
      "license_date": null,
      "expire_date": null
    },
    {
      "name": "たまり場　邑",
      "name_kana": "",
      "business_type": "",
      "address": "邑智郡美郷町粕渕５７－１",
      "lat": 35.079540801,
      "lng": 132.590785949,
      "geocoding_level": 8,
      "phone": "0855-74-3222",
      "license_no": "070410043",
      "license_date": null,
      "expire_date": null
    },
    {
      "name": "あんびす",
      "name_kana": "",
      "business_type": "",
      "address": "邑智郡美郷町粕渕８０－６",
      "lat": 35.076868241,
      "lng": 132.587721239,
      "geocoding_level": 8,
      "phone": "0855-75-1394",
      "license_no": "040418120",
      "license_date": null,
      "expire_date": null
    },
    {
      "name": "花ごよみ　Ａコープおおち",
      "name_kana": "",
      "business_type": "",
      "address": "邑智郡美郷町粕渕８１－１",
      "lat": 35.076582732,
      "lng": 132.58826491,
      "geocoding_level": 8,
      "phone": "0855-75-0303",
      "license_no": "070418211",
      "license_date": null,
      "expire_date": null
    },
    {
      "name": "みさと市",
      "name_kana": "",
      "business_type": "",
      "address": "邑智郡美郷町粕渕９２－１３",
      "lat": 35.075581445,
      "lng": 132.589917892,
      "geocoding_level": 8,
      "phone": "0855-75-1006",
      "license_no": "030418073",
      "license_date": null,
      "expire_date": null
    },
    {
      "name": "ベーカリー卯月",
      "name_kana": "",
      "business_type": "",
      "address": "邑智郡美郷町浜原２８７－１",
      "lat": 35.068711509,
      "lng": 132.601056156,
      "geocoding_level": 8,
      "phone": "0855-74-6433",
      "license_no": "060418128",
      "license_date": null,
      "expire_date": null
    },
    {
      "name": "茶酒房　華蔵",
      "name_kana": "",
      "business_type": "",
      "address": "邑智郡美郷町別府２１３－３",
      "lat": 35.103529,
      "lng": 132.537451,
      "geocoding_level": 3,
      "phone": "",
      "license_no": "070410042",
      "license_date": null,
      "expire_date": null
    },
    {
      "name": "産直市　やなしおの里",
      "name_kana": "",
      "business_type": "",
      "address": "邑智郡美郷町別府２１５－１",
      "lat": 35.099120149,
      "lng": 132.533514761,
      "geocoding_level": 8,
      "phone": "0855-75-1677",
      "license_no": "070410009",
      "license_date": null,
      "expire_date": null
    },
    {
      "name": "武澤屋",
      "name_kana": "",
      "business_type": "",
      "address": "邑智郡美郷町九日市３０６－８",
      "lat": 35.049102383,
      "lng": 132.669727043,
      "geocoding_level": 8,
      "phone": "0855-76-0112",
      "license_no": "060448013",
      "license_date": null,
      "expire_date": null
    },
    {
      "name": "三上商店",
      "name_kana": "",
      "business_type": "",
      "address": "邑智郡美郷町上野１０",
      "lat": 34.935732,
      "lng": 132.659475,
      "geocoding_level": 3,
      "phone": "0855-82-2021",
      "license_no": "040448013",
      "license_date": null,
      "expire_date": null
    },
    {
      "name": "三上商店",
      "name_kana": "",
      "business_type": "",
      "address": "邑智郡美郷町上野１０",
      "lat": 34.935732,
      "lng": 132.659475,
      "geocoding_level": 3,
      "phone": "",
      "license_no": "040448030",
      "license_date": null,
      "expire_date": null
    },
    {
      "name": "ＪＡしまね　大和店",
      "name_kana": "",
      "business_type": "",
      "address": "邑智郡美郷町上野７２－１",
      "lat": 34.945846013,
      "lng": 132.643365917,
      "geocoding_level": 8,
      "phone": "0855-82-8072",
      "license_no": "080448007",
      "license_date": null,
      "expire_date": null
    },
    {
      "name": "みなと",
      "name_kana": "",
      "business_type": "",
      "address": "邑智郡美郷町都賀行１０４",
      "lat": 34.982047,
      "lng": 132.596212,
      "geocoding_level": 3,
      "phone": "0855-82-2058",
      "license_no": "070448013",
      "license_date": null,
      "expire_date": null
    },
    {
      "name": "大和伝統漁業梁保存組合",
      "name_kana": "",
      "business_type": "",
      "address": "邑智郡美郷町都賀西３８－７",
      "lat": 34.939623891,
      "lng": 132.642991547,
      "geocoding_level": 8,
      "phone": "",
      "license_no": "030440004",
      "license_date": null,
      "expire_date": null
    },
    {
      "name": "武澤屋鮮魚",
      "name_kana": "",
      "business_type": "",
      "address": "邑智郡美郷町粕渕四日市３０６－８",
      "lat": 35.095737,
      "lng": 132.599754,
      "geocoding_level": 3,
      "phone": "0855-75-1873",
      "license_no": "030448012",
      "license_date": null,
      "expire_date": null
    },
    {
      "name": "おおち山くじら食肉処理場",
      "name_kana": "",
      "business_type": "",
      "address": "邑智郡美郷町乙原３６３",
      "lat": 35.012303,
      "lng": 132.544587,
      "geocoding_level": 3,
      "phone": "0855-75-0887",
      "license_no": "070498002",
      "license_date": null,
      "expire_date": null
    },
    {
      "name": "美郷バレー　タイガー株式会社　食肉加工所",
      "name_kana": "",
      "business_type": "",
      "address": "邑智郡美郷町吾郷６８",
      "lat": 35.044189307,
      "lng": 132.580103051,
      "geocoding_level": 8,
      "phone": "0855-74-2234",
      "license_no": "080498001",
      "license_date": null,
      "expire_date": null
    },
    {
      "name": "ジョイワーク　みさと",
      "name_kana": "",
      "business_type": "",
      "address": "邑智郡美郷町久保４１、７４０－７、７４０－１３",
      "lat": 35.081551,
      "lng": 132.620492,
      "geocoding_level": 3,
      "phone": "0855-74-6033",
      "license_no": "050510003",
      "license_date": null,
      "expire_date": null
    },
    {
      "name": "工房　さくら",
      "name_kana": "",
      "business_type": "",
      "address": "邑智郡美郷町上川戸１５３－１",
      "lat": 35.052864881,
      "lng": 132.608866725,
      "geocoding_level": 8,
      "phone": "0855-74-2175",
      "license_no": "080518012",
      "license_date": null,
      "expire_date": null
    },
    {
      "name": "石見ワイナリーホテル美郷",
      "name_kana": "",
      "business_type": "",
      "address": "邑智郡美郷町長藤７６０－１",
      "lat": 35.013221342,
      "lng": 132.63166416100003,
      "geocoding_level": 8,
      "phone": "0855-74-6588",
      "license_no": "060510005",
      "license_date": null,
      "expire_date": null
    },
    {
      "name": "山里の会",
      "name_kana": "",
      "business_type": "",
      "address": "邑智郡美郷町都賀西３８－７",
      "lat": 34.939623891,
      "lng": 132.642991547,
      "geocoding_level": 8,
      "phone": "0855-82-2811",
      "license_no": "030510008",
      "license_date": null,
      "expire_date": null
    },
    {
      "name": "松島甘源堂",
      "name_kana": "",
      "business_type": "",
      "address": "邑智郡美郷町都賀本郷３３－１",
      "lat": 34.961990535,
      "lng": 132.64363534300003,
      "geocoding_level": 8,
      "phone": "0855-82-2032",
      "license_no": "040518087",
      "license_date": null,
      "expire_date": null
    },
    {
      "name": "寿恵久仁屋",
      "name_kana": "",
      "business_type": "",
      "address": "邑智郡美郷町粕渕２１９",
      "lat": 35.074619947,
      "lng": 132.591692129,
      "geocoding_level": 8,
      "phone": "0855-75-0029",
      "license_no": "050518019",
      "license_date": null,
      "expire_date": null
    },
    {
      "name": "菓子屋　Ｍｏｇ．",
      "name_kana": "",
      "business_type": "",
      "address": "邑智郡美郷町粕渕２５２－３",
      "lat": 35.074738247,
      "lng": 132.590248957,
      "geocoding_level": 8,
      "phone": "",
      "license_no": "050510007",
      "license_date": null,
      "expire_date": null
    },
    {
      "name": "野間郷愛組合",
      "name_kana": "",
      "business_type": "",
      "address": "邑智郡美郷町粕渕８９３－１",
      "lat": 35.102974868,
      "lng": 132.604660836,
      "geocoding_level": 8,
      "phone": "",
      "license_no": "050518023",
      "license_date": null,
      "expire_date": null
    },
    {
      "name": "ベーカリー卯月",
      "name_kana": "",
      "business_type": "",
      "address": "邑智郡美郷町浜原２８７－１",
      "lat": 35.068711509,
      "lng": 132.601056156,
      "geocoding_level": 8,
      "phone": "0855-74-6433",
      "license_no": "060518056",
      "license_date": null,
      "expire_date": null
    },
    {
      "name": "富士屋本舗",
      "name_kana": "",
      "business_type": "",
      "address": "邑智郡美郷町浜原３８５－３",
      "lat": 35.063445175,
      "lng": 132.599758119,
      "geocoding_level": 8,
      "phone": "0855-75-0137",
      "license_no": "070518084",
      "license_date": null,
      "expire_date": null
    },
    {
      "name": "産直市　やなしおの里",
      "name_kana": "",
      "business_type": "",
      "address": "邑智郡美郷町別府２１５－１",
      "lat": 35.099120149,
      "lng": 132.533514761,
      "geocoding_level": 8,
      "phone": "0855-75-1677",
      "license_no": "070510003",
      "license_date": null,
      "expire_date": null
    },
    {
      "name": "山里の会",
      "name_kana": "",
      "business_type": "",
      "address": "邑智郡美郷町都賀西３８－７",
      "lat": 34.939623891,
      "lng": 132.642991547,
      "geocoding_level": 8,
      "phone": "0855-82-2811",
      "license_no": "030548002",
      "license_date": null,
      "expire_date": null
    },
    {
      "name": "株式会社　ＹＵＵＮＯＵファーム",
      "name_kana": "",
      "business_type": "",
      "address": "邑智郡美郷町都賀西３８番地",
      "lat": 34.943034,
      "lng": 132.633742,
      "geocoding_level": 3,
      "phone": "0855-74-6666",
      "license_no": "040548005",
      "license_date": null,
      "expire_date": null
    },
    {
      "name": "寺谷農産物加工所",
      "name_kana": "",
      "business_type": "",
      "address": "邑智郡美郷町小松地５６６－２",
      "lat": 35.089503041,
      "lng": 132.530969078,
      "geocoding_level": 8,
      "phone": "",
      "license_no": "040608007",
      "license_date": null,
      "expire_date": null
    },
    {
      "name": "山里の会",
      "name_kana": "",
      "business_type": "",
      "address": "邑智郡美郷町都賀西３８－７",
      "lat": 34.939623891,
      "lng": 132.642991547,
      "geocoding_level": 8,
      "phone": "0855-82-2811",
      "license_no": "030608005",
      "license_date": null,
      "expire_date": null
    },
    {
      "name": "濁酒蔵元と農家民宿　邑川",
      "name_kana": "",
      "business_type": "",
      "address": "邑智郡美郷町都賀本郷９７",
      "lat": 34.956598,
      "lng": 132.655843,
      "geocoding_level": 3,
      "phone": "0855-74-6122",
      "license_no": "060618001",
      "license_date": null,
      "expire_date": null
    },
    {
      "name": "株式会社クイージ　美郷支店",
      "name_kana": "",
      "business_type": "",
      "address": "邑智郡美郷町乙原３６３",
      "lat": 35.012303,
      "lng": 132.544587,
      "geocoding_level": 3,
      "phone": "0855‐75‐0887",
      "license_no": "030650006",
      "license_date": null,
      "expire_date": null
    },
    {
      "name": "フレンドリーグループ",
      "name_kana": "",
      "business_type": "",
      "address": "邑智郡美郷町都賀西３８－７",
      "lat": 34.939623891,
      "lng": 132.642991547,
      "geocoding_level": 8,
      "phone": "0855-82-2811",
      "license_no": "030658004",
      "license_date": null,
      "expire_date": null
    },
    {
      "name": "広島風お好み焼「ふくだ」",
      "name_kana": "",
      "business_type": "",
      "address": "邑智郡美郷町久保１６５－５",
      "lat": 35.074851414,
      "lng": 132.59668139,
      "geocoding_level": 8,
      "phone": "0855-75-0777",
      "license_no": "050678002",
      "license_date": null,
      "expire_date": null
    },
    {
      "name": "吉川　統子",
      "name_kana": "",
      "business_type": "",
      "address": "邑智郡美郷町九日市１０４",
      "lat": 35.05189846700001,
      "lng": 132.659324793,
      "geocoding_level": 8,
      "phone": "0855-76-0473",
      "license_no": "060690007",
      "license_date": null,
      "expire_date": null
    },
    {
      "name": "ふじ野農園",
      "name_kana": "",
      "business_type": "",
      "address": "邑智郡美郷町都賀行１６２－１",
      "lat": 34.995997676,
      "lng": 132.605880667,
      "geocoding_level": 8,
      "phone": "0855-82-3059",
      "license_no": "060690008",
      "license_date": null,
      "expire_date": null
    },
    {
      "name": "山里の会",
      "name_kana": "",
      "business_type": "",
      "address": "邑智郡美郷町都賀西３８－７",
      "lat": 34.939623891,
      "lng": 132.642991547,
      "geocoding_level": 8,
      "phone": "0855-82-2811",
      "license_no": "060690011",
      "license_date": null,
      "expire_date": null
    },
    {
      "name": "沢谷地域連合自治会",
      "name_kana": "",
      "business_type": "",
      "address": "邑智郡美郷町九日市１１８",
      "lat": 35.042375,
      "lng": 132.679441,
      "geocoding_level": 3,
      "phone": "0855-75-1920",
      "license_no": "070710001",
      "license_date": null,
      "expire_date": null
    },
    {
      "name": "中国電力（株）　粕渕寮食堂",
      "name_kana": "",
      "business_type": "",
      "address": "邑智郡美郷町粕渕９２－２５",
      "lat": 35.075860728,
      "lng": 132.589502638,
      "geocoding_level": 8,
      "phone": "0855-75-1361",
      "license_no": "038010616",
      "license_date": null,
      "expire_date": null
    },
    {
      "name": "Ａコープ邑智",
      "name_kana": "",
      "business_type": "",
      "address": "邑智郡美郷町粕渕８１－１",
      "lat": 35.076582732,
      "lng": 132.58826491,
      "geocoding_level": 8,
      "phone": "0855-75-0037",
      "license_no": "028125538",
      "license_date": null,
      "expire_date": null
    },
    {
      "name": "山陰ヤクルト販売株式会社　邑智センター",
      "name_kana": "サンインヤクルトハンバイカブシキガイシャ　オオチセンター",
      "business_type": "⑬ その他の食料・飲料販売業",
      "address": "島根県邑智郡美郷町浜原287-1",
      "lat": 35.068736,
      "lng": 132.600969,
      "geocoding_level": null,
      "phone": "",
      "license_no": "",
      "license_date": null,
      "expire_date": null
    },
    {
      "name": "花ごよみ　Aコープおおち",
      "name_kana": "ハナゴヨミ　エーコープオオチ",
      "business_type": "① 飲食店営業",
      "address": "島根県邑智郡美郷町粕渕81-1",
      "lat": 35.076506,
      "lng": 132.588474,
      "geocoding_level": null,
      "phone": "0855-75-0303",
      "license_no": "070418211",
      "license_date": "2025-11-21",
      "expire_date": "2030-11-30"
    },
    {
      "name": "Aコープおおち",
      "name_kana": "エーコープオオチ",
      "business_type": "⑪ 百貨店、総合スーパー",
      "address": "島根県邑智郡美郷町粕渕81-1",
      "lat": 35.076506,
      "lng": 132.588474,
      "geocoding_level": null,
      "phone": "0854-75-0037",
      "license_no": "",
      "license_date": null,
      "expire_date": null
    }
  ]
}
