{
  "meta": {
    "updated": 1783906731,
    "sources": [
      {
        "source": "長野県食品営業許可施設",
        "license": "要確認"
      },
      {
        "source": "厚生労働省 食品衛生申請等システム（オープンデータ）",
        "license": "公共データ利用規約（第1.0版, PDL1.0）"
      }
    ]
  },
  "data": [
    {
      "name": "Rica　Chan　House",
      "name_kana": "",
      "business_type": "菓子製造業",
      "address": "茅野市宮川西山６６４３－２６",
      "lat": 35.978166,
      "lng": 138.160466,
      "geocoding_level": 3,
      "phone": "",
      "license_no": "第04255589号",
      "license_date": "2019-11-29",
      "expire_date": "2026-10-31"
    },
    {
      "name": "たてしな麓八",
      "name_kana": "",
      "business_type": "飲食店営業",
      "address": "茅野市北山５５２２－４５１",
      "lat": 36.068783,
      "lng": 138.272294,
      "geocoding_level": 3,
      "phone": "",
      "license_no": "第04255571号",
      "license_date": "2019-11-29",
      "expire_date": "2026-07-31"
    },
    {
      "name": "夢飛行",
      "name_kana": "",
      "business_type": "菓子製造業",
      "address": "茅野市北山字汐下３４７８－１",
      "lat": 36.068783,
      "lng": 138.272294,
      "geocoding_level": 3,
      "phone": "",
      "license_no": "第04256196号",
      "license_date": "2020-03-23",
      "expire_date": "2026-10-31"
    },
    {
      "name": "夢飛行",
      "name_kana": "",
      "business_type": "喫茶店営業",
      "address": "茅野市北山字汐下３４７８－１",
      "lat": 36.068783,
      "lng": 138.272294,
      "geocoding_level": 3,
      "phone": "",
      "license_no": "第04256207号",
      "license_date": "2020-03-23",
      "expire_date": "2026-10-31"
    },
    {
      "name": "ツルヤ茅野店",
      "name_kana": "",
      "business_type": "飲食店営業",
      "address": "茅野市本町東１０－５８",
      "lat": 35.999822042,
      "lng": 138.168109917,
      "geocoding_level": 8,
      "phone": "",
      "license_no": "第04256261号",
      "license_date": "2020-03-23",
      "expire_date": "2026-10-31"
    },
    {
      "name": "音無の湯",
      "name_kana": "",
      "business_type": "アイスクリーム類製造業",
      "address": "茅野市北山２９７７番地１",
      "lat": 36.068783,
      "lng": 138.272294,
      "geocoding_level": 3,
      "phone": "",
      "license_no": "第04256303号",
      "license_date": "2020-03-26",
      "expire_date": "2026-10-31"
    },
    {
      "name": "ｃａ’ｅｎｎｅ",
      "name_kana": "",
      "business_type": "飲食店営業",
      "address": "茅野市豊平字東嶽１０２２２－２５",
      "lat": 36.008593,
      "lng": 138.295905,
      "geocoding_level": 3,
      "phone": "",
      "license_no": "第04256374号",
      "license_date": "2020-03-27",
      "expire_date": "2026-10-31"
    },
    {
      "name": "オーベルジュ　つつじとかえで",
      "name_kana": "",
      "business_type": "飲食店営業",
      "address": "茅野市北山４０３５番地２",
      "lat": 36.068783,
      "lng": 138.272294,
      "geocoding_level": 3,
      "phone": "",
      "license_no": "第04256933号",
      "license_date": "2020-06-05",
      "expire_date": "2026-07-31"
    },
    {
      "name": "Ａ・コープファーマーズピアみどり店",
      "name_kana": "",
      "business_type": "菓子製造業",
      "address": "茅野市豊平３０６６",
      "lat": 36.008593,
      "lng": 138.295905,
      "geocoding_level": 3,
      "phone": "",
      "license_no": "第04257063号",
      "license_date": "2026-03-31",
      "expire_date": "2032-03-31"
    },
    {
      "name": "ウシヤマ",
      "name_kana": "",
      "business_type": "そうざい製造業",
      "address": "茅野市湖東３０８４",
      "lat": 36.025398,
      "lng": 138.204335,
      "geocoding_level": 3,
      "phone": "",
      "license_no": "第04230680号",
      "license_date": "2020-06-30",
      "expire_date": "2026-06-30"
    },
    {
      "name": "蓼科アイス",
      "name_kana": "",
      "business_type": "飲食店営業",
      "address": "茅野市北山４０３５‐２９０６の一部",
      "lat": 36.068783,
      "lng": 138.272294,
      "geocoding_level": 3,
      "phone": "",
      "license_no": "第04257259号",
      "license_date": "2020-07-10",
      "expire_date": "2026-07-31"
    },
    {
      "name": "蓼科アイス",
      "name_kana": "",
      "business_type": "アイスクリーム類製造業",
      "address": "茅野市北山４０３５‐２９０６の一部",
      "lat": 36.068783,
      "lng": 138.272294,
      "geocoding_level": 3,
      "phone": "",
      "license_no": "第04257266号",
      "license_date": "2020-07-10",
      "expire_date": "2026-07-31"
    },
    {
      "name": "上海酒家　タオタオ",
      "name_kana": "",
      "business_type": "飲食店営業",
      "address": "茅野市仲町７－５",
      "lat": 35.993605789,
      "lng": 138.154619539,
      "geocoding_level": 8,
      "phone": "",
      "license_no": "第04257316号",
      "license_date": "2020-07-17",
      "expire_date": "2026-10-31"
    },
    {
      "name": "クレープカフェ　シカール",
      "name_kana": "",
      "business_type": "飲食店営業",
      "address": "茅野市宮川４４４９－１",
      "lat": 35.978166,
      "lng": 138.160466,
      "geocoding_level": 3,
      "phone": "",
      "license_no": "第04256659号",
      "license_date": "2020-05-07",
      "expire_date": "2026-10-31"
    },
    {
      "name": "大和屋",
      "name_kana": "",
      "business_type": "飲食店営業",
      "address": "茅野市塚原１丁目１７ オギノ内",
      "lat": 35.998461,
      "lng": 138.152314,
      "geocoding_level": 3,
      "phone": "",
      "license_no": "第04257362号",
      "license_date": "2020-07-31",
      "expire_date": "2026-11-30"
    },
    {
      "name": "大和屋",
      "name_kana": "",
      "business_type": "菓子製造業",
      "address": "茅野市塚原１丁目１７ オギノ内",
      "lat": 35.998461,
      "lng": 138.152314,
      "geocoding_level": 3,
      "phone": "",
      "license_no": "第04257370号",
      "license_date": "2020-07-31",
      "expire_date": "2026-11-30"
    },
    {
      "name": "（有）奥蓼科温泉渋辰野旅館",
      "name_kana": "",
      "business_type": "飲食店営業",
      "address": "茅野市豊平４７３４",
      "lat": 36.008593,
      "lng": 138.295905,
      "geocoding_level": 3,
      "phone": "",
      "license_no": "第04025030号",
      "license_date": "2020-07-31",
      "expire_date": "2026-07-31"
    },
    {
      "name": "ネーベルハウゼ",
      "name_kana": "",
      "business_type": "飲食店営業",
      "address": "茅野市北山３４１３―８",
      "lat": 36.068783,
      "lng": 138.272294,
      "geocoding_level": 3,
      "phone": "",
      "license_no": "第04029017号",
      "license_date": "2020-07-31",
      "expire_date": "2026-07-31"
    },
    {
      "name": "ペンションモルゲンロード",
      "name_kana": "",
      "business_type": "飲食店営業",
      "address": "茅野市北山４０３５―２２３３",
      "lat": 36.068783,
      "lng": 138.272294,
      "geocoding_level": 3,
      "phone": "",
      "license_no": "第04030561号",
      "license_date": "2020-07-31",
      "expire_date": "2026-07-31"
    },
    {
      "name": "ホテル信濃プリンスシラカバ",
      "name_kana": "",
      "business_type": "飲食店営業",
      "address": "茅野市北山白樺湖３４１９―１",
      "lat": 36.068783,
      "lng": 138.272294,
      "geocoding_level": 3,
      "phone": "",
      "license_no": "第04102480号",
      "license_date": "2020-07-31",
      "expire_date": "2027-07-31"
    },
    {
      "name": "プチリゾートモンテ・フローラ",
      "name_kana": "",
      "business_type": "飲食店営業",
      "address": "茅野市北山３４１３",
      "lat": 36.068783,
      "lng": 138.272294,
      "geocoding_level": 3,
      "phone": "",
      "license_no": "第04117008号",
      "license_date": "2020-07-31",
      "expire_date": "2027-07-31"
    },
    {
      "name": "オーベルジュ赤煉瓦",
      "name_kana": "",
      "business_type": "飲食店営業",
      "address": "茅野市北山字入之嶺３４１３",
      "lat": 36.068783,
      "lng": 138.272294,
      "geocoding_level": 3,
      "phone": "",
      "license_no": "第04131424号",
      "license_date": "2020-07-31",
      "expire_date": "2026-07-31"
    },
    {
      "name": "リゾートイン　ウインズ",
      "name_kana": "",
      "business_type": "飲食店営業",
      "address": "茅野市北山３４１３",
      "lat": 36.068783,
      "lng": 138.272294,
      "geocoding_level": 3,
      "phone": "",
      "license_no": "第04133133号",
      "license_date": "2020-07-31",
      "expire_date": "2026-07-31"
    },
    {
      "name": "テクノ菱和白樺山荘",
      "name_kana": "",
      "business_type": "飲食店営業",
      "address": "茅野市北山本道３４１９",
      "lat": 36.068783,
      "lng": 138.272294,
      "geocoding_level": 3,
      "phone": "",
      "license_no": "第04141572号",
      "license_date": "2020-07-31",
      "expire_date": "2026-07-31"
    },
    {
      "name": "ペンション　サンセット",
      "name_kana": "",
      "business_type": "飲食店営業",
      "address": "茅野市北山４０３５－２２２５",
      "lat": 36.068783,
      "lng": 138.272294,
      "geocoding_level": 3,
      "phone": "",
      "license_no": "第04141751号",
      "license_date": "2020-07-31",
      "expire_date": "2026-07-31"
    },
    {
      "name": "ウィスラ－（２階）",
      "name_kana": "",
      "business_type": "飲食店営業",
      "address": "茅野市北山３４２４",
      "lat": 36.068783,
      "lng": 138.272294,
      "geocoding_level": 3,
      "phone": "",
      "license_no": "第04141953号",
      "license_date": "2020-07-31",
      "expire_date": "2026-07-31"
    },
    {
      "name": "八ヶ岳山荘",
      "name_kana": "",
      "business_type": "飲食店営業",
      "address": "茅野市玉川字原山１１４００－８３３，８５０，１１２３",
      "lat": 35.986365,
      "lng": 138.26356,
      "geocoding_level": 3,
      "phone": "",
      "license_no": "第04153771号",
      "license_date": "2020-07-31",
      "expire_date": "2026-07-31"
    },
    {
      "name": "ピア　カフェ１６８",
      "name_kana": "",
      "business_type": "飲食店営業",
      "address": "茅野市北山５５２２－４５０（蓼科ビレッジ滝見平１６８Ａ）",
      "lat": 36.068783,
      "lng": 138.272294,
      "geocoding_level": 3,
      "phone": "",
      "license_no": "第04153425号",
      "license_date": "2020-07-31",
      "expire_date": "2026-07-31"
    },
    {
      "name": "翠陽　６号館１階（中国）",
      "name_kana": "",
      "business_type": "飲食店営業",
      "address": "茅野市北山南山栗平ヨリ三室大萱迄４０３５－２７０５他",
      "lat": 36.068783,
      "lng": 138.272294,
      "geocoding_level": 3,
      "phone": "",
      "license_no": "第04162374号",
      "license_date": "2020-07-31",
      "expire_date": "2027-07-31"
    },
    {
      "name": "プチホテル花南",
      "name_kana": "",
      "business_type": "飲食店営業",
      "address": "茅野市北山３４１３",
      "lat": 36.068783,
      "lng": 138.272294,
      "geocoding_level": 3,
      "phone": "",
      "license_no": "第04177287号",
      "license_date": "2020-07-31",
      "expire_date": "2026-07-31"
    },
    {
      "name": "ウイスキー・ジャック",
      "name_kana": "",
      "business_type": "飲食店営業",
      "address": "茅野市北山３４１３",
      "lat": 36.068783,
      "lng": 138.272294,
      "geocoding_level": 3,
      "phone": "",
      "license_no": "第04177294号",
      "license_date": "2020-07-31",
      "expire_date": "2026-07-31"
    },
    {
      "name": "ＴＡＴＥＳＨＩＮＡ喜多山豊平店",
      "name_kana": "",
      "business_type": "飲食店営業",
      "address": "茅野市豊平字日影田１９４０－５",
      "lat": 36.008593,
      "lng": 138.295905,
      "geocoding_level": 3,
      "phone": "",
      "license_no": "第04196017号",
      "license_date": "2020-07-31",
      "expire_date": "2027-07-31"
    },
    {
      "name": "中京大学蓼科セミナーハウス　マウントビュー蓼科",
      "name_kana": "",
      "business_type": "飲食店営業",
      "address": "茅野市豊平字東嶽４７３４－２８４１",
      "lat": 36.008593,
      "lng": 138.295905,
      "geocoding_level": 3,
      "phone": "",
      "license_no": "第04202469号",
      "license_date": "2020-07-31",
      "expire_date": "2026-07-31"
    },
    {
      "name": "三五十屋（みごとや）",
      "name_kana": "",
      "business_type": "飲食店営業",
      "address": "茅野市北山４０３５",
      "lat": 36.068783,
      "lng": 138.272294,
      "geocoding_level": 3,
      "phone": "",
      "license_no": "第04204810号",
      "license_date": "2020-07-31",
      "expire_date": "2026-07-31"
    },
    {
      "name": "ふくろうの宿",
      "name_kana": "",
      "business_type": "飲食店営業",
      "address": "茅野市北山４０３５－２１６２",
      "lat": 36.068783,
      "lng": 138.272294,
      "geocoding_level": 3,
      "phone": "",
      "license_no": "第04206204号",
      "license_date": "2020-07-31",
      "expire_date": "2026-07-31"
    },
    {
      "name": "四季の宿　すばる",
      "name_kana": "",
      "business_type": "飲食店営業",
      "address": "茅野市北山４０３５－２２２４",
      "lat": 36.068783,
      "lng": 138.272294,
      "geocoding_level": 3,
      "phone": "",
      "license_no": "第04231218号",
      "license_date": "2020-07-31",
      "expire_date": "2026-07-31"
    },
    {
      "name": "白樺湖フィッシングセンター　エリア・ヴィーナス",
      "name_kana": "",
      "business_type": "飲食店営業",
      "address": "茅野市北山白樺湖３４１９ しらかばｉｎ",
      "lat": 36.068783,
      "lng": 138.272294,
      "geocoding_level": 3,
      "phone": "",
      "license_no": "第04231653号",
      "license_date": "2020-07-31",
      "expire_date": "2026-07-31"
    },
    {
      "name": "リゾート　イン　シェルブール",
      "name_kana": "",
      "business_type": "飲食店営業",
      "address": "茅野市北山３４１３－１０９",
      "lat": 36.068783,
      "lng": 138.272294,
      "geocoding_level": 3,
      "phone": "",
      "license_no": "第04232681号",
      "license_date": "2020-07-31",
      "expire_date": "2026-07-31"
    },
    {
      "name": "ＬＥＳ　ＣＥＲＩＳＩＥＲＳ",
      "name_kana": "",
      "business_type": "飲食店営業",
      "address": "茅野市北山５５２２－４３７　滝見平１１２",
      "lat": 36.068783,
      "lng": 138.272294,
      "geocoding_level": 3,
      "phone": "",
      "license_no": "第04234011号",
      "license_date": "2020-07-31",
      "expire_date": "2026-07-31"
    },
    {
      "name": "モスバーガー　茅野沖田店",
      "name_kana": "",
      "business_type": "飲食店営業",
      "address": "茅野市ちの２７６７－５",
      "lat": 36.002408,
      "lng": 138.145936,
      "geocoding_level": 3,
      "phone": "",
      "license_no": "第04257469号",
      "license_date": "2020-08-21",
      "expire_date": "2026-10-31"
    },
    {
      "name": "ゲストハウス　ゆみち",
      "name_kana": "",
      "business_type": "飲食店営業",
      "address": "茅野市湖東１３２３９－１",
      "lat": 36.025398,
      "lng": 138.204335,
      "geocoding_level": 3,
      "phone": "",
      "license_no": "第04257420号",
      "license_date": "2020-08-14",
      "expire_date": "2026-10-31"
    },
    {
      "name": "ペンションブルーベリー",
      "name_kana": "",
      "business_type": "飲食店営業",
      "address": "茅野市北山３４１９",
      "lat": 36.068783,
      "lng": 138.272294,
      "geocoding_level": 3,
      "phone": "",
      "license_no": "第04107538号",
      "license_date": "2020-07-31",
      "expire_date": "2026-07-31"
    },
    {
      "name": "楓　Ｆｕ",
      "name_kana": "",
      "business_type": "飲食店営業",
      "address": "茅野市北山字車沢３４１２－３１",
      "lat": 36.068783,
      "lng": 138.272294,
      "geocoding_level": 3,
      "phone": "",
      "license_no": "第04257801号",
      "license_date": "2020-10-15",
      "expire_date": "2027-07-31"
    },
    {
      "name": "株式会社ピーター",
      "name_kana": "",
      "business_type": "食肉販売業",
      "address": "茅野市ちの２７４－５",
      "lat": 36.002408,
      "lng": 138.145936,
      "geocoding_level": 3,
      "phone": "",
      "license_no": "第04257818号",
      "license_date": "2020-10-19",
      "expire_date": "2026-10-31"
    },
    {
      "name": "(株)中日諏訪オプト電子",
      "name_kana": "",
      "business_type": "喫茶店営業",
      "address": "茅野市豊平５２３９－１",
      "lat": 36.008593,
      "lng": 138.295905,
      "geocoding_level": 3,
      "phone": "",
      "license_no": "第04257921号",
      "license_date": "2020-10-30",
      "expire_date": "2026-06-30"
    },
    {
      "name": "ホテル君待荘",
      "name_kana": "",
      "business_type": "飲食店営業",
      "address": "茅野市北山白樺湖３４１９―１",
      "lat": 36.068783,
      "lng": 138.272294,
      "geocoding_level": 3,
      "phone": "",
      "license_no": "第04025500号",
      "license_date": "2020-10-30",
      "expire_date": "2026-10-31"
    },
    {
      "name": "つくし",
      "name_kana": "",
      "business_type": "飲食店営業",
      "address": "茅野市北山柏原３４７７―２",
      "lat": 36.068783,
      "lng": 138.272294,
      "geocoding_level": 3,
      "phone": "",
      "license_no": "第04028230号",
      "license_date": "2020-10-30",
      "expire_date": "2026-10-31"
    },
    {
      "name": "くるみ",
      "name_kana": "",
      "business_type": "飲食店営業",
      "address": "茅野市ちの２３６－７",
      "lat": 36.002408,
      "lng": 138.145936,
      "geocoding_level": 3,
      "phone": "",
      "license_no": "第04109247号",
      "license_date": "2020-10-30",
      "expire_date": "2026-10-31"
    },
    {
      "name": "ウッドペッカー",
      "name_kana": "",
      "business_type": "飲食店営業",
      "address": "茅野市塚原１―１８―６",
      "lat": 36.000119664,
      "lng": 138.15250325,
      "geocoding_level": 8,
      "phone": "",
      "license_no": "第04111878号",
      "license_date": "2020-10-30",
      "expire_date": "2026-10-31"
    },
    {
      "name": "レストラン　ドミンゴ",
      "name_kana": "",
      "business_type": "飲食店営業",
      "address": "茅野市米沢３７７５―２",
      "lat": 36.047629,
      "lng": 138.186053,
      "geocoding_level": 3,
      "phone": "",
      "license_no": "第04132694号",
      "license_date": "2020-10-30",
      "expire_date": "2026-10-31"
    },
    {
      "name": "パテスリ－・ド・ノア",
      "name_kana": "",
      "business_type": "菓子製造業",
      "address": "茅野市ちの２６４－２０",
      "lat": 36.002408,
      "lng": 138.145936,
      "geocoding_level": 3,
      "phone": "",
      "license_no": "第04142998号",
      "license_date": "2020-10-30",
      "expire_date": "2026-10-31"
    },
    {
      "name": "有限会社　わいわいはうす",
      "name_kana": "",
      "business_type": "飲食店営業",
      "address": "茅野市ちの２９３４－２",
      "lat": 36.002408,
      "lng": 138.145936,
      "geocoding_level": 3,
      "phone": "",
      "license_no": "第04143024号",
      "license_date": "2020-10-30",
      "expire_date": "2026-10-31"
    },
    {
      "name": "ヌーベル梅林堂蓼科高原ケ－キファクトリ－パ－ク",
      "name_kana": "",
      "business_type": "菓子製造業",
      "address": "茅野市豊平若宮１９３６－１",
      "lat": 36.008593,
      "lng": 138.295905,
      "geocoding_level": 3,
      "phone": "",
      "license_no": "第04146651号",
      "license_date": "2020-10-30",
      "expire_date": "2027-10-31"
    },
    {
      "name": "栄町",
      "name_kana": "",
      "business_type": "飲食店営業",
      "address": "茅野市湖東６５９５－３５９",
      "lat": 36.025398,
      "lng": 138.204335,
      "geocoding_level": 3,
      "phone": "",
      "license_no": "第04152615号",
      "license_date": "2020-10-30",
      "expire_date": "2026-10-31"
    },
    {
      "name": "ジェラテリア　旬",
      "name_kana": "",
      "business_type": "アイスクリーム類製造業",
      "address": "茅野市米沢７７０６－１",
      "lat": 36.047629,
      "lng": 138.186053,
      "geocoding_level": 3,
      "phone": "",
      "license_no": "第04153261号",
      "license_date": "2020-10-30",
      "expire_date": "2026-10-31"
    },
    {
      "name": "真心",
      "name_kana": "",
      "business_type": "飲食店営業",
      "address": "茅野市玉川神之原２２９６－７",
      "lat": 35.986365,
      "lng": 138.26356,
      "geocoding_level": 3,
      "phone": "",
      "license_no": "第04155497号",
      "license_date": "2020-10-30",
      "expire_date": "2026-10-31"
    },
    {
      "name": "有限会社　勝味庵",
      "name_kana": "",
      "business_type": "飲食店営業",
      "address": "茅野市宮川１３８８－１０",
      "lat": 35.999263278,
      "lng": 138.136406718,
      "geocoding_level": 8,
      "phone": "",
      "license_no": "第04155604号",
      "license_date": "2020-10-30",
      "expire_date": "2026-10-31"
    },
    {
      "name": "ラウンジ　チェリー",
      "name_kana": "",
      "business_type": "飲食店営業",
      "address": "茅野市ちの３０４１",
      "lat": 36.002408,
      "lng": 138.145936,
      "geocoding_level": 3,
      "phone": "",
      "license_no": "第04205262号",
      "license_date": "2020-10-30",
      "expire_date": "2026-10-31"
    },
    {
      "name": "手打ち蕎麦切り蓼山亭",
      "name_kana": "",
      "business_type": "飲食店営業",
      "address": "茅野市米沢１７４－１",
      "lat": 36.047629,
      "lng": 138.186053,
      "geocoding_level": 3,
      "phone": "",
      "license_no": "第04205433号",
      "license_date": "2020-10-30",
      "expire_date": "2026-10-31"
    },
    {
      "name": "レストランＨｉｋｏ",
      "name_kana": "",
      "business_type": "飲食店営業",
      "address": "茅野市豊平３２２８－１４",
      "lat": 36.008593,
      "lng": 138.295905,
      "geocoding_level": 3,
      "phone": "",
      "license_no": "第04205562号",
      "license_date": "2020-10-30",
      "expire_date": "2026-10-31"
    },
    {
      "name": "百歩",
      "name_kana": "",
      "business_type": "飲食店営業",
      "address": "茅野市北山５０７５－４",
      "lat": 36.068783,
      "lng": 138.272294,
      "geocoding_level": 3,
      "phone": "",
      "license_no": "第04206291号",
      "license_date": "2020-10-30",
      "expire_date": "2026-10-31"
    },
    {
      "name": "八ヶ岳　Ｓｅｒｅｎｏ",
      "name_kana": "",
      "business_type": "飲食店営業",
      "address": "茅野市玉川１１３９８－２９１",
      "lat": 35.994954878,
      "lng": 138.240540885,
      "geocoding_level": 8,
      "phone": "",
      "license_no": "第04233519号",
      "license_date": "2020-10-30",
      "expire_date": "2026-10-31"
    },
    {
      "name": "ＡＰＰＬＥ　ＮＯＯＤＬＥ　ＩＮＣ．",
      "name_kana": "",
      "business_type": "そうざい製造業",
      "address": "茅野市泉野５９３１－１００",
      "lat": 35.995707,
      "lng": 138.22845,
      "geocoding_level": 3,
      "phone": "",
      "license_no": "第04234592号",
      "license_date": "2020-10-30",
      "expire_date": "2026-10-31"
    },
    {
      "name": "小料理　小鈴",
      "name_kana": "",
      "business_type": "飲食店営業",
      "address": "茅野市仲町５－２５",
      "lat": 35.9936007,
      "lng": 138.153916878,
      "geocoding_level": 8,
      "phone": "",
      "license_no": "第04235356号",
      "license_date": "2020-10-30",
      "expire_date": "2026-10-31"
    },
    {
      "name": "純生食パン工房　ＨＡＲＥ／ＰＡＮ茅野店",
      "name_kana": "",
      "business_type": "菓子製造業",
      "address": "茅野市ちの２６１５－１",
      "lat": 36.002408,
      "lng": 138.145936,
      "geocoding_level": 3,
      "phone": "",
      "license_no": "第04257985号",
      "license_date": "2020-11-13",
      "expire_date": "2027-10-31"
    },
    {
      "name": "あーちゃんのベーグル屋さん",
      "name_kana": "",
      "business_type": "菓子製造業",
      "address": "茅野市宮川４４４６－３",
      "lat": 35.978166,
      "lng": 138.160466,
      "geocoding_level": 3,
      "phone": "",
      "license_no": "第04258051号",
      "license_date": "2020-11-18",
      "expire_date": "2027-10-31"
    },
    {
      "name": "ｃｕｃｉｎａ　ＫＩＭＵＲＡ",
      "name_kana": "",
      "business_type": "菓子製造業",
      "address": "茅野市北山５５２２－３２７",
      "lat": 36.068783,
      "lng": 138.272294,
      "geocoding_level": 3,
      "phone": "",
      "license_no": "第04258172号",
      "license_date": "2020-11-27",
      "expire_date": "2026-10-31"
    },
    {
      "name": "どんまる　茅野店　ぐっさん",
      "name_kana": "",
      "business_type": "飲食店営業",
      "address": "茅野市塚原１‐１３‐２１",
      "lat": 35.999775914000004,
      "lng": 138.151078739,
      "geocoding_level": 8,
      "phone": "",
      "license_no": "第04257234号",
      "license_date": "2020-07-06",
      "expire_date": "2026-10-31"
    },
    {
      "name": "大手川魚店",
      "name_kana": "",
      "business_type": "魚介類販売業",
      "address": "茅野市塚原二丁目１５番１８号",
      "lat": 35.999141642,
      "lng": 138.156443072,
      "geocoding_level": 8,
      "phone": "",
      "license_no": "第04156318号",
      "license_date": "2020-11-30",
      "expire_date": "2026-11-30"
    },
    {
      "name": "大手川魚店",
      "name_kana": "",
      "business_type": "そうざい製造業",
      "address": "茅野市塚原二丁目１５番１８号",
      "lat": 35.999141642,
      "lng": 138.156443072,
      "geocoding_level": 8,
      "phone": "",
      "license_no": "第04156325号",
      "license_date": "2020-11-30",
      "expire_date": "2026-11-30"
    },
    {
      "name": "古民家　日向家",
      "name_kana": "",
      "business_type": "飲食店営業",
      "address": "茅野市玉川１０３７９－１",
      "lat": 35.994784040000006,
      "lng": 138.20844178,
      "geocoding_level": 8,
      "phone": "",
      "license_no": "第04258230号",
      "license_date": "2020-12-11",
      "expire_date": "2027-10-31"
    },
    {
      "name": "森のペンション　Ｗａｎ　らいふ",
      "name_kana": "",
      "business_type": "飲食店営業",
      "address": "茅野市北山４０３５－１",
      "lat": 36.068783,
      "lng": 138.272294,
      "geocoding_level": 3,
      "phone": "",
      "license_no": "第04255735号",
      "license_date": "2019-12-20",
      "expire_date": "2026-07-31"
    },
    {
      "name": "ノーリグレット　ポールズキッチン",
      "name_kana": "",
      "business_type": "菓子製造業",
      "address": "茅野市北山５７４４－２",
      "lat": 36.068783,
      "lng": 138.272294,
      "geocoding_level": 3,
      "phone": "",
      "license_no": "第04258304号",
      "license_date": "2020-12-25",
      "expire_date": "2027-07-31"
    },
    {
      "name": "ノーリグレット　ポールズキッチン",
      "name_kana": "",
      "business_type": "飲食店営業",
      "address": "茅野市北山５７４４－２",
      "lat": 36.068783,
      "lng": 138.272294,
      "geocoding_level": 3,
      "phone": "",
      "license_no": "第04258311号",
      "license_date": "2020-12-25",
      "expire_date": "2026-07-31"
    },
    {
      "name": "アトリエ　Ｓｕｍｍｅｒ　ｅｙｅｓ",
      "name_kana": "",
      "business_type": "菓子製造業",
      "address": "茅野市ちの３２０－７",
      "lat": 36.002408,
      "lng": 138.145936,
      "geocoding_level": 3,
      "phone": "",
      "license_no": "第04256602号",
      "license_date": "2020-05-01",
      "expire_date": "2026-10-31"
    },
    {
      "name": "近　加肉販売　ＴＫＧーＸＺＵ６９５　諏訪８３０さ１４２９",
      "name_kana": "",
      "business_type": "食肉処理業",
      "address": "茅野市米沢６９番地１",
      "lat": 36.047629,
      "lng": 138.186053,
      "geocoding_level": 3,
      "phone": "",
      "license_no": "第04258464号",
      "license_date": "2021-01-21",
      "expire_date": "2026-08-31"
    },
    {
      "name": "レストラン　ディモア",
      "name_kana": "",
      "business_type": "飲食店営業",
      "address": "茅野市本町東１７－２７",
      "lat": 36.001932056,
      "lng": 138.171028861,
      "geocoding_level": 8,
      "phone": "",
      "license_no": "第04258546号",
      "license_date": "2021-01-22",
      "expire_date": "2027-02-28"
    },
    {
      "name": "メルヘンハウス",
      "name_kana": "",
      "business_type": "飲食店営業",
      "address": "茅野市北山３４１２－１２３",
      "lat": 36.068783,
      "lng": 138.272294,
      "geocoding_level": 3,
      "phone": "",
      "license_no": "第04258539号",
      "license_date": "2021-01-22",
      "expire_date": "2027-07-31"
    },
    {
      "name": "手打ち蕎麦　１２ヶ月",
      "name_kana": "",
      "business_type": "飲食店営業",
      "address": "茅野市豊平３７５２番地２",
      "lat": 36.008593,
      "lng": 138.295905,
      "geocoding_level": 3,
      "phone": "",
      "license_no": "第04258578号",
      "license_date": "2021-01-29",
      "expire_date": "2027-02-28"
    },
    {
      "name": "アンファミーユ",
      "name_kana": "",
      "business_type": "菓子製造業",
      "address": "茅野市北山字鹿山４０２６－２ 東急リゾートタウン内",
      "lat": 36.068783,
      "lng": 138.272294,
      "geocoding_level": 3,
      "phone": "",
      "license_no": "第04259203号",
      "license_date": "2021-02-26",
      "expire_date": "2026-07-31"
    },
    {
      "name": "カフェ　ドゥ　シカール",
      "name_kana": "",
      "business_type": "飲食店営業",
      "address": "茅野市塚原１丁目１７番地１ オギノ茅野ショッピングセンター",
      "lat": 36.001714606,
      "lng": 138.149086356,
      "geocoding_level": 8,
      "phone": "",
      "license_no": "第04259211号",
      "license_date": "2021-02-26",
      "expire_date": "2027-02-28"
    },
    {
      "name": "ミスタードーナツ茅野ショップ",
      "name_kana": "",
      "business_type": "菓子製造業",
      "address": "茅野市ちの２６２０－２",
      "lat": 36.002408,
      "lng": 138.145936,
      "geocoding_level": 3,
      "phone": "",
      "license_no": "第04156784号",
      "license_date": "2021-02-26",
      "expire_date": "2027-02-28"
    },
    {
      "name": "六方庵　楓林",
      "name_kana": "",
      "business_type": "飲食店営業",
      "address": "茅野市米沢３９１５－１",
      "lat": 36.047629,
      "lng": 138.186053,
      "geocoding_level": 3,
      "phone": "",
      "license_no": "第04208569号",
      "license_date": "2021-02-26",
      "expire_date": "2027-02-28"
    },
    {
      "name": "田舎料理　山道",
      "name_kana": "",
      "business_type": "飲食店営業",
      "address": "茅野市仲町８－１０",
      "lat": 35.993205136,
      "lng": 138.154044897,
      "geocoding_level": 8,
      "phone": "",
      "license_no": "第04208680号",
      "license_date": "2021-02-26",
      "expire_date": "2027-02-28"
    },
    {
      "name": "プリムローズ",
      "name_kana": "",
      "business_type": "飲食店営業",
      "address": "茅野市中大塩２２－１７",
      "lat": 36.025641,
      "lng": 138.186177,
      "geocoding_level": 3,
      "phone": "",
      "license_no": "第04236181号",
      "license_date": "2021-02-26",
      "expire_date": "2027-02-28"
    },
    {
      "name": "茅野茶輪　たてしな日和",
      "name_kana": "",
      "business_type": "飲食店営業",
      "address": "茅野市北山４０３５－６５",
      "lat": 36.068783,
      "lng": 138.272294,
      "geocoding_level": 3,
      "phone": "",
      "license_no": "第04236351号",
      "license_date": "2021-02-26",
      "expire_date": "2027-02-28"
    },
    {
      "name": "Ｌｏｕｎｇｅ　ｌｅａｆ",
      "name_kana": "",
      "business_type": "飲食店営業",
      "address": "茅野市仲町５－１",
      "lat": 35.993997369,
      "lng": 138.153876514,
      "geocoding_level": 8,
      "phone": "",
      "license_no": "第04236426号",
      "license_date": "2021-02-26",
      "expire_date": "2027-02-28"
    },
    {
      "name": "ＯＦＵＮＥＭＡＴＳＵＲＩ　ＧＫ－ＫＭ７５",
      "name_kana": "",
      "business_type": "飲食店営業",
      "address": "茅野市ちの１３５５－２",
      "lat": 36.002408,
      "lng": 138.145936,
      "geocoding_level": 3,
      "phone": "",
      "license_no": "第04259242号",
      "license_date": "2021-03-09",
      "expire_date": "2026-08-31"
    },
    {
      "name": "ペンション　ラ・プラネート",
      "name_kana": "",
      "business_type": "飲食店営業",
      "address": "茅野市北山４０２６－１２１３",
      "lat": 36.068783,
      "lng": 138.272294,
      "geocoding_level": 3,
      "phone": "",
      "license_no": "第04259395号",
      "license_date": "2021-03-19",
      "expire_date": "2027-07-31"
    },
    {
      "name": "美杉総業　Ｕ－ＬＨ８０ＶＨ改",
      "name_kana": "",
      "business_type": "飲食店営業",
      "address": "茅野市玉川１１０００－４",
      "lat": 35.993881601,
      "lng": 138.201021117,
      "geocoding_level": 8,
      "phone": "",
      "license_no": "第04259460号",
      "license_date": "2021-03-30",
      "expire_date": "2026-08-31"
    },
    {
      "name": "ＣＩＲＫＵＳ",
      "name_kana": "",
      "business_type": "菓子製造業",
      "address": "茅野市北山１０１３",
      "lat": 36.068783,
      "lng": 138.272294,
      "geocoding_level": 3,
      "phone": "",
      "license_no": "第04259491号",
      "license_date": "2021-03-30",
      "expire_date": "2027-10-31"
    },
    {
      "name": "帰ってきた蓼科　ＢＫＧ－ＮＨＲ８５ＡＮ",
      "name_kana": "",
      "business_type": "飲食店営業",
      "address": "茅野市北山４０３５　小斉の湯前　駐車場",
      "lat": 36.068783,
      "lng": 138.272294,
      "geocoding_level": 3,
      "phone": "",
      "license_no": "第04259527号",
      "license_date": "2021-03-31",
      "expire_date": "2026-08-31"
    },
    {
      "name": "チルクス惣菜店",
      "name_kana": "",
      "business_type": "飲食店営業",
      "address": "茅野市中大塩１１－２２",
      "lat": 36.025641,
      "lng": 138.186177,
      "geocoding_level": 3,
      "phone": "",
      "license_no": "第04259769号",
      "license_date": "2021-04-16",
      "expire_date": "2026-10-31"
    },
    {
      "name": "チルクス惣菜店",
      "name_kana": "",
      "business_type": "そうざい製造業",
      "address": "茅野市中大塩１１－２２",
      "lat": 36.025641,
      "lng": 138.186177,
      "geocoding_level": 3,
      "phone": "",
      "license_no": "第04259776号",
      "license_date": "2021-04-16",
      "expire_date": "2026-10-31"
    },
    {
      "name": "焼肉バル　ギュぎゅＧｙｕ－",
      "name_kana": "",
      "business_type": "飲食店営業",
      "address": "茅野市玉川３７６８－３",
      "lat": 35.986365,
      "lng": 138.26356,
      "geocoding_level": 3,
      "phone": "",
      "license_no": "第04259744号",
      "license_date": "2021-04-14",
      "expire_date": "2027-10-31"
    },
    {
      "name": "スカイパークホテル　蒼穹",
      "name_kana": "",
      "business_type": "菓子製造業",
      "address": "茅野市北山３４１４",
      "lat": 36.068783,
      "lng": 138.272294,
      "geocoding_level": 3,
      "phone": "",
      "license_no": "第04259908号",
      "license_date": "2021-04-23",
      "expire_date": "2027-07-31"
    },
    {
      "name": "べつばらドーナツ",
      "name_kana": "",
      "business_type": "菓子製造業",
      "address": "茅野市豊平３２８４－４",
      "lat": 36.008593,
      "lng": 138.295905,
      "geocoding_level": 3,
      "phone": "",
      "license_no": "第04259954号",
      "license_date": "2021-04-30",
      "expire_date": "2026-10-31"
    },
    {
      "name": "オーガニックカフェ　さっちゃんの台所",
      "name_kana": "",
      "business_type": "飲食店営業",
      "address": "茅野市北山３４１８－１９",
      "lat": 36.068783,
      "lng": 138.272294,
      "geocoding_level": 3,
      "phone": "",
      "license_no": "第04257309号",
      "license_date": "2020-07-17",
      "expire_date": "2026-07-31"
    },
    {
      "name": "チェルビアットカフェ",
      "name_kana": "",
      "business_type": "飲食店営業",
      "address": "茅野市米沢１３－３",
      "lat": 36.047629,
      "lng": 138.186053,
      "geocoding_level": 3,
      "phone": "",
      "license_no": "第04260045号",
      "license_date": "2021-05-21",
      "expire_date": "2027-10-31"
    },
    {
      "name": "無名",
      "name_kana": "",
      "business_type": "飲食店営業",
      "address": "茅野市仲町５番４号",
      "lat": 35.994083372,
      "lng": 138.154370206,
      "geocoding_level": 8,
      "phone": "",
      "license_no": "第04256716号",
      "license_date": "2020-05-15",
      "expire_date": "2026-10-31"
    },
    {
      "name": "菓子無名",
      "name_kana": "",
      "business_type": "菓子製造業",
      "address": "茅野市仲町５番４号",
      "lat": 35.994083372,
      "lng": 138.154370206,
      "geocoding_level": 8,
      "phone": "",
      "license_no": "第04259363号",
      "license_date": "2021-03-19",
      "expire_date": "2027-10-31"
    },
    {
      "name": "近　加肉販売",
      "name_kana": "",
      "business_type": "食肉販売業",
      "address": "茅野市米沢３０２９－３",
      "lat": 36.047629,
      "lng": 138.186053,
      "geocoding_level": 3,
      "phone": "",
      "license_no": "第04257857号",
      "license_date": "2020-10-23",
      "expire_date": "2026-10-31"
    },
    {
      "name": "近　加肉販売",
      "name_kana": "",
      "business_type": "食肉処理業",
      "address": "茅野市米沢３０２９－３",
      "lat": 36.047629,
      "lng": 138.186053,
      "geocoding_level": 3,
      "phone": "",
      "license_no": "第04257871号",
      "license_date": "2020-10-23",
      "expire_date": "2026-10-31"
    },
    {
      "name": "カフェ　アンダンテ",
      "name_kana": "",
      "business_type": "飲食店営業",
      "address": "茅野市塚原１－１－１",
      "lat": 35.995532061,
      "lng": 138.151535642,
      "geocoding_level": 8,
      "phone": "",
      "license_no": "第04205231号",
      "license_date": "2020-10-30",
      "expire_date": "2026-10-31"
    },
    {
      "name": "炭焼　八咫烏",
      "name_kana": "",
      "business_type": "飲食店営業",
      "address": "茅野市仲町１１‐２ 人生劇場１Ｆ",
      "lat": 35.992699769,
      "lng": 138.154481608,
      "geocoding_level": 8,
      "phone": "",
      "license_no": "第04257227号",
      "license_date": "2020-07-06",
      "expire_date": "2026-10-31"
    },
    {
      "name": "救護施設　八ヶ岳寮",
      "name_kana": "",
      "business_type": "飲食店営業",
      "address": "茅野市金沢４５１８番地１",
      "lat": 35.945667,
      "lng": 138.179452,
      "geocoding_level": 3,
      "phone": "",
      "license_no": "第04236530号",
      "license_date": "2021-02-26",
      "expire_date": "2027-02-28"
    },
    {
      "name": "諏訪中央病院　栄養科",
      "name_kana": "",
      "business_type": "飲食店営業",
      "address": "茅野市玉川４３００番地 諏訪中央病院内",
      "lat": 35.986365,
      "lng": 138.26356,
      "geocoding_level": 3,
      "phone": "",
      "license_no": "第04259979号",
      "license_date": "2021-05-07",
      "expire_date": "2027-10-31"
    },
    {
      "name": "ちのおかずワゴン　ＧＥ‐ＳＨ４Ｆ２３",
      "name_kana": "",
      "business_type": "飲食店営業",
      "address": "茅野市ちの３２４１番地１",
      "lat": 36.002408,
      "lng": 138.145936,
      "geocoding_level": 3,
      "phone": "",
      "license_no": "第04257597号",
      "license_date": "2020-09-18",
      "expire_date": "2026-08-31"
    },
    {
      "name": "住友化学蓼科クラブ",
      "name_kana": "",
      "business_type": "飲食店営業",
      "address": "茅野市北山大字南山ヨリ三室大萱迄４０３５番２６６９",
      "lat": 36.068783,
      "lng": 138.272294,
      "geocoding_level": 3,
      "phone": "",
      "license_no": "第04146765号",
      "license_date": "2020-07-31",
      "expire_date": "2027-07-31"
    },
    {
      "name": "寛ぎの宿　　澤右衛門　　紅葉亭",
      "name_kana": "",
      "business_type": "飲食店営業",
      "address": "茅野市北山３４２４",
      "lat": 36.068783,
      "lng": 138.272294,
      "geocoding_level": 3,
      "phone": "",
      "license_no": "第04141946号",
      "license_date": "2020-07-31",
      "expire_date": "2026-07-31"
    },
    {
      "name": "串の坊　三井の森店",
      "name_kana": "",
      "business_type": "飲食店営業",
      "address": "茅野市豊平字東嶽１０２２２―２４、１０２２２―２７",
      "lat": 36.008593,
      "lng": 138.295905,
      "geocoding_level": 3,
      "phone": "",
      "license_no": "第04110825号",
      "license_date": "2020-07-31",
      "expire_date": "2026-07-31"
    },
    {
      "name": "さくらさく",
      "name_kana": "",
      "business_type": "食肉販売業",
      "address": "茅野市ちの茅野町３０７６",
      "lat": 36.002408,
      "lng": 138.145936,
      "geocoding_level": 3,
      "phone": "",
      "license_no": "第04256926号",
      "license_date": "2020-06-05",
      "expire_date": "2026-10-31"
    },
    {
      "name": "栗原山荘　トランタン",
      "name_kana": "",
      "business_type": "飲食店営業",
      "address": "茅野市豊平字東嶽４７３４－６６８０",
      "lat": 36.008593,
      "lng": 138.295905,
      "geocoding_level": 3,
      "phone": "",
      "license_no": "第04141105号",
      "license_date": "2020-07-31",
      "expire_date": "2026-07-31"
    },
    {
      "name": "テラス蓼科　ＫＫ－ＬＹ２２８Ｋ",
      "name_kana": "",
      "business_type": "飲食店営業",
      "address": "茅野市北山４０３５－９４９ テラス蓼科内",
      "lat": 36.068783,
      "lng": 138.272294,
      "geocoding_level": 3,
      "phone": "",
      "license_no": "第04259865号",
      "license_date": "2021-04-22",
      "expire_date": "2026-08-31"
    },
    {
      "name": "株式会社　あぐりライフ信州諏訪　上原店",
      "name_kana": "",
      "business_type": "飲食店営業",
      "address": "茅野市ちの１１１５",
      "lat": 36.002408,
      "lng": 138.145936,
      "geocoding_level": 3,
      "phone": "",
      "license_no": "第04259025号",
      "license_date": "2021-02-03",
      "expire_date": "2027-03-31"
    },
    {
      "name": "台湾料理　聚香園",
      "name_kana": "",
      "business_type": "飲食店営業",
      "address": "茅野市本町東５０５１－３",
      "lat": 35.999861,
      "lng": 138.168906,
      "geocoding_level": 3,
      "phone": "",
      "license_no": "第04233818号",
      "license_date": "2020-10-30",
      "expire_date": "2026-10-31"
    },
    {
      "name": "ツルヤ茅野店",
      "name_kana": "",
      "business_type": "食肉販売業",
      "address": "茅野市本町東１０－５８",
      "lat": 35.999822042,
      "lng": 138.168109917,
      "geocoding_level": 8,
      "phone": "",
      "license_no": "第04256221号",
      "license_date": "2020-03-23",
      "expire_date": "2026-10-31"
    },
    {
      "name": "ＴＩＮＹ　ＧＡＲＤＥＮ　蓼科",
      "name_kana": "",
      "business_type": "飲食店営業",
      "address": "茅野市北山８６０６番１",
      "lat": 36.068783,
      "lng": 138.272294,
      "geocoding_level": 3,
      "phone": "",
      "license_no": "第04254537号",
      "license_date": "2019-08-07",
      "expire_date": "2026-07-31"
    },
    {
      "name": "茅野市宮川保育園給食調理場",
      "name_kana": "",
      "business_type": "飲食店営業",
      "address": "茅野市宮川４５０５－８",
      "lat": 35.978166,
      "lng": 138.160466,
      "geocoding_level": 3,
      "phone": "",
      "license_no": "第04232278号",
      "license_date": "2021-02-26",
      "expire_date": "2028-02-29"
    },
    {
      "name": "蓼科パークホテル　夜食処・スナック",
      "name_kana": "",
      "business_type": "飲食店営業",
      "address": "茅野市北山５５２２",
      "lat": 36.068783,
      "lng": 138.272294,
      "geocoding_level": 3,
      "phone": "",
      "license_no": "第04161015号",
      "license_date": "2020-07-31",
      "expire_date": "2027-07-31"
    },
    {
      "name": "m18380",
      "name_kana": "",
      "business_type": "飲食店営業",
      "address": "茅野市玉川４８９６",
      "lat": 35.986365,
      "lng": 138.26356,
      "geocoding_level": 3,
      "phone": "",
      "license_no": "第04205312号",
      "license_date": "2020-10-30",
      "expire_date": "2026-10-31"
    },
    {
      "name": "民宿なかや",
      "name_kana": "",
      "business_type": "飲食店営業",
      "address": "茅野市北山白樺湖３４１９",
      "lat": 36.068783,
      "lng": 138.272294,
      "geocoding_level": 3,
      "phone": "",
      "license_no": "第04028795号",
      "license_date": "2020-07-31",
      "expire_date": "2026-07-31"
    },
    {
      "name": "オオギヤと宇奈とと　茅野店",
      "name_kana": "",
      "business_type": "飲食店営業",
      "address": "茅野市ちの２６１６－１",
      "lat": 36.002408,
      "lng": 138.145936,
      "geocoding_level": 3,
      "phone": "",
      "license_no": "第04180301号",
      "license_date": "2020-10-30",
      "expire_date": "2026-10-31"
    },
    {
      "name": "産直居酒屋浜焼太郎茅野駅前店",
      "name_kana": "",
      "business_type": "飲食店営業",
      "address": "茅野市ちの７００５",
      "lat": 35.992782237,
      "lng": 138.153203031,
      "geocoding_level": 8,
      "phone": "",
      "license_no": "第04256463号",
      "license_date": "2020-04-13",
      "expire_date": "2026-10-31"
    },
    {
      "name": "ＹＡＴＳＵＧＡＴＡＫＥ　Ｊ＆Ｎ",
      "name_kana": "",
      "business_type": "菓子製造業",
      "address": "茅野市玉川１１４００－１４１８",
      "lat": 35.986365,
      "lng": 138.26356,
      "geocoding_level": 3,
      "phone": "",
      "license_no": "第04258222号",
      "license_date": "2020-12-11",
      "expire_date": "2027-10-31"
    },
    {
      "name": "茅野市みどりケ丘保育園給食調理場",
      "name_kana": "",
      "business_type": "飲食店営業",
      "address": "茅野市宮川８６３０－１",
      "lat": 35.978166,
      "lng": 138.160466,
      "geocoding_level": 3,
      "phone": "",
      "license_no": "第04257946号",
      "license_date": "2020-11-06",
      "expire_date": "2027-02-28"
    },
    {
      "name": "北山小学校給食調理場",
      "name_kana": "",
      "business_type": "飲食店営業",
      "address": "茅野市北山４３６２",
      "lat": 36.068783,
      "lng": 138.272294,
      "geocoding_level": 3,
      "phone": "",
      "license_no": "第04163138号",
      "license_date": "2020-10-30",
      "expire_date": "2027-10-31"
    },
    {
      "name": "北部中学校給食調理場",
      "name_kana": "",
      "business_type": "飲食店営業",
      "address": "茅野市湖東５６４３",
      "lat": 36.025398,
      "lng": 138.204335,
      "geocoding_level": 3,
      "phone": "",
      "license_no": "第04163160号",
      "license_date": "2020-10-30",
      "expire_date": "2027-10-31"
    },
    {
      "name": "東部中学校給食調理場",
      "name_kana": "",
      "business_type": "飲食店営業",
      "address": "茅野市玉川１００３０",
      "lat": 35.992207738,
      "lng": 138.202359379,
      "geocoding_level": 8,
      "phone": "",
      "license_no": "第04163177号",
      "license_date": "2020-10-30",
      "expire_date": "2027-10-31"
    },
    {
      "name": "グラマラスダイニング蓼科　「ＴＨＥ　ＲＯＯＦ」",
      "name_kana": "",
      "business_type": "食肉販売業",
      "address": "茅野市北山字鹿山４０２６－２ 東急リゾートタウン蓼科「もりぐらし」",
      "lat": 36.068783,
      "lng": 138.272294,
      "geocoding_level": 3,
      "phone": "",
      "license_no": "第04257106号",
      "license_date": "2020-06-26",
      "expire_date": "2026-07-31"
    },
    {
      "name": "Ｂ＆Ｉ４５９０",
      "name_kana": "",
      "business_type": "飲食店営業",
      "address": "茅野市豊平７６９５番地５２３チェルトの森柳川５－１－７",
      "lat": 36.008593,
      "lng": 138.295905,
      "geocoding_level": 3,
      "phone": "",
      "license_no": "第04194564号",
      "license_date": "2020-07-31",
      "expire_date": "2027-07-31"
    },
    {
      "name": "屋台餃子　赤星",
      "name_kana": "",
      "business_type": "飲食店営業",
      "address": "茅野市仲町１１‐２",
      "lat": 35.992699769,
      "lng": 138.154481608,
      "geocoding_level": 8,
      "phone": "",
      "license_no": "第04257210号",
      "license_date": "2020-07-06",
      "expire_date": "2026-10-31"
    },
    {
      "name": "ホテルわかみず清心館",
      "name_kana": "",
      "business_type": "飲食店営業",
      "address": "茅野市ちの１０００",
      "lat": 36.002408,
      "lng": 138.145936,
      "geocoding_level": 3,
      "phone": "",
      "license_no": "第04256431号",
      "license_date": "2020-04-03",
      "expire_date": "2026-10-31"
    },
    {
      "name": "ホテル　わかみず",
      "name_kana": "",
      "business_type": "飲食店営業",
      "address": "茅野市仲町３６３１―１",
      "lat": 35.992839,
      "lng": 138.157501,
      "geocoding_level": 3,
      "phone": "",
      "license_no": "第04132648号",
      "license_date": "2020-10-30",
      "expire_date": "2026-10-31"
    },
    {
      "name": "音無の湯",
      "name_kana": "",
      "business_type": "飲食店営業",
      "address": "茅野市北山２９７７番地１",
      "lat": 36.068783,
      "lng": 138.272294,
      "geocoding_level": 3,
      "phone": "",
      "license_no": "第04256292号",
      "license_date": "2020-03-26",
      "expire_date": "2026-10-31"
    },
    {
      "name": "音無の湯",
      "name_kana": "",
      "business_type": "豆腐製造業",
      "address": "茅野市北山２９７７番地１",
      "lat": 36.068783,
      "lng": 138.272294,
      "geocoding_level": 3,
      "phone": "",
      "license_no": "第04256311号",
      "license_date": "2020-03-26",
      "expire_date": "2026-10-31"
    },
    {
      "name": "くるまやラ－メン諏訪店",
      "name_kana": "",
      "business_type": "飲食店営業",
      "address": "茅野市中沖２１４５－１",
      "lat": 36.002839,
      "lng": 138.131367,
      "geocoding_level": 3,
      "phone": "",
      "license_no": "第04156909号",
      "license_date": "2021-02-26",
      "expire_date": "2027-02-28"
    },
    {
      "name": "ルッチコーレ・ボナキュー　１号館１階（洋食）",
      "name_kana": "",
      "business_type": "飲食店営業",
      "address": "茅野市北山南山栗平ヨリ三室大萱迄４０３５－２７０５他",
      "lat": 36.068783,
      "lng": 138.272294,
      "geocoding_level": 3,
      "phone": "",
      "license_no": "第04162367号",
      "license_date": "2020-07-31",
      "expire_date": "2027-07-31"
    },
    {
      "name": "ＣＡＦＥ　ＢＡＭＢＩＮＩ",
      "name_kana": "",
      "business_type": "飲食店営業",
      "address": "茅野市塚原二丁目５番４５号 茅野市ひとまちプラザ",
      "lat": 35.993915922,
      "lng": 138.158411094,
      "geocoding_level": 8,
      "phone": "",
      "license_no": "第04256132号",
      "license_date": "2020-03-06",
      "expire_date": "2026-10-31"
    },
    {
      "name": "有限会社やつのう　キッチンカー　そら号　ＰＤＧ－ＳＺ２Ｆ２４",
      "name_kana": "",
      "business_type": "飲食店営業",
      "address": "茅野市金沢５４９番地",
      "lat": 35.945667,
      "lng": 138.179452,
      "geocoding_level": 3,
      "phone": "",
      "license_no": "第04258390号",
      "license_date": "2021-01-12",
      "expire_date": "2026-08-31"
    },
    {
      "name": "有限会社やつのう　キッチンカー　そら号　ＰＤＧ－ＳＺ２Ｆ２４",
      "name_kana": "",
      "business_type": "アイスクリーム類製造業",
      "address": "茅野市金沢５４９番地",
      "lat": 35.945667,
      "lng": 138.179452,
      "geocoding_level": 3,
      "phone": "",
      "license_no": "第04258401号",
      "license_date": "2021-01-12",
      "expire_date": "2026-08-31"
    },
    {
      "name": "黙坊",
      "name_kana": "",
      "business_type": "飲食店営業",
      "address": "茅野市北山４０３５－１５",
      "lat": 36.068783,
      "lng": 138.272294,
      "geocoding_level": 3,
      "phone": "",
      "license_no": "第04178671号",
      "license_date": "2020-07-31",
      "expire_date": "2026-07-31"
    },
    {
      "name": "スカイパークホテル内　ＹＯＨＯ，ＣＯＭＯ",
      "name_kana": "",
      "business_type": "飲食店営業",
      "address": "茅野市北山山鳥居３４１７－４９　楽場３４１４－４１９",
      "lat": 36.068783,
      "lng": 138.272294,
      "geocoding_level": 3,
      "phone": "",
      "license_no": "第04144796号",
      "license_date": "2020-07-31",
      "expire_date": "2027-07-31"
    },
    {
      "name": "車山スカイプラザ・プラザ２",
      "name_kana": "",
      "business_type": "飲食店営業",
      "address": "茅野市北山３４１３",
      "lat": 36.068783,
      "lng": 138.272294,
      "geocoding_level": 3,
      "phone": "",
      "license_no": "第04131335号",
      "license_date": "2020-07-31",
      "expire_date": "2027-07-31"
    },
    {
      "name": "交流センター前宮",
      "name_kana": "",
      "business_type": "飲食店営業",
      "address": "茅野市宮川２０４２番地",
      "lat": 35.978166,
      "lng": 138.160466,
      "geocoding_level": 3,
      "phone": "",
      "license_no": "第04257113号",
      "license_date": "2020-06-26",
      "expire_date": "2026-10-31"
    },
    {
      "name": "エニタイムフィットネス茅野店",
      "name_kana": "",
      "business_type": "喫茶店営業",
      "address": "茅野市本町東５２２５番地２ ２Ｆ",
      "lat": 35.999861,
      "lng": 138.168906,
      "geocoding_level": 3,
      "phone": "",
      "license_no": "第04258215号",
      "license_date": "2020-12-11",
      "expire_date": "2026-06-30"
    },
    {
      "name": "特別養護老人ホームりんどう苑",
      "name_kana": "",
      "business_type": "飲食店営業",
      "address": "茅野市豊平１９０７－１",
      "lat": 36.008593,
      "lng": 138.295905,
      "geocoding_level": 3,
      "phone": "",
      "license_no": "第04207613号",
      "license_date": "2020-10-30",
      "expire_date": "2026-10-31"
    },
    {
      "name": "信州手打ちそば工房遊楽庵そば工房",
      "name_kana": "",
      "business_type": "麺類製造業",
      "address": "茅野市北山５５２２－２８１",
      "lat": 36.068783,
      "lng": 138.272294,
      "geocoding_level": 3,
      "phone": "",
      "license_no": "第04203425号",
      "license_date": "2020-07-31",
      "expire_date": "2026-07-31"
    },
    {
      "name": "信州手打ちそば工房遊楽庵（１）",
      "name_kana": "",
      "business_type": "飲食店営業",
      "address": "茅野市北山５５２２－２８１",
      "lat": 36.068783,
      "lng": 138.272294,
      "geocoding_level": 3,
      "phone": "",
      "license_no": "第04203418号",
      "license_date": "2020-07-31",
      "expire_date": "2026-07-31"
    },
    {
      "name": "信州手打ちそば工房　遊楽庵（２）（小上り部）",
      "name_kana": "",
      "business_type": "飲食店営業",
      "address": "茅野市北山５５２２－２８１",
      "lat": 36.068783,
      "lng": 138.272294,
      "geocoding_level": 3,
      "phone": "",
      "license_no": "第04205181号",
      "license_date": "2020-07-31",
      "expire_date": "2026-07-31"
    },
    {
      "name": "信州手打ちそば工房　遊楽庵（３）（２階部分）",
      "name_kana": "",
      "business_type": "飲食店営業",
      "address": "茅野市北山５５２２－２８１",
      "lat": 36.068783,
      "lng": 138.272294,
      "geocoding_level": 3,
      "phone": "",
      "license_no": "第04205199号",
      "license_date": "2020-07-31",
      "expire_date": "2026-07-31"
    },
    {
      "name": "ＪＡ虹のホールたまがわ",
      "name_kana": "",
      "business_type": "飲食店営業",
      "address": "茅野市玉川２８１７",
      "lat": 35.986365,
      "lng": 138.26356,
      "geocoding_level": 3,
      "phone": "",
      "license_no": "第04178243号",
      "license_date": "2020-10-30",
      "expire_date": "2026-10-31"
    },
    {
      "name": "金沢小学校給食調理場",
      "name_kana": "",
      "business_type": "飲食店営業",
      "address": "茅野市金沢１１４１",
      "lat": 35.945667,
      "lng": 138.179452,
      "geocoding_level": 3,
      "phone": "",
      "license_no": "第04163112号",
      "license_date": "2020-10-30",
      "expire_date": "2027-10-31"
    },
    {
      "name": "スカイレストラン",
      "name_kana": "",
      "business_type": "飲食店営業",
      "address": "茅野市北山４０３５",
      "lat": 36.068783,
      "lng": 138.272294,
      "geocoding_level": 3,
      "phone": "",
      "license_no": "第04029395号",
      "license_date": "2020-07-31",
      "expire_date": "2026-07-31"
    },
    {
      "name": "ゆとりろ蓼科ホテル　ｗｉｔｈ　Ｄｏｇｓ",
      "name_kana": "",
      "business_type": "飲食店営業",
      "address": "茅野市豊平字東嶽ノ内古田山７６９５番５２１",
      "lat": 36.008593,
      "lng": 138.295905,
      "geocoding_level": 3,
      "phone": "",
      "license_no": "第04256171号",
      "license_date": "2020-03-13",
      "expire_date": "2026-10-31"
    },
    {
      "name": "エーム　７２３２",
      "name_kana": "",
      "business_type": "飲食店営業",
      "address": "茅野市北山４０３５－３７２　蓼科セミナーハウス",
      "lat": 36.068783,
      "lng": 138.272294,
      "geocoding_level": 3,
      "phone": "",
      "license_no": "第04196316号",
      "license_date": "2020-07-31",
      "expire_date": "2027-07-31"
    },
    {
      "name": "なんちゃって倶楽部",
      "name_kana": "",
      "business_type": "飲食店営業",
      "address": "茅野市仲町５番１号（３５３３番１）　１階店舗",
      "lat": 35.993997369,
      "lng": 138.153876514,
      "geocoding_level": 8,
      "phone": "",
      "license_no": "第04233273号",
      "license_date": "2020-10-30",
      "expire_date": "2026-10-31"
    },
    {
      "name": "株式会社西友　茅野横内店",
      "name_kana": "",
      "business_type": "魚介類販売業",
      "address": "茅野市ちの２６２２－１",
      "lat": 36.002408,
      "lng": 138.145936,
      "geocoding_level": 3,
      "phone": "",
      "license_no": "第04156019号",
      "license_date": "2020-11-30",
      "expire_date": "2026-11-30"
    },
    {
      "name": "ツルヤ茅野店",
      "name_kana": "",
      "business_type": "菓子製造業",
      "address": "茅野市本町東１０－５８",
      "lat": 35.999822042,
      "lng": 138.168109917,
      "geocoding_level": 8,
      "phone": "",
      "license_no": "第04256253号",
      "license_date": "2020-03-23",
      "expire_date": "2026-10-31"
    },
    {
      "name": "ツルヤ茅野店",
      "name_kana": "",
      "business_type": "飲食店営業",
      "address": "茅野市本町東１０－５８",
      "lat": 35.999822042,
      "lng": 138.168109917,
      "geocoding_level": 8,
      "phone": "",
      "license_no": "第04256246号",
      "license_date": "2020-03-23",
      "expire_date": "2026-10-31"
    },
    {
      "name": "ＴＩＮＹ　ＧＡＲＤＥＮ　蓼科",
      "name_kana": "",
      "business_type": "菓子製造業",
      "address": "茅野市北山８６０６番１",
      "lat": 36.068783,
      "lng": 138.272294,
      "geocoding_level": 3,
      "phone": "",
      "license_no": "第04254544号",
      "license_date": "2019-08-07",
      "expire_date": "2026-07-31"
    },
    {
      "name": "有限会社　スガワラ",
      "name_kana": "",
      "business_type": "清涼飲料水製造業",
      "address": "茅野市金沢７２７－１",
      "lat": 35.945667,
      "lng": 138.179452,
      "geocoding_level": 3,
      "phone": "",
      "license_no": "第04153724号",
      "license_date": "2020-08-31",
      "expire_date": "2026-08-31"
    },
    {
      "name": "バブン珈琲店",
      "name_kana": "",
      "business_type": "飲食店営業",
      "address": "茅野市ちの２２５―１",
      "lat": 36.002408,
      "lng": 138.145936,
      "geocoding_level": 3,
      "phone": "",
      "license_no": "第04117589号",
      "license_date": "2025-10-31",
      "expire_date": "2031-10-31"
    },
    {
      "name": "ツルヤ茅野店",
      "name_kana": "",
      "business_type": "魚介類販売業",
      "address": "茅野市本町東１０－５８",
      "lat": 35.999822042,
      "lng": 138.168109917,
      "geocoding_level": 8,
      "phone": "",
      "license_no": "第04256239号",
      "license_date": "2020-03-23",
      "expire_date": "2026-10-31"
    },
    {
      "name": "レストラン　ピーター",
      "name_kana": "",
      "business_type": "食肉製品製造業",
      "address": "茅野市ちの２７４―５",
      "lat": 36.002408,
      "lng": 138.145936,
      "geocoding_level": 3,
      "phone": "",
      "license_no": "第04123671号",
      "license_date": "2021-02-26",
      "expire_date": "2027-02-28"
    },
    {
      "name": "カジュアルレストランジュリアン",
      "name_kana": "",
      "business_type": "飲食店営業",
      "address": "茅野市米沢３８８０―１",
      "lat": 36.047629,
      "lng": 138.186053,
      "geocoding_level": 3,
      "phone": "",
      "license_no": "第04110736号",
      "license_date": "2020-10-30",
      "expire_date": "2026-10-31"
    },
    {
      "name": "デニーズ茅野店",
      "name_kana": "",
      "business_type": "飲食店営業",
      "address": "茅野市塚原１―１３―３１",
      "lat": 35.999946831,
      "lng": 138.152871125,
      "geocoding_level": 8,
      "phone": "",
      "license_no": "第04118374号",
      "license_date": "2020-10-30",
      "expire_date": "2027-10-31"
    },
    {
      "name": "株式会社渡辺製麺",
      "name_kana": "",
      "business_type": "密封包装食品製造業",
      "address": "茅野市北山４７２４番地",
      "lat": 36.068783,
      "lng": 138.272294,
      "geocoding_level": 3,
      "phone": "",
      "license_no": "第04260586号",
      "license_date": "2021-08-23",
      "expire_date": "2028-02-29"
    },
    {
      "name": "株式会社渡辺製麺",
      "name_kana": "",
      "business_type": "冷凍食品製造業",
      "address": "茅野市北山４７２４番地",
      "lat": 36.068783,
      "lng": 138.272294,
      "geocoding_level": 3,
      "phone": "",
      "license_no": "第04263027号",
      "license_date": "2022-09-08",
      "expire_date": "2029-02-28"
    },
    {
      "name": "（株）渡辺製麺",
      "name_kana": "",
      "business_type": "麺類製造業",
      "address": "茅野市北山４７２４",
      "lat": 36.068783,
      "lng": 138.272294,
      "geocoding_level": 3,
      "phone": "",
      "license_no": "第04014831号",
      "license_date": "2025-10-31",
      "expire_date": "2031-10-31"
    },
    {
      "name": "めん六や長野茅野店",
      "name_kana": "",
      "business_type": "飲食店営業",
      "address": "茅野市宮川字姫宮 1375番地1",
      "lat": 35.978166,
      "lng": 138.160466,
      "geocoding_level": 3,
      "phone": "",
      "license_no": "第04191408号",
      "license_date": "2023-10-31",
      "expire_date": "2029-10-31"
    },
    {
      "name": "スターバックスコーヒー茅野中沖店",
      "name_kana": "",
      "business_type": "飲食店営業",
      "address": "茅野市中沖1－8",
      "lat": 36.00192086,
      "lng": 138.133494032,
      "geocoding_level": 8,
      "phone": "",
      "license_no": "第04265658号",
      "license_date": "2023-08-04",
      "expire_date": "2029-10-31"
    },
    {
      "name": "（株）オギノ茅野店",
      "name_kana": "",
      "business_type": "飲食店営業",
      "address": "茅野市塚原１－１７－１",
      "lat": 36.001714606,
      "lng": 138.149086356,
      "geocoding_level": 8,
      "phone": "",
      "license_no": "第04161468号",
      "license_date": "2022-11-30",
      "expire_date": "2029-11-30"
    },
    {
      "name": "（株）オギノ茅野店",
      "name_kana": "",
      "business_type": "魚介類販売業",
      "address": "茅野市塚原１－１７－１",
      "lat": 36.001714606,
      "lng": 138.149086356,
      "geocoding_level": 8,
      "phone": "",
      "license_no": "第04161436号",
      "license_date": "2022-11-30",
      "expire_date": "2029-11-30"
    },
    {
      "name": "（株）オギノ茅野店",
      "name_kana": "",
      "business_type": "食肉販売業",
      "address": "茅野市塚原１－１７－１",
      "lat": 36.001714606,
      "lng": 138.149086356,
      "geocoding_level": 8,
      "phone": "",
      "license_no": "第04161393号",
      "license_date": "2022-11-30",
      "expire_date": "2029-11-30"
    },
    {
      "name": "（株）オギノ長峰店",
      "name_kana": "",
      "business_type": "飲食店営業",
      "address": "茅野市宮川１１３６２",
      "lat": 35.978166,
      "lng": 138.160466,
      "geocoding_level": 3,
      "phone": "",
      "license_no": "第04267933号",
      "license_date": "2024-05-10",
      "expire_date": "2030-10-31"
    },
    {
      "name": "(株)オギノ　長峰店",
      "name_kana": "",
      "business_type": "魚介類販売業",
      "address": "茅野市宮川１１３６２",
      "lat": 35.978166,
      "lng": 138.160466,
      "geocoding_level": 3,
      "phone": "",
      "license_no": "第04267941号",
      "license_date": "2024-05-10",
      "expire_date": "2030-10-31"
    },
    {
      "name": "（株）オギノ長峰店",
      "name_kana": "",
      "business_type": "食肉販売業",
      "address": "茅野市宮川１１３６２",
      "lat": 35.978166,
      "lng": 138.160466,
      "geocoding_level": 3,
      "phone": "",
      "license_no": "第04267958号",
      "license_date": "2024-05-10",
      "expire_date": "2030-10-31"
    },
    {
      "name": "デリシア宮川店",
      "name_kana": "",
      "business_type": "そうざい製造業",
      "address": "茅野市宮川４４４９－１",
      "lat": 35.978166,
      "lng": 138.160466,
      "geocoding_level": 3,
      "phone": "",
      "license_no": "第04260682号",
      "license_date": "2021-09-24",
      "expire_date": "2027-11-30"
    },
    {
      "name": "デリシア　宮川店",
      "name_kana": "",
      "business_type": "飲食店営業",
      "address": "茅野市宮川４４４９－１",
      "lat": 35.978166,
      "lng": 138.160466,
      "geocoding_level": 3,
      "phone": "",
      "license_no": "第04224993号",
      "license_date": "2024-11-29",
      "expire_date": "2030-11-30"
    },
    {
      "name": "デリシア　宮川店",
      "name_kana": "",
      "business_type": "魚介類販売業",
      "address": "茅野市宮川４４４９－１",
      "lat": 35.978166,
      "lng": 138.160466,
      "geocoding_level": 3,
      "phone": "",
      "license_no": "第04225012号",
      "license_date": "2024-11-29",
      "expire_date": "2030-11-30"
    },
    {
      "name": "デリシア　宮川店",
      "name_kana": "",
      "business_type": "菓子製造業",
      "address": "茅野市宮川４４４９－１",
      "lat": 35.978166,
      "lng": 138.160466,
      "geocoding_level": 3,
      "phone": "",
      "license_no": "第04225020号",
      "license_date": "2024-11-29",
      "expire_date": "2030-11-30"
    },
    {
      "name": "東洋精機工業株式会社本社１号棟１Ｆ",
      "name_kana": "",
      "business_type": "調理機能を有する自動販売機（要許可）",
      "address": "茅野市宮川２７１５",
      "lat": 35.978166,
      "lng": 138.160466,
      "geocoding_level": 3,
      "phone": "",
      "license_no": "第04150646号",
      "license_date": "2025-09-30",
      "expire_date": "2030-09-30"
    },
    {
      "name": "松木寒天産業(株)",
      "name_kana": "",
      "business_type": "菓子製造業",
      "address": "茅野市宮川２６３８",
      "lat": 35.978166,
      "lng": 138.160466,
      "geocoding_level": 3,
      "phone": "",
      "license_no": "第04136033号",
      "license_date": "2025-10-31",
      "expire_date": "2030-10-31"
    },
    {
      "name": "チェルビアットカフェ　キッチンカー　１号機",
      "name_kana": "",
      "business_type": "飲食店営業",
      "address": "茅野市米沢４１４６－３",
      "lat": 36.047629,
      "lng": 138.186053,
      "geocoding_level": 3,
      "phone": "",
      "license_no": "第04263739号",
      "license_date": "2022-11-22",
      "expire_date": "2028-08-31"
    },
    {
      "name": "チェルビアットカフェ　屋台",
      "name_kana": "",
      "business_type": "飲食店営業",
      "address": "茅野市米沢４１４６－３",
      "lat": 36.047629,
      "lng": 138.186053,
      "geocoding_level": 3,
      "phone": "",
      "license_no": "第04269910号",
      "license_date": "2024-10-15",
      "expire_date": "2030-08-31"
    },
    {
      "name": "テンホウ　スポーツ公園店",
      "name_kana": "",
      "business_type": "飲食店営業",
      "address": "茅野市玉川４６２３－１",
      "lat": 35.986365,
      "lng": 138.26356,
      "geocoding_level": 3,
      "phone": "",
      "license_no": "第04189097号",
      "license_date": "2022-10-31",
      "expire_date": "2028-10-31"
    },
    {
      "name": "テンホウ諏訪インター店",
      "name_kana": "",
      "business_type": "飲食店営業",
      "address": "茅野市ちの２７６６－３",
      "lat": 36.002408,
      "lng": 138.145936,
      "geocoding_level": 3,
      "phone": "",
      "license_no": "第04189080号",
      "license_date": "2022-10-31",
      "expire_date": "2028-10-31"
    },
    {
      "name": "テンホウ　塚原店",
      "name_kana": "",
      "business_type": "飲食店営業",
      "address": "茅野市塚原２－５－１３",
      "lat": 35.995387211,
      "lng": 138.159732967,
      "geocoding_level": 8,
      "phone": "",
      "license_no": "第04271497号",
      "license_date": "2025-05-30",
      "expire_date": "2031-10-31"
    },
    {
      "name": "テンホウ茅野豊平店",
      "name_kana": "",
      "business_type": "飲食店営業",
      "address": "茅野市豊平若宮１９３５－１",
      "lat": 36.008593,
      "lng": 138.295905,
      "geocoding_level": 3,
      "phone": "",
      "license_no": "第04192831号",
      "license_date": "2025-10-31",
      "expire_date": "2030-10-31"
    },
    {
      "name": "バーミヤン　茅野店",
      "name_kana": "",
      "business_type": "飲食店営業",
      "address": "茅野市ちの横内２６３２",
      "lat": 36.002408,
      "lng": 138.145936,
      "geocoding_level": 3,
      "phone": "",
      "license_no": "第04182260号",
      "license_date": "2021-10-29",
      "expire_date": "2027-10-31"
    },
    {
      "name": "A・コープファーマーズピアみどり店",
      "name_kana": "",
      "business_type": "飲食店営業",
      "address": "茅野市豊平３０６６",
      "lat": 36.008593,
      "lng": 138.295905,
      "geocoding_level": 3,
      "phone": "",
      "license_no": "第04250001号",
      "license_date": "2024-08-30",
      "expire_date": "2031-03-31"
    },
    {
      "name": "（株）ハルピンフーズ惣菜工場",
      "name_kana": "",
      "business_type": "そうざい製造業",
      "address": "茅野市塚原１－２０－８",
      "lat": 35.999734817,
      "lng": 138.154520914,
      "geocoding_level": 8,
      "phone": "",
      "license_no": "第04260981号",
      "license_date": "2021-10-29",
      "expire_date": "2027-10-31"
    },
    {
      "name": "TOKYO VEG LIFE faux-mage",
      "name_kana": "",
      "business_type": "菓子製造業",
      "address": "茅野市北山5513-142 蓼科ビレッジ朝日ヶ丘7号",
      "lat": 36.068783,
      "lng": 138.272294,
      "geocoding_level": 3,
      "phone": "",
      "license_no": "第04260903号",
      "license_date": "2021-10-22",
      "expire_date": "2026-10-31"
    },
    {
      "name": "ペンション　アダージオ",
      "name_kana": "",
      "business_type": "飲食店営業",
      "address": "茅野市北山４０２６－１２０５",
      "lat": 36.068783,
      "lng": 138.272294,
      "geocoding_level": 3,
      "phone": "",
      "license_no": "第04260198号",
      "license_date": "2021-06-18",
      "expire_date": "2026-07-31"
    },
    {
      "name": "駅そば榑木川　茅野駅店",
      "name_kana": "",
      "business_type": "飲食店営業",
      "address": "茅野市ちの３５０６　ＪＲ茅野駅",
      "lat": 36.002408,
      "lng": 138.145936,
      "geocoding_level": 3,
      "phone": "",
      "license_no": "第04260391号",
      "license_date": "2021-07-26",
      "expire_date": "2026-10-31"
    },
    {
      "name": "ザ・ビッグ茅野店",
      "name_kana": "",
      "business_type": "飲食店営業",
      "address": "茅野市米沢３０３",
      "lat": 36.047629,
      "lng": 138.186053,
      "geocoding_level": 3,
      "phone": "",
      "license_no": "第04220781号",
      "license_date": "2023-11-30",
      "expire_date": "2029-11-30"
    },
    {
      "name": "ザ・ビッグ茅野店",
      "name_kana": "",
      "business_type": "飲食店営業",
      "address": "茅野市米沢３０３",
      "lat": 36.047629,
      "lng": 138.186053,
      "geocoding_level": 3,
      "phone": "",
      "license_no": "第04220799号",
      "license_date": "2023-11-30",
      "expire_date": "2029-11-30"
    },
    {
      "name": "ザ・ビッグ茅野店",
      "name_kana": "",
      "business_type": "魚介類販売業",
      "address": "茅野市米沢３０３",
      "lat": 36.047629,
      "lng": 138.186053,
      "geocoding_level": 3,
      "phone": "",
      "license_no": "第04220809号",
      "license_date": "2023-11-30",
      "expire_date": "2029-11-30"
    },
    {
      "name": "ザ・ビッグ茅野店",
      "name_kana": "",
      "business_type": "食肉販売業",
      "address": "茅野市米沢３０３",
      "lat": 36.047629,
      "lng": 138.186053,
      "geocoding_level": 3,
      "phone": "",
      "license_no": "第04220816号",
      "license_date": "2023-11-30",
      "expire_date": "2029-11-30"
    },
    {
      "name": "登美",
      "name_kana": "",
      "business_type": "飲食店営業",
      "address": "茅野市湖東６５９５－３８６",
      "lat": 36.025398,
      "lng": 138.204335,
      "geocoding_level": 3,
      "phone": "",
      "license_no": "第04260209号",
      "license_date": "2021-06-25",
      "expire_date": "2027-10-31"
    },
    {
      "name": "グロリア",
      "name_kana": "",
      "business_type": "飲食店営業",
      "address": "茅野市ちの３０７６",
      "lat": 36.002408,
      "lng": 138.145936,
      "geocoding_level": 3,
      "phone": "",
      "license_no": "第04260248号",
      "license_date": "2021-07-02",
      "expire_date": "2026-10-31"
    },
    {
      "name": "スープカリー茶房　和月",
      "name_kana": "",
      "business_type": "飲食店営業",
      "address": "茅野市泉野中道６６４５",
      "lat": 35.995707,
      "lng": 138.22845,
      "geocoding_level": 3,
      "phone": "",
      "license_no": "第04260270号",
      "license_date": "2021-07-02",
      "expire_date": "2027-10-31"
    },
    {
      "name": "和ｄｉｎｉｎｇ　月とすっぽん",
      "name_kana": "",
      "business_type": "飲食店営業",
      "address": "茅野市宮川４５６０－３",
      "lat": 35.978166,
      "lng": 138.160466,
      "geocoding_level": 3,
      "phone": "",
      "license_no": "第04238830号",
      "license_date": "2021-10-29",
      "expire_date": "2027-10-31"
    },
    {
      "name": "ＥＶＥＲＹＦＯＯＤ（１５２６）事業所",
      "name_kana": "",
      "business_type": "飲食店営業",
      "address": "茅野市豊平字東嶽１０２２２（蓼科高原三井の森） 豊田自動織機シャインズ蓼科",
      "lat": 36.008593,
      "lng": 138.295905,
      "geocoding_level": 3,
      "phone": "",
      "license_no": "第04152259号",
      "license_date": "2024-07-31",
      "expire_date": "2030-07-31"
    },
    {
      "name": "ＥＶＥＲＹＦＯＯＤ（１５２５）事業所",
      "name_kana": "",
      "business_type": "飲食店営業",
      "address": "茅野市北山４０３５－２６４５ ＩＨＩグループ蓼科山荘",
      "lat": 36.068783,
      "lng": 138.272294,
      "geocoding_level": 3,
      "phone": "",
      "license_no": "第04237881号",
      "license_date": "2021-07-30",
      "expire_date": "2027-07-31"
    },
    {
      "name": "那須珈琲Cafe　La　Detente",
      "name_kana": "",
      "business_type": "飲食店営業",
      "address": "茅野市塚原",
      "lat": 35.995571,
      "lng": 138.158896,
      "geocoding_level": 2,
      "phone": "",
      "license_no": "第04260344号",
      "license_date": "2021-07-20",
      "expire_date": "2026-08-31"
    },
    {
      "name": "株式会社ＫＳＫ　香雲荘内レパスト事業所",
      "name_kana": "",
      "business_type": "飲食店営業",
      "address": "茅野市豊平東嶽４７３４－６６６７",
      "lat": 36.008593,
      "lng": 138.295905,
      "geocoding_level": 3,
      "phone": "",
      "license_no": "第04267837号",
      "license_date": "2024-04-26",
      "expire_date": "2030-07-31"
    },
    {
      "name": "レストラン　エスカァル",
      "name_kana": "",
      "business_type": "飲食店営業",
      "address": "茅野市玉川４３００ 諏訪中央病院５Ｆ",
      "lat": 35.986365,
      "lng": 138.26356,
      "geocoding_level": 3,
      "phone": "",
      "license_no": "第04249604号",
      "license_date": "2024-10-31",
      "expire_date": "2030-10-31"
    },
    {
      "name": "たてしな薫風",
      "name_kana": "",
      "business_type": "飲食店営業",
      "address": "茅野市北山４０３５－５５２",
      "lat": 36.068783,
      "lng": 138.272294,
      "geocoding_level": 3,
      "phone": "",
      "license_no": "第04197230号",
      "license_date": "2021-10-29",
      "expire_date": "2026-10-31"
    },
    {
      "name": "別邸　たてしな薫風",
      "name_kana": "",
      "business_type": "飲食店営業",
      "address": "茅野市北山４０３５－５４６",
      "lat": 36.068783,
      "lng": 138.272294,
      "geocoding_level": 3,
      "phone": "",
      "license_no": "第04267189号",
      "license_date": "2024-01-26",
      "expire_date": "2030-07-31"
    },
    {
      "name": "有限会社八ヶ岳農産加工所",
      "name_kana": "",
      "business_type": "密封包装食品製造業",
      "address": "茅野市湖東６５９５－４７４",
      "lat": 36.025398,
      "lng": 138.204335,
      "geocoding_level": 3,
      "phone": "",
      "license_no": "第04247247号",
      "license_date": "2023-10-31",
      "expire_date": "2029-10-31"
    },
    {
      "name": "有限会社八ヶ岳農産加工所",
      "name_kana": "",
      "business_type": "そうざい製造業",
      "address": "茅野市湖東６５９５－４７４",
      "lat": 36.025398,
      "lng": 138.204335,
      "geocoding_level": 3,
      "phone": "",
      "license_no": "第04247222号",
      "license_date": "2023-10-31",
      "expire_date": "2029-10-31"
    },
    {
      "name": "八ヶ岳農産　加工所",
      "name_kana": "",
      "business_type": "菓子製造業",
      "address": "茅野市湖東６５９５－４７４",
      "lat": 36.025398,
      "lng": 138.204335,
      "geocoding_level": 3,
      "phone": "",
      "license_no": "第04271458号",
      "license_date": "2025-06-06",
      "expire_date": "2031-10-31"
    },
    {
      "name": "イオン諏訪ステーションパーク店",
      "name_kana": "",
      "business_type": "飲食店営業",
      "address": "茅野市中沖１０－３",
      "lat": 36.00367528500001,
      "lng": 138.13071610100002,
      "geocoding_level": 8,
      "phone": "",
      "license_no": "第04251295号",
      "license_date": "2023-10-31",
      "expire_date": "2028-10-31"
    },
    {
      "name": "森のＢａｋｅｒｙ＆ｆｏｏｄｔｅｒｒａｃｅ　ＱＵＣＨＡＯ！",
      "name_kana": "",
      "business_type": "飲食店営業",
      "address": "茅野市北山４０２６番地９３７－２　東急リゾートタウン蓼科内",
      "lat": 36.068783,
      "lng": 138.272294,
      "geocoding_level": 3,
      "phone": "",
      "license_no": "第04260376号",
      "license_date": "2021-07-26",
      "expire_date": "2027-07-31"
    },
    {
      "name": "森のＢａｋｅｒｙ＆ｆｏｏｄｔｅｒｒａｃｅ　ＱＵＣＨＡＯ！",
      "name_kana": "",
      "business_type": "菓子製造業",
      "address": "茅野市北山４０２６番地９３７－２　東急リゾートタウン蓼科内",
      "lat": 36.068783,
      "lng": 138.272294,
      "geocoding_level": 3,
      "phone": "",
      "license_no": "第04260383号",
      "license_date": "2021-07-26",
      "expire_date": "2027-07-31"
    },
    {
      "name": "赤岳山荘",
      "name_kana": "",
      "business_type": "飲食店営業",
      "address": "茅野市豊平東岳美濃戸７６９３－２６",
      "lat": 36.008593,
      "lng": 138.295905,
      "geocoding_level": 3,
      "phone": "",
      "license_no": "第04260433号",
      "license_date": "2021-07-30",
      "expire_date": "2027-07-31"
    },
    {
      "name": "カフェ　白樺の午後",
      "name_kana": "",
      "business_type": "菓子製造業",
      "address": "茅野市湖東６５９５－４７４",
      "lat": 36.025398,
      "lng": 138.204335,
      "geocoding_level": 3,
      "phone": "",
      "license_no": "第04260839号",
      "license_date": "2021-10-06",
      "expire_date": "2026-10-31"
    },
    {
      "name": "カフェ白樺の午後",
      "name_kana": "",
      "business_type": "飲食店営業",
      "address": "茅野市玉川２６３４－５",
      "lat": 35.986365,
      "lng": 138.26356,
      "geocoding_level": 3,
      "phone": "",
      "license_no": "第04261147号",
      "license_date": "2021-11-19",
      "expire_date": "2027-08-31"
    },
    {
      "name": "カフェ白樺の午後",
      "name_kana": "",
      "business_type": "飲食店営業",
      "address": "茅野市玉川２６３４番地５",
      "lat": 35.986365,
      "lng": 138.26356,
      "geocoding_level": 3,
      "phone": "",
      "license_no": "第04268031号",
      "license_date": "2024-05-17",
      "expire_date": "2029-08-31"
    },
    {
      "name": "不二家茅野店",
      "name_kana": "",
      "business_type": "菓子製造業",
      "address": "茅野市塚原２－７－２４",
      "lat": 35.995193203,
      "lng": 138.158220878,
      "geocoding_level": 8,
      "phone": "",
      "license_no": "第04260458号",
      "license_date": "2021-08-06",
      "expire_date": "2027-10-31"
    },
    {
      "name": "株式会社諏訪三社電機（１階外）",
      "name_kana": "",
      "business_type": "調理機能を有する自動販売機（要許可）",
      "address": "茅野市豊平５３３５",
      "lat": 36.008593,
      "lng": 138.295905,
      "geocoding_level": 3,
      "phone": "",
      "license_no": "第04260472号",
      "license_date": "2021-08-06",
      "expire_date": "2026-09-30"
    },
    {
      "name": "メフォス０２０５０号店",
      "name_kana": "",
      "business_type": "菓子製造業",
      "address": "茅野市豊平５０００－１",
      "lat": 36.008593,
      "lng": 138.295905,
      "geocoding_level": 3,
      "phone": "",
      "license_no": "第04194888号",
      "license_date": "2021-10-29",
      "expire_date": "2026-10-31"
    },
    {
      "name": "メフォス０１６４２号店",
      "name_kana": "",
      "business_type": "飲食店営業",
      "address": "茅野市豊平５０００－１",
      "lat": 36.008593,
      "lng": 138.295905,
      "geocoding_level": 3,
      "phone": "",
      "license_no": "第04194871号",
      "license_date": "2024-10-31",
      "expire_date": "2030-10-31"
    },
    {
      "name": "寅吉郎",
      "name_kana": "",
      "business_type": "飲食店営業",
      "address": "茅野市玉川８２５０－１",
      "lat": 35.982064171,
      "lng": 138.210813419,
      "geocoding_level": 8,
      "phone": "",
      "license_no": "第04260508号",
      "license_date": "2021-08-10",
      "expire_date": "2026-08-31"
    },
    {
      "name": "女乃神茶屋",
      "name_kana": "",
      "business_type": "飲食店営業",
      "address": "茅野市北山蓼科４０２９",
      "lat": 36.068783,
      "lng": 138.272294,
      "geocoding_level": 3,
      "phone": "",
      "license_no": "第04030507号",
      "license_date": "2021-07-30",
      "expire_date": "2026-07-31"
    },
    {
      "name": "黒百合ヒュッテ",
      "name_kana": "",
      "business_type": "飲食店営業",
      "address": "茅野市豊平東嶽国有林１３４５ハ　林小班",
      "lat": 36.008593,
      "lng": 138.295905,
      "geocoding_level": 3,
      "phone": "",
      "license_no": "第04125486号",
      "license_date": "2021-07-30",
      "expire_date": "2026-07-31"
    },
    {
      "name": "ペンションドレミファン",
      "name_kana": "",
      "business_type": "飲食店営業",
      "address": "茅野市北山４０３５－２２４０",
      "lat": 36.068783,
      "lng": 138.272294,
      "geocoding_level": 3,
      "phone": "",
      "license_no": "第04100141号",
      "license_date": "2021-07-30",
      "expire_date": "2026-07-31"
    },
    {
      "name": "（有）しもさか",
      "name_kana": "",
      "business_type": "飲食店営業",
      "address": "茅野市北山４０３５－１０２６",
      "lat": 36.068783,
      "lng": 138.272294,
      "geocoding_level": 3,
      "phone": "",
      "license_no": "第04125575号",
      "license_date": "2021-07-30",
      "expire_date": "2026-07-31"
    },
    {
      "name": "プチペンション　グリーンスポット",
      "name_kana": "",
      "business_type": "飲食店営業",
      "address": "茅野市北山３４１２",
      "lat": 36.068783,
      "lng": 138.272294,
      "geocoding_level": 3,
      "phone": "",
      "license_no": "第04153578号",
      "license_date": "2021-07-30",
      "expire_date": "2026-07-31"
    },
    {
      "name": "洋・食・屋　みさわ",
      "name_kana": "",
      "business_type": "飲食店営業",
      "address": "茅野市豊平東嶽ノ内古田山７７０２－３１１",
      "lat": 36.008593,
      "lng": 138.295905,
      "geocoding_level": 3,
      "phone": "",
      "license_no": "第04166312号",
      "license_date": "2021-07-30",
      "expire_date": "2028-07-31"
    },
    {
      "name": "むさし庵",
      "name_kana": "",
      "business_type": "飲食店営業",
      "address": "茅野市豊平７７０２　チェルトの森鳴岩４－２－３、４",
      "lat": 36.008593,
      "lng": 138.295905,
      "geocoding_level": 3,
      "phone": "",
      "license_no": "第04180397号",
      "license_date": "2021-07-30",
      "expire_date": "2027-07-31"
    },
    {
      "name": "ガーデンキッチン　歩庵",
      "name_kana": "",
      "business_type": "飲食店営業",
      "address": "茅野市豊平東嶽１０２７４－１",
      "lat": 36.008593,
      "lng": 138.295905,
      "geocoding_level": 3,
      "phone": "",
      "license_no": "第04181734号",
      "license_date": "2021-07-30",
      "expire_date": "2027-07-31"
    },
    {
      "name": "白樺湖ロイヤルスキー場・白樺湖ロイヤルホテル",
      "name_kana": "",
      "business_type": "飲食店営業",
      "address": "茅野市北山３４１９",
      "lat": 36.068783,
      "lng": 138.272294,
      "geocoding_level": 3,
      "phone": "",
      "license_no": "第04208156号",
      "license_date": "2021-07-30",
      "expire_date": "2027-07-31"
    },
    {
      "name": "無垢（ＭＵＫＵ）",
      "name_kana": "",
      "business_type": "飲食店営業",
      "address": "茅野市北山５５１３　エンゼルリゾート蓼科Ｎｏ５５",
      "lat": 36.068783,
      "lng": 138.272294,
      "geocoding_level": 3,
      "phone": "",
      "license_no": "第04210042号",
      "license_date": "2021-07-30",
      "expire_date": "2027-07-31"
    },
    {
      "name": "森のキッチン　ｑｕｅｕｅ",
      "name_kana": "",
      "business_type": "飲食店営業",
      "address": "茅野市北山４０３５－２２５７",
      "lat": 36.068783,
      "lng": 138.272294,
      "geocoding_level": 3,
      "phone": "",
      "license_no": "第04219487号",
      "license_date": "2021-07-30",
      "expire_date": "2026-07-31"
    },
    {
      "name": "森のキッチン　ｑｕｅｕｅ",
      "name_kana": "",
      "business_type": "菓子製造業",
      "address": "茅野市北山４０３５－２２５７",
      "lat": 36.068783,
      "lng": 138.272294,
      "geocoding_level": 3,
      "phone": "",
      "license_no": "第04219494号",
      "license_date": "2021-07-30",
      "expire_date": "2026-07-31"
    },
    {
      "name": "蓼科山荘",
      "name_kana": "",
      "business_type": "飲食店営業",
      "address": "茅野市北山字冷山国有林２０５ホ林小班",
      "lat": 36.068783,
      "lng": 138.272294,
      "geocoding_level": 3,
      "phone": "",
      "license_no": "第04220895号",
      "license_date": "2021-07-30",
      "expire_date": "2026-07-31"
    },
    {
      "name": "夏沢鉱泉",
      "name_kana": "",
      "business_type": "飲食店営業",
      "address": "茅野市豊平東岳国有林１２６６イ林小班",
      "lat": 36.008593,
      "lng": 138.295905,
      "geocoding_level": 3,
      "phone": "",
      "license_no": "第04221455号",
      "license_date": "2021-07-30",
      "expire_date": "2026-07-31"
    },
    {
      "name": "根石岳山荘",
      "name_kana": "",
      "business_type": "飲食店営業",
      "address": "茅野市豊平東岳国有林１３４６　ロ　林小班",
      "lat": 36.008593,
      "lng": 138.295905,
      "geocoding_level": 3,
      "phone": "",
      "license_no": "第04238377号",
      "license_date": "2025-07-31",
      "expire_date": "2030-07-31"
    },
    {
      "name": "ポストホルン",
      "name_kana": "",
      "business_type": "飲食店営業",
      "address": "茅野市北山５５２２－４４８　蓼科ビレッジ滝見平１６０",
      "lat": 36.068783,
      "lng": 138.272294,
      "geocoding_level": 3,
      "phone": "",
      "license_no": "第04238669号",
      "license_date": "2021-07-30",
      "expire_date": "2027-07-31"
    },
    {
      "name": "マハロカフェ・リストランテ",
      "name_kana": "",
      "business_type": "飲食店営業",
      "address": "茅野市北山６０４４－６",
      "lat": 36.068783,
      "lng": 138.272294,
      "geocoding_level": 3,
      "phone": "",
      "license_no": "第04210520号",
      "license_date": "2021-07-30",
      "expire_date": "2027-07-31"
    },
    {
      "name": "車山ゲストハウス　うらら",
      "name_kana": "",
      "business_type": "飲食店営業",
      "address": "茅野市北山車山３４１２－２１４",
      "lat": 36.068783,
      "lng": 138.272294,
      "geocoding_level": 3,
      "phone": "",
      "license_no": "第04236101号",
      "license_date": "2021-07-30",
      "expire_date": "2027-07-31"
    },
    {
      "name": "（有）車山ハイランドホテル",
      "name_kana": "",
      "business_type": "飲食店営業",
      "address": "茅野市北山３４１３－２７",
      "lat": 36.068783,
      "lng": 138.272294,
      "geocoding_level": 3,
      "phone": "",
      "license_no": "第04025750号",
      "license_date": "2021-07-30",
      "expire_date": "2026-07-31"
    },
    {
      "name": "ザ・ババリアン・ペーター",
      "name_kana": "",
      "business_type": "飲食店営業",
      "address": "茅野市北山４０３５－２８７０",
      "lat": 36.068783,
      "lng": 138.272294,
      "geocoding_level": 3,
      "phone": "",
      "license_no": "第04221011号",
      "license_date": "2021-07-30",
      "expire_date": "2026-07-31"
    },
    {
      "name": "レストラン　ピーター　１Ｆ",
      "name_kana": "",
      "business_type": "飲食店営業",
      "address": "茅野市ちの２７４番地５",
      "lat": 36.002408,
      "lng": 138.145936,
      "geocoding_level": 3,
      "phone": "",
      "license_no": "第04123656号",
      "license_date": "2023-02-28",
      "expire_date": "2029-02-28"
    },
    {
      "name": "レンタルショップ健太",
      "name_kana": "",
      "business_type": "飲食店営業",
      "address": "茅野市北山白樺湖３４１９－１",
      "lat": 36.068783,
      "lng": 138.272294,
      "geocoding_level": 3,
      "phone": "",
      "license_no": "第04156414号",
      "license_date": "2021-07-30",
      "expire_date": "2027-07-31"
    },
    {
      "name": "鹿島南蓼科ゴルフコースレストラン",
      "name_kana": "",
      "business_type": "飲食店営業",
      "address": "茅野市豊平７７０２",
      "lat": 36.008593,
      "lng": 138.295905,
      "geocoding_level": 3,
      "phone": "",
      "license_no": "第04181870号",
      "license_date": "2021-07-30",
      "expire_date": "2027-07-31"
    },
    {
      "name": "ちばぎん蓼科荘",
      "name_kana": "",
      "business_type": "飲食店営業",
      "address": "茅野市豊平４７３４－６３９５　三井の森　Ｋ３－４",
      "lat": 36.008593,
      "lng": 138.295905,
      "geocoding_level": 3,
      "phone": "",
      "license_no": "第04236091号",
      "license_date": "2021-07-30",
      "expire_date": "2027-07-31"
    },
    {
      "name": "レストラン　ラコルタ",
      "name_kana": "",
      "business_type": "飲食店営業",
      "address": "茅野市北山鹿山４０２６－２",
      "lat": 36.068783,
      "lng": 138.272294,
      "geocoding_level": 3,
      "phone": "",
      "license_no": "第04182619号",
      "license_date": "2021-07-30",
      "expire_date": "2027-07-31"
    },
    {
      "name": "グラマラスダイニング蓼科　「ＴＨＥ　ＲＯＯＦ」",
      "name_kana": "",
      "business_type": "飲食店営業",
      "address": "茅野市北山字鹿山４０２６－２東急リゾートタウン蓼科内「もりぐらし」",
      "lat": 36.068783,
      "lng": 138.272294,
      "geocoding_level": 3,
      "phone": "",
      "license_no": "第04247197号",
      "license_date": "2023-07-31",
      "expire_date": "2029-07-31"
    },
    {
      "name": "グラマラスダイニング蓼科「管理棟」",
      "name_kana": "",
      "business_type": "飲食店営業",
      "address": "茅野市北山字鹿山４０２６－２東急リゾートタウン蓼科内「もりぐらし」",
      "lat": 36.068783,
      "lng": 138.272294,
      "geocoding_level": 3,
      "phone": "",
      "license_no": "第04247336号",
      "license_date": "2023-07-31",
      "expire_date": "2029-07-31"
    },
    {
      "name": "蓼科東急ホテル　フレグラント（からまつ）",
      "name_kana": "",
      "business_type": "飲食店営業",
      "address": "茅野市北山字鹿山４０２６－２",
      "lat": 36.068783,
      "lng": 138.272294,
      "geocoding_level": 3,
      "phone": "",
      "license_no": "第04200475号",
      "license_date": "2025-07-31",
      "expire_date": "2031-07-31"
    },
    {
      "name": "蓼科東急ホテル　アゼリア",
      "name_kana": "",
      "business_type": "飲食店営業",
      "address": "茅野市北山字鹿山４０２６－２",
      "lat": 36.068783,
      "lng": 138.272294,
      "geocoding_level": 3,
      "phone": "",
      "license_no": "第04200501号",
      "license_date": "2025-07-31",
      "expire_date": "2031-07-31"
    },
    {
      "name": "蓼科東急ホテル　オードヴィ",
      "name_kana": "",
      "business_type": "飲食店営業",
      "address": "茅野市北山字鹿山４０２６－２",
      "lat": 36.068783,
      "lng": 138.272294,
      "geocoding_level": 3,
      "phone": "",
      "license_no": "第04200490号",
      "license_date": "2025-07-31",
      "expire_date": "2031-07-31"
    },
    {
      "name": "蓼科東急ホテル　メープルリーフ",
      "name_kana": "",
      "business_type": "飲食店営業",
      "address": "茅野市北山字鹿山４０２６－２",
      "lat": 36.068783,
      "lng": 138.272294,
      "geocoding_level": 3,
      "phone": "",
      "license_no": "第04200482号",
      "license_date": "2025-07-31",
      "expire_date": "2031-07-31"
    },
    {
      "name": "亀屋ホテル",
      "name_kana": "",
      "business_type": "飲食店営業",
      "address": "茅野市北山３４１９－１",
      "lat": 36.068783,
      "lng": 138.272294,
      "geocoding_level": 3,
      "phone": "",
      "license_no": "第04119105号",
      "license_date": "2021-07-30",
      "expire_date": "2026-07-31"
    },
    {
      "name": "亀屋ホテル",
      "name_kana": "",
      "business_type": "飲食店営業",
      "address": "茅野市北山３４１９番地の１",
      "lat": 36.068783,
      "lng": 138.272294,
      "geocoding_level": 3,
      "phone": "",
      "license_no": "第04240352号",
      "license_date": "2022-07-29",
      "expire_date": "2028-07-31"
    },
    {
      "name": "蓼科グランドホテル　滝の湯",
      "name_kana": "",
      "business_type": "菓子製造業",
      "address": "茅野市北山４０２８番地ロ",
      "lat": 36.068783,
      "lng": 138.272294,
      "geocoding_level": 3,
      "phone": "",
      "license_no": "第04235406号",
      "license_date": "2021-07-30",
      "expire_date": "2027-07-31"
    },
    {
      "name": "蓼科グランドホテル　ＤＡ・ＭＯＮＤＥ",
      "name_kana": "",
      "business_type": "飲食店営業",
      "address": "茅野市北山４０２８番地ロ",
      "lat": 36.068783,
      "lng": 138.272294,
      "geocoding_level": 3,
      "phone": "",
      "license_no": "第04238975号",
      "license_date": "2022-07-29",
      "expire_date": "2028-07-31"
    },
    {
      "name": "蓼科グランドホテル　滝の湯",
      "name_kana": "",
      "business_type": "飲食店営業",
      "address": "茅野市北山４０２８‐ロ",
      "lat": 36.068783,
      "lng": 138.272294,
      "geocoding_level": 3,
      "phone": "",
      "license_no": "第04224178号",
      "license_date": "2024-07-31",
      "expire_date": "2030-07-31"
    },
    {
      "name": "蓼科グランドホテル　滝の湯",
      "name_kana": "",
      "business_type": "飲食店営業",
      "address": "茅野市北山４０２８‐ロ",
      "lat": 36.068783,
      "lng": 138.272294,
      "geocoding_level": 3,
      "phone": "",
      "license_no": "第04109091号",
      "license_date": "2024-07-31",
      "expire_date": "2031-07-31"
    },
    {
      "name": "蓼科グランドホテル　滝の湯",
      "name_kana": "",
      "business_type": "飲食店営業",
      "address": "茅野市北山4028-ロ",
      "lat": 36.068783,
      "lng": 138.272294,
      "geocoding_level": 3,
      "phone": "",
      "license_no": "第04272371号",
      "license_date": "2025-08-01",
      "expire_date": "2031-07-31"
    },
    {
      "name": "蓼科パークホテル　喫茶店",
      "name_kana": "",
      "business_type": "飲食店営業",
      "address": "茅野市北山５５２２",
      "lat": 36.068783,
      "lng": 138.272294,
      "geocoding_level": 3,
      "phone": "",
      "license_no": "第04135637号",
      "license_date": "2021-07-30",
      "expire_date": "2026-07-31"
    },
    {
      "name": "蓼科パークホテル",
      "name_kana": "",
      "business_type": "飲食店営業",
      "address": "茅野市北山５５２２",
      "lat": 36.068783,
      "lng": 138.272294,
      "geocoding_level": 3,
      "phone": "",
      "license_no": "第04136461号",
      "license_date": "2025-07-31",
      "expire_date": "2031-07-31"
    },
    {
      "name": "Ｂ＆Ｂ　ノマの森",
      "name_kana": "",
      "business_type": "飲食店営業",
      "address": "茅野市北山５５１３番地１",
      "lat": 36.068783,
      "lng": 138.272294,
      "geocoding_level": 3,
      "phone": "",
      "license_no": "第04260547号",
      "license_date": "2021-08-20",
      "expire_date": "2028-07-31"
    },
    {
      "name": "ｂａｒ平野",
      "name_kana": "",
      "business_type": "飲食店営業",
      "address": "茅野市ちの３５０２－１　ベルビア１Ｆ　ｂａｒ平野",
      "lat": 36.002408,
      "lng": 138.145936,
      "geocoding_level": 3,
      "phone": "",
      "license_no": "第04267075号",
      "license_date": "2024-01-12",
      "expire_date": "2030-02-28"
    },
    {
      "name": "ｂａｒ平野",
      "name_kana": "",
      "business_type": "飲食店営業",
      "address": "茅野市宮川５１１２－４ アヴァンティ１０１",
      "lat": 35.978166,
      "lng": 138.160466,
      "geocoding_level": 3,
      "phone": "",
      "license_no": "第04267521号",
      "license_date": "2024-03-25",
      "expire_date": "2029-08-31"
    },
    {
      "name": "ｂａｒ平野",
      "name_kana": "",
      "business_type": "飲食店営業",
      "address": "茅野市宮川５１１２－４ アヴァンティ１０１",
      "lat": 35.978166,
      "lng": 138.160466,
      "geocoding_level": 3,
      "phone": "",
      "license_no": "第04267538号",
      "license_date": "2024-03-25",
      "expire_date": "2029-08-31"
    },
    {
      "name": "ｂａｒ平野",
      "name_kana": "",
      "business_type": "菓子製造業",
      "address": "茅野市ちの３５０２－１ ベルビア１Ｆ　ｂａｒ平野",
      "lat": 36.002408,
      "lng": 138.145936,
      "geocoding_level": 3,
      "phone": "",
      "license_no": "第04270089号",
      "license_date": "2024-11-15",
      "expire_date": "2031-02-28"
    },
    {
      "name": "すてっぷくろっぷ",
      "name_kana": "",
      "business_type": "飲食店営業",
      "address": "茅野市湖東４１５３－１",
      "lat": 36.025398,
      "lng": 138.204335,
      "geocoding_level": 3,
      "phone": "",
      "license_no": "第04260530号",
      "license_date": "2021-08-19",
      "expire_date": "2026-08-31"
    },
    {
      "name": "すてっぷくろっぷ",
      "name_kana": "",
      "business_type": "飲食店営業",
      "address": "茅野市湖東４１５３－１",
      "lat": 36.025398,
      "lng": 138.204335,
      "geocoding_level": 3,
      "phone": "",
      "license_no": "第04261001号",
      "license_date": "2021-11-01",
      "expire_date": "2027-08-31"
    },
    {
      "name": "ファミリーマートちの本田店",
      "name_kana": "",
      "business_type": "飲食店営業",
      "address": "茅野市ちの２６７４番地",
      "lat": 36.002408,
      "lng": 138.145936,
      "geocoding_level": 3,
      "phone": "",
      "license_no": "第04222315号",
      "license_date": "2021-10-29",
      "expire_date": "2026-10-31"
    },
    {
      "name": "ニューデイズキオスク茅野駅店",
      "name_kana": "",
      "business_type": "飲食店営業",
      "address": "茅野市ちの３５０６",
      "lat": 36.002408,
      "lng": 138.145936,
      "geocoding_level": 3,
      "phone": "",
      "license_no": "第04245762号",
      "license_date": "2022-02-28",
      "expire_date": "2027-02-28"
    },
    {
      "name": "地域密着型介護老人福祉施設　アイリス茅野",
      "name_kana": "",
      "business_type": "飲食店営業",
      "address": "茅野市宮川５７７８番地１",
      "lat": 35.978166,
      "lng": 138.160466,
      "geocoding_level": 3,
      "phone": "",
      "license_no": "第04241251号",
      "license_date": "2022-10-31",
      "expire_date": "2028-10-31"
    },
    {
      "name": "精明学園",
      "name_kana": "",
      "business_type": "飲食店営業",
      "address": "茅野市金沢羽場上４５０９",
      "lat": 35.945667,
      "lng": 138.179452,
      "geocoding_level": 3,
      "phone": "",
      "license_no": "第04172393号",
      "license_date": "2025-10-31",
      "expire_date": "2031-10-31"
    },
    {
      "name": "土橋整形外科歯科医院",
      "name_kana": "",
      "business_type": "飲食店営業",
      "address": "茅野市塚原２－２－２２",
      "lat": 35.99401175,
      "lng": 138.1572245,
      "geocoding_level": 8,
      "phone": "",
      "license_no": "第04174106号",
      "license_date": "2025-10-31",
      "expire_date": "2031-10-31"
    },
    {
      "name": "甘香茶屋",
      "name_kana": "",
      "business_type": "飲食店営業",
      "address": "茅野市米沢塩沢7682",
      "lat": 36.047629,
      "lng": 138.186053,
      "geocoding_level": 3,
      "phone": "",
      "license_no": "第04260690号",
      "license_date": "2021-09-24",
      "expire_date": "2027-10-31"
    },
    {
      "name": "甘香茶屋",
      "name_kana": "",
      "business_type": "菓子製造業",
      "address": "茅野市米沢塩沢7682",
      "lat": 36.047629,
      "lng": 138.186053,
      "geocoding_level": 3,
      "phone": "",
      "license_no": "第04260701号",
      "license_date": "2021-09-24",
      "expire_date": "2027-10-31"
    },
    {
      "name": "株式会社西友　茅野横内店　若菜",
      "name_kana": "",
      "business_type": "飲食店営業",
      "address": "茅野市ちの２６２２－１",
      "lat": 36.002408,
      "lng": 138.145936,
      "geocoding_level": 3,
      "phone": "",
      "license_no": "第04217066号",
      "license_date": "2022-10-31",
      "expire_date": "2028-10-31"
    },
    {
      "name": "株式会社西友　茅野横内店",
      "name_kana": "",
      "business_type": "菓子製造業",
      "address": "茅野市ちの２６２２－１",
      "lat": 36.002408,
      "lng": 138.145936,
      "geocoding_level": 3,
      "phone": "",
      "license_no": "第04217073号",
      "license_date": "2022-10-31",
      "expire_date": "2028-10-31"
    },
    {
      "name": "株式会社西友　茅野横内店　若菜",
      "name_kana": "",
      "business_type": "飲食店営業",
      "address": "茅野市ちの２６２２－１",
      "lat": 36.002408,
      "lng": 138.145936,
      "geocoding_level": 3,
      "phone": "",
      "license_no": "第04191504号",
      "license_date": "2023-10-31",
      "expire_date": "2029-10-31"
    },
    {
      "name": "オーベルジュ　エスポワール",
      "name_kana": "",
      "business_type": "菓子製造業",
      "address": "茅野市北山５５１３－１４２",
      "lat": 36.068783,
      "lng": 138.272294,
      "geocoding_level": 3,
      "phone": "",
      "license_no": "第04182100号",
      "license_date": "2021-07-30",
      "expire_date": "2027-07-31"
    },
    {
      "name": "オーベルジュ　エスポワール",
      "name_kana": "",
      "business_type": "飲食店営業",
      "address": "茅野市北山５５１３－１４２",
      "lat": 36.068783,
      "lng": 138.272294,
      "geocoding_level": 3,
      "phone": "",
      "license_no": "第04157263号",
      "license_date": "2025-07-31",
      "expire_date": "2031-07-31"
    },
    {
      "name": "赤岳天望荘",
      "name_kana": "",
      "business_type": "飲食店営業",
      "address": "茅野市豊平４７３３－４",
      "lat": 36.008593,
      "lng": 138.295905,
      "geocoding_level": 3,
      "phone": "",
      "license_no": "第04146111号",
      "license_date": "2021-07-30",
      "expire_date": "2026-07-31"
    },
    {
      "name": "美濃戸山荘",
      "name_kana": "",
      "business_type": "飲食店営業",
      "address": "茅野市豊平４７３３",
      "lat": 36.008593,
      "lng": 138.295905,
      "geocoding_level": 3,
      "phone": "",
      "license_no": "第04159710号",
      "license_date": "2022-07-29",
      "expire_date": "2028-07-31"
    },
    {
      "name": "ヒュッテ夏沢",
      "name_kana": "",
      "business_type": "飲食店営業",
      "address": "茅野市豊平４７３３－１",
      "lat": 36.008593,
      "lng": 138.295905,
      "geocoding_level": 3,
      "phone": "",
      "license_no": "第04178624号",
      "license_date": "2022-07-29",
      "expire_date": "2027-07-31"
    },
    {
      "name": "ファナックパートロニクス（株）内食堂",
      "name_kana": "",
      "business_type": "飲食店営業",
      "address": "茅野市玉川字原山１１４００－２６０",
      "lat": 35.986365,
      "lng": 138.26356,
      "geocoding_level": 3,
      "phone": "",
      "license_no": "第04267417号",
      "license_date": "2024-03-15",
      "expire_date": "2030-10-31"
    },
    {
      "name": "魚国総本社・茅野２４２０３１",
      "name_kana": "",
      "business_type": "飲食店営業",
      "address": "茅野市金沢２９８４－１",
      "lat": 35.945667,
      "lng": 138.179452,
      "geocoding_level": 3,
      "phone": "",
      "license_no": "第04250251号",
      "license_date": "2024-10-31",
      "expire_date": "2030-10-31"
    },
    {
      "name": "キッツ茅野工場内魚国総本社",
      "name_kana": "",
      "business_type": "飲食店営業",
      "address": "茅野市金沢５１２５",
      "lat": 35.965851872,
      "lng": 138.181616677,
      "geocoding_level": 8,
      "phone": "",
      "license_no": "第04227352号",
      "license_date": "2025-10-31",
      "expire_date": "2031-10-31"
    },
    {
      "name": "（株）リョウワ社員食堂",
      "name_kana": "",
      "business_type": "飲食店営業",
      "address": "茅野市米沢２４５番地",
      "lat": 36.047629,
      "lng": 138.186053,
      "geocoding_level": 3,
      "phone": "",
      "license_no": "第04200961号",
      "license_date": "2025-10-31",
      "expire_date": "2031-10-31"
    },
    {
      "name": "グリーン・マイル・カフェ",
      "name_kana": "",
      "business_type": "飲食店営業",
      "address": "茅野市北山５７０６",
      "lat": 36.068783,
      "lng": 138.272294,
      "geocoding_level": 3,
      "phone": "",
      "license_no": "第04244023号",
      "license_date": "2021-08-31",
      "expire_date": "2026-08-31"
    },
    {
      "name": "グリーン・マイル",
      "name_kana": "",
      "business_type": "飲食店営業",
      "address": "茅野市北山５７０６",
      "lat": 36.068783,
      "lng": 138.272294,
      "geocoding_level": 3,
      "phone": "",
      "license_no": "第04242330号",
      "license_date": "2021-08-31",
      "expire_date": "2026-08-31"
    },
    {
      "name": "バラクライングリッシュガーデン",
      "name_kana": "",
      "business_type": "そうざい製造業",
      "address": "茅野市北山栗平５０４７",
      "lat": 36.068783,
      "lng": 138.272294,
      "geocoding_level": 3,
      "phone": "",
      "license_no": "第04262142号",
      "license_date": "2022-04-26",
      "expire_date": "2028-10-31"
    },
    {
      "name": "バラクライングリッシュガーデン",
      "name_kana": "",
      "business_type": "密封包装食品製造業",
      "address": "茅野市北山栗平５０４７番地",
      "lat": 36.068783,
      "lng": 138.272294,
      "geocoding_level": 3,
      "phone": "",
      "license_no": "第04263493号",
      "license_date": "2022-10-07",
      "expire_date": "2028-10-31"
    },
    {
      "name": "クリケットファーム菓子製造工房",
      "name_kana": "",
      "business_type": "菓子製造業",
      "address": "茅野市ちの５９５",
      "lat": 36.002408,
      "lng": 138.145936,
      "geocoding_level": 3,
      "phone": "",
      "license_no": "第04260771号",
      "license_date": "2021-09-27",
      "expire_date": "2027-10-31"
    },
    {
      "name": "すき家　152号茅野店",
      "name_kana": "",
      "business_type": "飲食店営業",
      "address": "茅野市本町東5291-1",
      "lat": 35.999861,
      "lng": 138.168906,
      "geocoding_level": 3,
      "phone": "",
      "license_no": "第04183297号",
      "license_date": "2021-10-29",
      "expire_date": "2027-10-31"
    },
    {
      "name": "すき家　152号茅野横内店",
      "name_kana": "",
      "business_type": "飲食店営業",
      "address": "茅野市ちの本田2616番地２",
      "lat": 36.002408,
      "lng": 138.145936,
      "geocoding_level": 3,
      "phone": "",
      "license_no": "第04270865号",
      "license_date": "2025-04-04",
      "expire_date": "2031-10-31"
    },
    {
      "name": "鹿山会",
      "name_kana": "",
      "business_type": "飲食店営業",
      "address": "茅野市鹿山４０２６－２",
      "lat": 35.995571,
      "lng": 138.158896,
      "geocoding_level": 2,
      "phone": "",
      "license_no": "第04243965号",
      "license_date": "2021-08-31",
      "expire_date": "2026-08-31"
    },