{
  "meta": {
    "updated": 1783906731,
    "sources": [
      {
        "source": "鹿児島県 鹿児島県食品営業許可施設一覧",
        "license": "Creative Commons Attribution 4.0 International"
      },
      {
        "source": "厚生労働省 食品衛生申請等システム（オープンデータ）",
        "license": "公共データ利用規約（第1.0版, PDL1.0）"
      }
    ]
  },
  "data": [
    {
      "name": "東　孝一",
      "name_kana": "",
      "business_type": "密封包装食品製造業",
      "address": "大島郡和泊町出花976",
      "lat": 27.41604,
      "lng": 128.655107,
      "geocoding_level": 3,
      "phone": "",
      "license_no": "第034-000001号",
      "license_date": null,
      "expire_date": "2028-04-30"
    },
    {
      "name": "盛山　美智代",
      "name_kana": "",
      "business_type": "飲食店営業（仕出し屋・弁当屋）",
      "address": "大島郡和泊町玉城1069－2",
      "lat": 27.385449042,
      "lng": 128.627234396,
      "geocoding_level": 8,
      "phone": "",
      "license_no": "第034-000037号",
      "license_date": null,
      "expire_date": "2028-04-30"
    },
    {
      "name": "株式会社ＧｏｎＺ",
      "name_kana": "",
      "business_type": "そうざい製造業",
      "address": "大島郡和泊町和泊954－1 和泊町農産物加工センター",
      "lat": 27.40062336,
      "lng": 128.649483911,
      "geocoding_level": 8,
      "phone": "",
      "license_no": "第034-000055号",
      "license_date": null,
      "expire_date": "2028-07-31"
    },
    {
      "name": "株式会社　ＴＥＲＵ",
      "name_kana": "",
      "business_type": "飲食店営業（その他）",
      "address": "大島郡和泊町和泊147－6 （鹿児島市を除く県内一円）",
      "lat": 27.385602004,
      "lng": 128.652087525,
      "geocoding_level": 8,
      "phone": "",
      "license_no": "第034-000056号",
      "license_date": null,
      "expire_date": "2027-07-31"
    },
    {
      "name": "盛田　祐子",
      "name_kana": "",
      "business_type": "飲食店営業（一般食堂・ﾚｽﾄﾗﾝ等）",
      "address": "大島郡和泊町国頭2139",
      "lat": 27.428158968,
      "lng": 128.686595591,
      "geocoding_level": 8,
      "phone": "",
      "license_no": "第034-000099号",
      "license_date": null,
      "expire_date": "2028-07-31"
    },
    {
      "name": "田仲　春美",
      "name_kana": "",
      "business_type": "そうざい製造業",
      "address": "大島郡和泊町国頭2321－1",
      "lat": 27.428059496000003,
      "lng": 128.68565029,
      "geocoding_level": 8,
      "phone": "",
      "license_no": "第034-000100号",
      "license_date": null,
      "expire_date": "2028-07-31"
    },
    {
      "name": "利江　潤司",
      "name_kana": "",
      "business_type": "飲食店営業（その他）",
      "address": "大島郡和泊町手々知名512－65－1F",
      "lat": 27.402099000000003,
      "lng": 128.656713,
      "geocoding_level": 3,
      "phone": "",
      "license_no": "第034-000101号",
      "license_date": null,
      "expire_date": "2028-07-31"
    },
    {
      "name": "林　輝志",
      "name_kana": "",
      "business_type": "飲食店営業（仕出し屋・弁当屋）",
      "address": "大島郡和泊町和1055",
      "lat": 27.394801,
      "lng": 128.638703,
      "geocoding_level": 3,
      "phone": "",
      "license_no": "第034-000102号",
      "license_date": null,
      "expire_date": "2028-07-31"
    },
    {
      "name": "和田　ゆう",
      "name_kana": "",
      "business_type": "菓子製造業",
      "address": "大島郡和泊町和泊954－1 和泊町農産物加工センター",
      "lat": 27.40062336,
      "lng": 128.649483911,
      "geocoding_level": 8,
      "phone": "",
      "license_no": "第034-000103号",
      "license_date": null,
      "expire_date": "2028-07-31"
    },
    {
      "name": "桑名　久美子",
      "name_kana": "",
      "business_type": "飲食店営業（一般食堂・ﾚｽﾄﾗﾝ等）",
      "address": "大島郡和泊町和泊47－4",
      "lat": 27.390276221,
      "lng": 128.655912383,
      "geocoding_level": 8,
      "phone": "",
      "license_no": "第034-000106号",
      "license_date": null,
      "expire_date": "2028-07-31"
    },
    {
      "name": "竹村　匡平",
      "name_kana": "",
      "business_type": "飲食店営業（その他）",
      "address": "大島郡和泊町和泊147－6 （鹿児島市を除く県内一円）",
      "lat": 27.385602004,
      "lng": 128.652087525,
      "geocoding_level": 8,
      "phone": "",
      "license_no": "第034-000107号",
      "license_date": null,
      "expire_date": "2027-07-31"
    },
    {
      "name": "合同会社　アイランドミックス",
      "name_kana": "",
      "business_type": "飲食店営業（一般食堂・ﾚｽﾄﾗﾝ等）",
      "address": "大島郡和泊町手々知名90",
      "lat": 27.402099000000003,
      "lng": 128.656713,
      "geocoding_level": 3,
      "phone": "",
      "license_no": "第034-000119号",
      "license_date": null,
      "expire_date": "2028-10-31"
    },
    {
      "name": "平村　ヨ子",
      "name_kana": "",
      "business_type": "飲食店営業（その他）",
      "address": "大島郡和泊町手々知名162－3",
      "lat": 27.40145968,
      "lng": 128.660764866,
      "geocoding_level": 8,
      "phone": "",
      "license_no": "第034-000142号",
      "license_date": null,
      "expire_date": "2028-10-31"
    },
    {
      "name": "福元　末男",
      "name_kana": "",
      "business_type": "飲食店営業（その他）",
      "address": "大島郡和泊町手々知名512－106",
      "lat": 27.398830702,
      "lng": 128.66173345,
      "geocoding_level": 8,
      "phone": "",
      "license_no": "第034-000143号",
      "license_date": null,
      "expire_date": "2028-10-31"
    },
    {
      "name": "勝男　英樹",
      "name_kana": "",
      "business_type": "飲食店営業（一般食堂・ﾚｽﾄﾗﾝ等）",
      "address": "大島郡和泊町手々知名512－76",
      "lat": 27.396566884,
      "lng": 128.659938535,
      "geocoding_level": 8,
      "phone": "",
      "license_no": "第034-000145号",
      "license_date": null,
      "expire_date": "2028-10-31"
    },
    {
      "name": "逆瀬川　逸子",
      "name_kana": "",
      "business_type": "菓子製造業",
      "address": "大島郡和泊町上手々知名1022－2",
      "lat": 27.392559,
      "lng": 128.655253,
      "geocoding_level": 2,
      "phone": "",
      "license_no": "第034-000146号",
      "license_date": null,
      "expire_date": "2028-10-31"
    },
    {
      "name": "須崎　光男",
      "name_kana": "",
      "business_type": "飲食店営業（その他）",
      "address": "大島郡和泊町和泊582",
      "lat": 27.392166,
      "lng": 128.651277,
      "geocoding_level": 3,
      "phone": "",
      "license_no": "第034-000147号",
      "license_date": null,
      "expire_date": "2027-10-31"
    },
    {
      "name": "株式会社ｓａｐｏｎｉｎ",
      "name_kana": "",
      "business_type": "水産製品製造業",
      "address": "大島郡和泊町和泊173－8",
      "lat": 27.382757484,
      "lng": 128.649962952,
      "geocoding_level": 8,
      "phone": "",
      "license_no": "第034-000156号",
      "license_date": null,
      "expire_date": "2028-10-31"
    },
    {
      "name": "山本　美和",
      "name_kana": "",
      "business_type": "菓子製造業",
      "address": "大島郡和泊町和泊954－1 和泊町農産物加工センター",
      "lat": 27.40062336,
      "lng": 128.649483911,
      "geocoding_level": 8,
      "phone": "",
      "license_no": "第034-000158号",
      "license_date": null,
      "expire_date": "2028-10-31"
    },
    {
      "name": "山下　正一",
      "name_kana": "",
      "business_type": "飲食店営業（一般食堂・ﾚｽﾄﾗﾝ等）",
      "address": "大島郡和泊町伊延１１６９－３",
      "lat": 27.414367288,
      "lng": 128.642353325,
      "geocoding_level": 8,
      "phone": "",
      "license_no": "第031-000287号",
      "license_date": null,
      "expire_date": "2026-01-31"
    },
    {
      "name": "今井　義樹",
      "name_kana": "",
      "business_type": "飲食店営業（一般食堂・ﾚｽﾄﾗﾝ等）",
      "address": "大島郡和泊町手々知名５１２－８",
      "lat": 27.395639305,
      "lng": 128.65732118,
      "geocoding_level": 8,
      "phone": "",
      "license_no": "第031-000294号",
      "license_date": null,
      "expire_date": "2026-01-31"
    },
    {
      "name": "山口　武志",
      "name_kana": "",
      "business_type": "魚介類販売業",
      "address": "大島郡和泊町和泊1－1",
      "lat": 27.392692133,
      "lng": 128.656140161,
      "geocoding_level": 8,
      "phone": "",
      "license_no": "第031-000371号",
      "license_date": null,
      "expire_date": "2026-01-31"
    },
    {
      "name": "今井　　啓仁",
      "name_kana": "",
      "business_type": "飲食店営業（仕出し屋・弁当屋）",
      "address": "大島郡和泊町和泊１２４７",
      "lat": 27.395118354,
      "lng": 128.656568002,
      "geocoding_level": 8,
      "phone": "",
      "license_no": "第031-000372号",
      "license_date": null,
      "expire_date": "2026-01-31"
    },
    {
      "name": "今井　　啓仁",
      "name_kana": "",
      "business_type": "菓子製造業",
      "address": "大島郡和泊町和泊１２４７",
      "lat": 27.395118354,
      "lng": 128.656568002,
      "geocoding_level": 8,
      "phone": "",
      "license_no": "第031-000373号",
      "license_date": null,
      "expire_date": "2026-01-31"
    },
    {
      "name": "有限会社メークマ",
      "name_kana": "",
      "business_type": "飲食店営業（一般食堂・ﾚｽﾄﾗﾝ等）",
      "address": "大島郡和泊町和泊３－７",
      "lat": 27.391712079,
      "lng": 128.656438247,
      "geocoding_level": 8,
      "phone": "",
      "license_no": "第031-000377号",
      "license_date": null,
      "expire_date": "2026-01-31"
    },
    {
      "name": "川南　匡",
      "name_kana": "",
      "business_type": "飲食店営業（一般食堂・ﾚｽﾄﾗﾝ等）",
      "address": "大島郡和泊町内城５３８－１",
      "lat": 27.382833382000005,
      "lng": 128.608528343,
      "geocoding_level": 8,
      "phone": "",
      "license_no": "第031-000380号",
      "license_date": null,
      "expire_date": "2026-01-31"
    },
    {
      "name": "川原　義文",
      "name_kana": "",
      "business_type": "飲食店営業（一般食堂・ﾚｽﾄﾗﾝ等）",
      "address": "大島郡和泊町手々知名５１２－１０１",
      "lat": 27.397762568,
      "lng": 128.660303185,
      "geocoding_level": 8,
      "phone": "",
      "license_no": "第031-000381号",
      "license_date": null,
      "expire_date": "2026-01-31"
    },
    {
      "name": "佐々木　亜里沙",
      "name_kana": "",
      "business_type": "飲食店営業（一般食堂・ﾚｽﾄﾗﾝ等）",
      "address": "大島郡和泊町和泊537－3",
      "lat": 27.393241371,
      "lng": 128.656239365,
      "geocoding_level": 8,
      "phone": "",
      "license_no": "第031-000389号",
      "license_date": null,
      "expire_date": "2026-04-30"
    },
    {
      "name": "榮　純一",
      "name_kana": "",
      "business_type": "飲食店営業（一般食堂・ﾚｽﾄﾗﾝ等）",
      "address": "大島郡和泊町和泊５７６－５",
      "lat": 27.393977187,
      "lng": 128.656391411,
      "geocoding_level": 8,
      "phone": "",
      "license_no": "第031-000400号",
      "license_date": null,
      "expire_date": "2026-04-30"
    },
    {
      "name": "有限会社　竿田酒造",
      "name_kana": "",
      "business_type": "酒類製造業",
      "address": "大島郡和泊町国頭1318",
      "lat": 27.429563272,
      "lng": 128.688262316,
      "geocoding_level": 8,
      "phone": "",
      "license_no": "第032-000053号",
      "license_date": null,
      "expire_date": "2026-04-30"
    },
    {
      "name": "沖永良部きのこ株式会社",
      "name_kana": "",
      "business_type": "そうざい製造業",
      "address": "大島郡和泊町皆川８６５番地",
      "lat": 27.37368237,
      "lng": 128.641575252,
      "geocoding_level": 8,
      "phone": "",
      "license_no": "第032-000143号",
      "license_date": null,
      "expire_date": "2026-07-31"
    },
    {
      "name": "佐藤　二三男",
      "name_kana": "",
      "business_type": "飲食店営業（一般食堂・ﾚｽﾄﾗﾝ等）",
      "address": "大島郡和泊町畦布242－1",
      "lat": 27.403792531,
      "lng": 128.637215378,
      "geocoding_level": 8,
      "phone": "",
      "license_no": "第032-000144号",
      "license_date": null,
      "expire_date": "2026-07-31"
    },
    {
      "name": "山田海陸航空株式会社",
      "name_kana": "",
      "business_type": "飲食店営業（一般食堂・ﾚｽﾄﾗﾝ等）",
      "address": "大島郡和泊町国頭１７３２－３",
      "lat": 27.433218656,
      "lng": 128.706158777,
      "geocoding_level": 8,
      "phone": "",
      "license_no": "第032-000145号",
      "license_date": null,
      "expire_date": "2026-07-31"
    },
    {
      "name": "東　孝一",
      "name_kana": "",
      "business_type": "缶詰又は瓶詰食品製造業",
      "address": "大島郡和泊町出花860－3",
      "lat": 27.411858141,
      "lng": 128.655187168,
      "geocoding_level": 8,
      "phone": "",
      "license_no": "第032-000150号",
      "license_date": null,
      "expire_date": "2026-07-31"
    },
    {
      "name": "奥間　和志",
      "name_kana": "",
      "business_type": "飲食店営業（一般食堂・ﾚｽﾄﾗﾝ等）",
      "address": "大島郡和泊町和泊9－3",
      "lat": 27.392692188,
      "lng": 128.655875773,
      "geocoding_level": 8,
      "phone": "",
      "license_no": "第032-000152号",
      "license_date": null,
      "expire_date": "2026-07-31"
    },
    {
      "name": "KAMMURA JUVY GAMBA",
      "name_kana": "",
      "business_type": "飲食店営業（一般食堂・ﾚｽﾄﾗﾝ等）",
      "address": "大島郡和泊町和泊１１０－１",
      "lat": 27.386970745,
      "lng": 128.652330774,
      "geocoding_level": 8,
      "phone": "",
      "license_no": "第032-000173号",
      "license_date": null,
      "expire_date": "2026-10-31"
    },
    {
      "name": "長野　ムツ子",
      "name_kana": "",
      "business_type": "飲食店営業（一般食堂・ﾚｽﾄﾗﾝ等）",
      "address": "大島郡和泊町和泊５２",
      "lat": 27.392166,
      "lng": 128.651277,
      "geocoding_level": 3,
      "phone": "",
      "license_no": "第032-000174号",
      "license_date": null,
      "expire_date": "2026-10-31"
    },
    {
      "name": "種子島　みほ子",
      "name_kana": "",
      "business_type": "みそ又はしょうゆ製造業",
      "address": "大島郡和泊町和泊954－1",
      "lat": 27.40062336,
      "lng": 128.649483911,
      "geocoding_level": 8,
      "phone": "",
      "license_no": "第034-000182号",
      "license_date": null,
      "expire_date": "2029-01-31"
    },
    {
      "name": "田仲　春美",
      "name_kana": "",
      "business_type": "菓子製造業",
      "address": "大島郡和泊町国頭２３２１－１",
      "lat": 27.428059496000003,
      "lng": 128.68565029,
      "geocoding_level": 8,
      "phone": "",
      "license_no": "第032-000213号",
      "license_date": null,
      "expire_date": "2026-10-31"
    },
    {
      "name": "稲江　すみよ",
      "name_kana": "",
      "business_type": "飲食店営業（一般食堂・ﾚｽﾄﾗﾝ等）",
      "address": "大島郡和泊町和泊５３７",
      "lat": 27.392166,
      "lng": 128.651277,
      "geocoding_level": 3,
      "phone": "",
      "license_no": "第032-000228号",
      "license_date": null,
      "expire_date": "2027-01-31"
    },
    {
      "name": "川間　富男",
      "name_kana": "",
      "business_type": "菓子製造業",
      "address": "大島郡和泊町玉城１７６９",
      "lat": 27.384118,
      "lng": 128.632826,
      "geocoding_level": 3,
      "phone": "",
      "license_no": "第032-000229号",
      "license_date": null,
      "expire_date": "2026-01-31"
    },
    {
      "name": "田畑　理恵子",
      "name_kana": "",
      "business_type": "飲食店営業（仕出し屋・弁当屋）",
      "address": "大島郡和泊町国頭１３１７",
      "lat": 27.429576111,
      "lng": 128.688443226,
      "geocoding_level": 8,
      "phone": "",
      "license_no": "第032-000230号",
      "license_date": null,
      "expire_date": "2027-01-31"
    },
    {
      "name": "田畑　理恵子",
      "name_kana": "",
      "business_type": "菓子製造業",
      "address": "大島郡和泊町国頭１３１７",
      "lat": 27.429576111,
      "lng": 128.688443226,
      "geocoding_level": 8,
      "phone": "",
      "license_no": "第032-000231号",
      "license_date": null,
      "expire_date": "2027-01-31"
    },
    {
      "name": "株式会社Ｋ企画",
      "name_kana": "",
      "business_type": "飲食店営業（一般食堂・ﾚｽﾄﾗﾝ等）",
      "address": "大島郡和泊町古里２６４－２",
      "lat": 27.367560126,
      "lng": 128.625798306,
      "geocoding_level": 8,
      "phone": "",
      "license_no": "第032-000249号",
      "license_date": null,
      "expire_date": "2026-01-31"
    },
    {
      "name": "株式会社Ｋ企画",
      "name_kana": "",
      "business_type": "菓子製造業",
      "address": "大島郡和泊町古里２６４－２",
      "lat": 27.367560126,
      "lng": 128.625798306,
      "geocoding_level": 8,
      "phone": "",
      "license_no": "第032-000250号",
      "license_date": null,
      "expire_date": "2026-01-31"
    },
    {
      "name": "あまみ農業協同組合",
      "name_kana": "",
      "business_type": "飲食店営業（仕出し屋・弁当屋）",
      "address": "大島郡和泊町玉城１７６９－１",
      "lat": 27.381819061,
      "lng": 128.647428516,
      "geocoding_level": 8,
      "phone": "",
      "license_no": "第032-000290号",
      "license_date": null,
      "expire_date": "2027-01-31"
    },
    {
      "name": "あまみ農業協同組合",
      "name_kana": "",
      "business_type": "食肉販売業",
      "address": "大島郡和泊町玉城１７６９－１",
      "lat": 27.381819061,
      "lng": 128.647428516,
      "geocoding_level": 8,
      "phone": "",
      "license_no": "第032-000293号",
      "license_date": null,
      "expire_date": "2027-01-31"
    },
    {
      "name": "あまみ農業協同組合",
      "name_kana": "",
      "business_type": "魚介類販売業",
      "address": "大島郡和泊町玉城１７６９－１",
      "lat": 27.381819061,
      "lng": 128.647428516,
      "geocoding_level": 8,
      "phone": "",
      "license_no": "第032-000294号",
      "license_date": null,
      "expire_date": "2027-01-31"
    },
    {
      "name": "冝喜　安広",
      "name_kana": "",
      "business_type": "飲食店営業（一般食堂・ﾚｽﾄﾗﾝ等）",
      "address": "大島郡和泊町玉城１７６９－８",
      "lat": 27.38188095,
      "lng": 128.646915104,
      "geocoding_level": 8,
      "phone": "",
      "license_no": "第032-000295号",
      "license_date": null,
      "expire_date": "2027-01-31"
    },
    {
      "name": "谷山　光樹",
      "name_kana": "",
      "business_type": "飲食店営業（一般食堂・ﾚｽﾄﾗﾝ等）",
      "address": "大島郡和泊町手々知名５１２－５３",
      "lat": 27.397428304,
      "lng": 128.660454891,
      "geocoding_level": 8,
      "phone": "",
      "license_no": "第032-000297号",
      "license_date": null,
      "expire_date": "2027-01-31"
    },
    {
      "name": "福山　　俊二",
      "name_kana": "",
      "business_type": "飲食店営業（一般食堂・ﾚｽﾄﾗﾝ等）",
      "address": "大島郡和泊町手々知名５６９",
      "lat": 27.402099000000003,
      "lng": 128.656713,
      "geocoding_level": 3,
      "phone": "",
      "license_no": "第032-000298号",
      "license_date": null,
      "expire_date": "2026-01-31"
    },
    {
      "name": "中倉哲夫",
      "name_kana": "",
      "business_type": "飲食店営業（一般食堂・ﾚｽﾄﾗﾝ等）",
      "address": "大島郡和泊町和泊３－４",
      "lat": 27.392340891,
      "lng": 128.656675318,
      "geocoding_level": 8,
      "phone": "",
      "license_no": "第032-000299号",
      "license_date": null,
      "expire_date": "2026-01-31"
    },
    {
      "name": "株式会社　東旅館",
      "name_kana": "",
      "business_type": "飲食店営業（旅館）",
      "address": "大島郡和泊町和泊５６８",
      "lat": 27.392166,
      "lng": 128.651277,
      "geocoding_level": 3,
      "phone": "",
      "license_no": "第032-000300号",
      "license_date": null,
      "expire_date": "2027-01-31"
    },
    {
      "name": "山田　義仁",
      "name_kana": "",
      "business_type": "飲食店営業（その他）",
      "address": "大島郡和泊町手々知名５１２－９０",
      "lat": 27.39601805,
      "lng": 128.659005675,
      "geocoding_level": 8,
      "phone": "",
      "license_no": "第032-000315号",
      "license_date": null,
      "expire_date": "2026-04-30"
    },
    {
      "name": "深田　智恵",
      "name_kana": "",
      "business_type": "飲食店営業（その他）",
      "address": "大島郡和泊町和泊１３５",
      "lat": 27.384538789,
      "lng": 128.65298614,
      "geocoding_level": 8,
      "phone": "",
      "license_no": "第032-000317号",
      "license_date": null,
      "expire_date": "2027-04-30"
    },
    {
      "name": "外山　成子",
      "name_kana": "",
      "business_type": "菓子製造業",
      "address": "大島郡和泊町和1050",
      "lat": 27.394801,
      "lng": 128.638703,
      "geocoding_level": 3,
      "phone": "",
      "license_no": "第033-000060号",
      "license_date": null,
      "expire_date": "2026-07-31"
    },
    {
      "name": "牟田　祐一朗",
      "name_kana": "",
      "business_type": "飲食店営業（一般食堂・ﾚｽﾄﾗﾝ等）",
      "address": "大島郡和泊町83－6",
      "lat": 27.392559,
      "lng": 128.655253,
      "geocoding_level": 2,
      "phone": "",
      "license_no": "第033-000061号",
      "license_date": null,
      "expire_date": "2026-07-31"
    },
    {
      "name": "外山　成子",
      "name_kana": "",
      "business_type": "そうざい製造業",
      "address": "大島郡和泊町和1050",
      "lat": 27.394801,
      "lng": 128.638703,
      "geocoding_level": 3,
      "phone": "",
      "license_no": "第033-000062号",
      "license_date": null,
      "expire_date": "2026-07-31"
    },
    {
      "name": "新田　雄大",
      "name_kana": "",
      "business_type": "飲食店営業（一般食堂・ﾚｽﾄﾗﾝ等）",
      "address": "大島郡和泊町和泊6－12",
      "lat": 27.392160735,
      "lng": 128.65593833,
      "geocoding_level": 8,
      "phone": "",
      "license_no": "第033-000068号",
      "license_date": null,
      "expire_date": "2026-07-31"
    },
    {
      "name": "先山　チエ子",
      "name_kana": "",
      "business_type": "菓子製造業",
      "address": "大島郡和泊町喜美留1610",
      "lat": 27.410494,
      "lng": 128.665686,
      "geocoding_level": 3,
      "phone": "",
      "license_no": "第033-000108号",
      "license_date": null,
      "expire_date": "2027-10-31"
    },
    {
      "name": "中村　玲香",
      "name_kana": "",
      "business_type": "飲食店営業（その他）",
      "address": "大島郡和泊町手々知名512－51",
      "lat": 27.397529900000002,
      "lng": 128.660554431,
      "geocoding_level": 8,
      "phone": "",
      "license_no": "第033-000110号",
      "license_date": null,
      "expire_date": "2027-10-31"
    },
    {
      "name": "有限会社　山下",
      "name_kana": "",
      "business_type": "食肉販売業",
      "address": "大島郡和泊町手々知名569－1",
      "lat": 27.397312105000005,
      "lng": 128.65741513,
      "geocoding_level": 8,
      "phone": "",
      "license_no": "第033-000111号",
      "license_date": null,
      "expire_date": "2027-10-31"
    },
    {
      "name": "武宮　芳枝",
      "name_kana": "",
      "business_type": "魚介類販売業",
      "address": "大島郡和泊町内城505",
      "lat": 27.381948439,
      "lng": 128.606753512,
      "geocoding_level": 8,
      "phone": "",
      "license_no": "第033-000112号",
      "license_date": null,
      "expire_date": "2027-10-31"
    },
    {
      "name": "末岡　賢治",
      "name_kana": "",
      "business_type": "飲食店営業（その他）",
      "address": "大島郡和泊町和泊183－1",
      "lat": 27.384092148000004,
      "lng": 128.649996938,
      "geocoding_level": 8,
      "phone": "",
      "license_no": "第033-000120号",
      "license_date": null,
      "expire_date": "2026-10-31"
    },
    {
      "name": "福元　末男",
      "name_kana": "",
      "business_type": "飲食店営業（一般食堂・ﾚｽﾄﾗﾝ等）",
      "address": "大島郡和泊町手々知名512－106",
      "lat": 27.398830702,
      "lng": 128.66173345,
      "geocoding_level": 8,
      "phone": "",
      "license_no": "第033-000127号",
      "license_date": null,
      "expire_date": "2027-10-31"
    },
    {
      "name": "有限会社　沖酒造",
      "name_kana": "",
      "business_type": "酒類製造業",
      "address": "大島郡和泊町手々知名598",
      "lat": 27.397037984,
      "lng": 128.656632381,
      "geocoding_level": 8,
      "phone": "",
      "license_no": "第033-000150号",
      "license_date": null,
      "expire_date": "2028-01-31"
    },
    {
      "name": "松本　博子",
      "name_kana": "",
      "business_type": "飲食店営業（一般食堂・ﾚｽﾄﾗﾝ等）",
      "address": "大島郡和泊町大城123",
      "lat": 27.381440518000005,
      "lng": 128.616919666,
      "geocoding_level": 8,
      "phone": "",
      "license_no": "第033-000151号",
      "license_date": null,
      "expire_date": "2028-01-31"
    },
    {
      "name": "谷山　せい子",
      "name_kana": "",
      "business_type": "菓子製造業",
      "address": "大島郡和泊町大城123",
      "lat": 27.381440518000005,
      "lng": 128.616919666,
      "geocoding_level": 8,
      "phone": "",
      "license_no": "第033-000152号",
      "license_date": null,
      "expire_date": "2028-01-31"
    },
    {
      "name": "入來　美津子",
      "name_kana": "",
      "business_type": "飲食店営業（一般食堂・ﾚｽﾄﾗﾝ等）",
      "address": "大島郡和泊町和泊605",
      "lat": 27.395013222,
      "lng": 128.65453485800003,
      "geocoding_level": 8,
      "phone": "",
      "license_no": "第033-000153号",
      "license_date": null,
      "expire_date": "2028-01-31"
    },
    {
      "name": "合同会社　TSUMUGU",
      "name_kana": "",
      "business_type": "飲食店営業（その他）",
      "address": "大島郡和泊町手々知名608－1",
      "lat": 27.396523271,
      "lng": 128.657095105,
      "geocoding_level": 8,
      "phone": "",
      "license_no": "第033-000160号",
      "license_date": null,
      "expire_date": "2027-10-31"
    },
    {
      "name": "株式会社結ログ",
      "name_kana": "",
      "business_type": "飲食店営業（一般食堂・ﾚｽﾄﾗﾝ等）",
      "address": "大島郡和泊町和泊147－6",
      "lat": 27.385602004,
      "lng": 128.652087525,
      "geocoding_level": 8,
      "phone": "",
      "license_no": "第033-000168号",
      "license_date": null,
      "expire_date": "2028-01-31"
    },
    {
      "name": "岡本　美奈",
      "name_kana": "",
      "business_type": "飲食店営業（一般食堂・ﾚｽﾄﾗﾝ等）",
      "address": "大島郡和泊町手々知名749",
      "lat": 27.398838369,
      "lng": 128.656161508,
      "geocoding_level": 8,
      "phone": "",
      "license_no": "第033-000179号",
      "license_date": null,
      "expire_date": "2028-01-31"
    },
    {
      "name": "山下　幸也",
      "name_kana": "",
      "business_type": "飲食店営業（一般食堂・ﾚｽﾄﾗﾝ等）",
      "address": "大島郡和泊町手々知名512－76",
      "lat": 27.396566884,
      "lng": 128.659938535,
      "geocoding_level": 8,
      "phone": "",
      "license_no": "第033-000183号",
      "license_date": null,
      "expire_date": "2028-01-31"
    },
    {
      "name": "萩原　通子",
      "name_kana": "",
      "business_type": "飲食店営業（その他）",
      "address": "大島郡和泊町手々知名512－9",
      "lat": 27.395514598,
      "lng": 128.657381734,
      "geocoding_level": 8,
      "phone": "",
      "license_no": "第033-000222号",
      "license_date": null,
      "expire_date": "2027-01-31"
    },
    {
      "name": "濵﨑　清美",
      "name_kana": "",
      "business_type": "飲食店営業（一般食堂・ﾚｽﾄﾗﾝ等）",
      "address": "大島郡和泊町和泊11",
      "lat": 27.392166,
      "lng": 128.651277,
      "geocoding_level": 3,
      "phone": "",
      "license_no": "第033-000223号",
      "license_date": null,
      "expire_date": "2028-01-31"
    },
    {
      "name": "堀江　あき子",
      "name_kana": "",
      "business_type": "飲食店営業（仕出し屋・弁当屋）",
      "address": "大島郡和泊町和泊586－3",
      "lat": 27.395253731,
      "lng": 128.656300115,
      "geocoding_level": 8,
      "phone": "",
      "license_no": "第033-000224号",
      "license_date": null,
      "expire_date": "2028-01-31"
    },
    {
      "name": "堀江　あき子",
      "name_kana": "",
      "business_type": "魚介類販売業",
      "address": "大島郡和泊町和泊586－3",
      "lat": 27.395253731,
      "lng": 128.656300115,
      "geocoding_level": 8,
      "phone": "",
      "license_no": "第033-000225号",
      "license_date": null,
      "expire_date": "2028-01-31"
    },
    {
      "name": "入來　美津子",
      "name_kana": "",
      "business_type": "菓子製造業",
      "address": "大島郡和泊町和泊605",
      "lat": 27.395013222,
      "lng": 128.65453485800003,
      "geocoding_level": 8,
      "phone": "",
      "license_no": "第033-000226号",
      "license_date": null,
      "expire_date": "2028-01-31"
    },
    {
      "name": "比嘉　幸江",
      "name_kana": "",
      "business_type": "菓子製造業",
      "address": "大島郡和泊町手々知名512－70",
      "lat": 27.39683072,
      "lng": 128.660373976,
      "geocoding_level": 8,
      "phone": "",
      "license_no": "第033-000229号",
      "license_date": null,
      "expire_date": "2028-01-31"
    },
    {
      "name": "合同会社らいらい",
      "name_kana": "",
      "business_type": "飲食店営業（一般食堂・ﾚｽﾄﾗﾝ等）",
      "address": "大島郡和泊町和泊74－2",
      "lat": 27.389483125,
      "lng": 128.654540858,
      "geocoding_level": 8,
      "phone": "",
      "license_no": "第033-000241号",
      "license_date": null,
      "expire_date": "2028-04-30"
    },
    {
      "name": "合同会社　ＴＳＵＭＵＧＵ",
      "name_kana": "",
      "business_type": "密封包装食品製造業",
      "address": "大島郡和泊町和泊954-1 和泊町農産物加工センター",
      "lat": 27.40062336,
      "lng": 128.649483911,
      "geocoding_level": 8,
      "phone": "",
      "license_no": "第033-000245号",
      "license_date": null,
      "expire_date": "2028-04-30"
    },
    {
      "name": "合同会社　ＴＳＵＭＵＧＵ",
      "name_kana": "",
      "business_type": "菓子製造業",
      "address": "大島郡和泊町和泊954－1 和泊町農産物加工センター",
      "lat": 27.40062336,
      "lng": 128.649483911,
      "geocoding_level": 8,
      "phone": "",
      "license_no": "第033-000246号",
      "license_date": null,
      "expire_date": "2028-04-30"
    },
    {
      "name": "大脇　克子",
      "name_kana": "",
      "business_type": "みそ又はしょうゆ製造業",
      "address": "大島郡和泊町和泊954－1　和泊町農産物加工センター",
      "lat": 27.40062336,
      "lng": 128.649483911,
      "geocoding_level": 8,
      "phone": "",
      "license_no": "第033-000247号",
      "license_date": null,
      "expire_date": "2028-04-30"
    },
    {
      "name": "大脇　克子",
      "name_kana": "",
      "business_type": "そうざい製造業",
      "address": "大島郡和泊町和泊954－1　和泊町農産物加工センター",
      "lat": 27.40062336,
      "lng": 128.649483911,
      "geocoding_level": 8,
      "phone": "",
      "license_no": "第033-000248号",
      "license_date": null,
      "expire_date": "2028-04-30"
    },
    {
      "name": "島リノベ合同会社",
      "name_kana": "",
      "business_type": "飲食店営業（その他）",
      "address": "大島郡和泊町根折597－3（鹿児島市を除く県内一円）",
      "lat": 27.393723726,
      "lng": 128.622386928,
      "geocoding_level": 8,
      "phone": "",
      "license_no": "第033-000084号",
      "license_date": null,
      "expire_date": "2026-07-31"
    },
    {
      "name": "廣瀬　真由美",
      "name_kana": "",
      "business_type": "飲食店営業（その他）",
      "address": "大島郡和泊町手々知名512－89",
      "lat": 27.395836573,
      "lng": 128.65868292,
      "geocoding_level": 8,
      "phone": "",
      "license_no": "第034-000184号",
      "license_date": null,
      "expire_date": "2029-01-31"
    },
    {
      "name": "山本　政記",
      "name_kana": "",
      "business_type": "飲食店営業（旅館）",
      "address": "大島郡和泊町手々知名512－35",
      "lat": 27.398088513,
      "lng": 128.660897727,
      "geocoding_level": 8,
      "phone": "",
      "license_no": "第034-000194号",
      "license_date": null,
      "expire_date": "2029-01-31"
    },
    {
      "name": "平　信吉",
      "name_kana": "",
      "business_type": "飲食店営業（一般食堂・ﾚｽﾄﾗﾝ等）",
      "address": "大島郡和泊町永嶺66－1",
      "lat": 27.390177884,
      "lng": 128.588151902,
      "geocoding_level": 8,
      "phone": "",
      "license_no": "第034-000219号",
      "license_date": null,
      "expire_date": "2029-01-31"
    },
    {
      "name": "大里　敏枝",
      "name_kana": "",
      "business_type": "飲食店営業（仕出し屋・弁当屋）",
      "address": "大島郡和泊町喜美留440－1",
      "lat": 27.408054708,
      "lng": 128.667945898,
      "geocoding_level": 8,
      "phone": "",
      "license_no": "第034-000220号",
      "license_date": null,
      "expire_date": "2029-01-31"
    },
    {
      "name": "谷山　せい子",
      "name_kana": "",
      "business_type": "飲食店営業（仕出し屋・弁当屋）",
      "address": "大島郡和泊町大城123",
      "lat": 27.381440518000005,
      "lng": 128.616919666,
      "geocoding_level": 8,
      "phone": "",
      "license_no": "第034-000221号",
      "license_date": null,
      "expire_date": "2029-01-31"
    },
    {
      "name": "谷山　せい子",
      "name_kana": "",
      "business_type": "密封包装食品製造業",
      "address": "大島郡和泊町大城123",
      "lat": 27.381440518000005,
      "lng": 128.616919666,
      "geocoding_level": 8,
      "phone": "",
      "license_no": "第034-000222号",
      "license_date": null,
      "expire_date": "2029-01-31"
    },
    {
      "name": "榮　ヨネ子",
      "name_kana": "",
      "business_type": "飲食店営業（仕出し屋・弁当屋）",
      "address": "大島郡和泊町根折620－1",
      "lat": 27.395567415,
      "lng": 128.621531552,
      "geocoding_level": 8,
      "phone": "",
      "license_no": "第034-000224号",
      "license_date": null,
      "expire_date": "2028-01-31"
    },
    {
      "name": "株式会社ＪＵＮ建設",
      "name_kana": "",
      "business_type": "密封包装食品製造業",
      "address": "大島郡和泊町和泊954－1",
      "lat": 27.40062336,
      "lng": 128.649483911,
      "geocoding_level": 8,
      "phone": "",
      "license_no": "第034-000230号",
      "license_date": null,
      "expire_date": "2029-04-30"
    },
    {
      "name": "株式会社ＪＵＮ建設",
      "name_kana": "",
      "business_type": "飲食店営業（一般食堂・ﾚｽﾄﾗﾝ等）",
      "address": "大島郡和泊町和泊123－3",
      "lat": 27.386737385000004,
      "lng": 128.651932698,
      "geocoding_level": 8,
      "phone": "",
      "license_no": "第034-000235号",
      "license_date": null,
      "expire_date": "2029-04-30"
    },
    {
      "name": "沖永良部島漁業協同組合",
      "name_kana": "",
      "business_type": "飲食店営業（その他）",
      "address": "大島郡和泊町手々知名512－192 （鹿児島市を除く県内一円）",
      "lat": 27.393929847,
      "lng": 128.6577089,
      "geocoding_level": 8,
      "phone": "",
      "license_no": "第034-000239号",
      "license_date": null,
      "expire_date": "2028-04-30"
    },
    {
      "name": "種子島　みほ子",
      "name_kana": "",
      "business_type": "菓子製造業",
      "address": "大島郡和泊町和泊954－1",
      "lat": 27.40062336,
      "lng": 128.649483911,
      "geocoding_level": 8,
      "phone": "",
      "license_no": "第034-000246号",
      "license_date": null,
      "expire_date": "2029-04-30"
    },
    {
      "name": "林　次男",
      "name_kana": "",
      "business_type": "飲食店営業（一般食堂・ﾚｽﾄﾗﾝ等）",
      "address": "大島郡和泊町古里205",
      "lat": 27.366163615000005,
      "lng": 128.626215058,
      "geocoding_level": 8,
      "phone": "",
      "license_no": "第034-000271号",
      "license_date": null,
      "expire_date": "2029-04-30"
    },
    {
      "name": "合同会社　ＴＳＵＭＵＧＵ",
      "name_kana": "",
      "business_type": "漬物製造業",
      "address": "大島郡和泊町和泊954－1 和泊町農産物加工センター",
      "lat": 27.40062336,
      "lng": 128.649483911,
      "geocoding_level": 8,
      "phone": "",
      "license_no": "第035-000001号",
      "license_date": null,
      "expire_date": "2029-04-30"
    },
    {
      "name": "沖田　みかえ",
      "name_kana": "",
      "business_type": "飲食店営業（一般食堂・ﾚｽﾄﾗﾝ等）",
      "address": "大島郡和泊町和泊358－9",
      "lat": 27.391333452,
      "lng": 128.651466649,
      "geocoding_level": 8,
      "phone": "",
      "license_no": "第035-000007号",
      "license_date": null,
      "expire_date": "2029-04-30"
    },
    {
      "name": "合同会社　ＴＳＵＭＵＧＵ",
      "name_kana": "",
      "business_type": "清涼飲料水製造業",
      "address": "大島郡和泊町和泊954-1 和泊町農産物加工センター",
      "lat": 27.40062336,
      "lng": 128.649483911,
      "geocoding_level": 8,
      "phone": "",
      "license_no": "第035-000023号",
      "license_date": null,
      "expire_date": "2029-07-31"
    },
    {
      "name": "東　孝一",
      "name_kana": "",
      "business_type": "飲食店営業（その他）",
      "address": "大島郡和泊町出花976",
      "lat": 27.41604,
      "lng": 128.655107,
      "geocoding_level": 3,
      "phone": "",
      "license_no": "第035-000032号",
      "license_date": null,
      "expire_date": "2029-07-31"
    },
    {
      "name": "榮　純一",
      "name_kana": "",
      "business_type": "飲食店営業（一般食堂・ﾚｽﾄﾗﾝ等）",
      "address": "大島郡和泊町根折1307",
      "lat": 27.398025,
      "lng": 128.62029,
      "geocoding_level": 3,
      "phone": "",
      "license_no": "第035-000046号",
      "license_date": null,
      "expire_date": "2029-07-31"
    },
    {
      "name": "大野　真子",
      "name_kana": "",
      "business_type": "飲食店営業（その他）",
      "address": "大島郡和泊町手々知名512－184",
      "lat": 27.398189355,
      "lng": 128.66117319,
      "geocoding_level": 8,
      "phone": "",
      "license_no": "第035-000072号",
      "license_date": null,
      "expire_date": "2028-07-31"
    },
    {
      "name": "後藤　健太",
      "name_kana": "",
      "business_type": "飲食店営業（一般食堂・ﾚｽﾄﾗﾝ等）",
      "address": "大島郡和泊町国頭2339－1",
      "lat": 27.429164979000003,
      "lng": 128.685910765,
      "geocoding_level": 8,
      "phone": "",
      "license_no": "第035-000104号",
      "license_date": null,
      "expire_date": "2029-10-31"
    },
    {
      "name": "沖永良部酒造株式会社",
      "name_kana": "",
      "business_type": "酒類製造業",
      "address": "大島郡和泊町玉城1999－1",
      "lat": 27.379157505,
      "lng": 128.643904552,
      "geocoding_level": 8,
      "phone": "",
      "license_no": "第032-000052号",
      "license_date": null,
      "expire_date": "2026-04-30"
    },
    {
      "name": "市来　由美",
      "name_kana": "",
      "business_type": "飲食店営業（一般食堂・ﾚｽﾄﾗﾝ等）",
      "address": "大島郡和泊町和泊576－5",
      "lat": 27.393977187,
      "lng": 128.656391411,
      "geocoding_level": 8,
      "phone": "",
      "license_no": "第033-000081号",
      "license_date": null,
      "expire_date": "2026-07-31"
    },
    {
      "name": "島リノベ合同会社",
      "name_kana": "",
      "business_type": "飲食店営業（一般食堂・ﾚｽﾄﾗﾝ等）",
      "address": "大島郡和泊町和泊1217",
      "lat": 27.393517963000004,
      "lng": 128.656823692,
      "geocoding_level": 8,
      "phone": "",
      "license_no": "第034-000160号",
      "license_date": null,
      "expire_date": "2028-01-31"
    },
    {
      "name": "平　園美",
      "name_kana": "",
      "business_type": "菓子製造業",
      "address": "大島郡和泊町後蘭６１１－１",
      "lat": 27.385254995,
      "lng": 128.598594137,
      "geocoding_level": 8,
      "phone": "",
      "license_no": "第035-000197号",
      "license_date": null,
      "expire_date": "2028-10-31"
    },
    {
      "name": "川間　真一",
      "name_kana": "",
      "business_type": "飲食店営業（その他）",
      "address": "大島郡和泊町国頭3034",
      "lat": 27.426229433,
      "lng": 128.684548408,
      "geocoding_level": 8,
      "phone": "",
      "license_no": "第035-000198号",
      "license_date": null,
      "expire_date": "2028-10-31"
    },
    {
      "name": "山田観光産業株式会社",
      "name_kana": "",
      "business_type": "飲食店営業（旅館）",
      "address": "大島郡和泊町手々知名５１２－１２８",
      "lat": 27.398117508,
      "lng": 128.661926709,
      "geocoding_level": 8,
      "phone": "",
      "license_no": "第035-000199号",
      "license_date": null,
      "expire_date": "2029-10-31"
    },
    {
      "name": "柳堀　松代",
      "name_kana": "",
      "business_type": "飲食店営業（その他）",
      "address": "大島郡和泊町手々知名512－45",
      "lat": 27.397551943,
      "lng": 128.660871943,
      "geocoding_level": 8,
      "phone": "",
      "license_no": "第035-000200号",
      "license_date": null,
      "expire_date": "2028-10-31"
    },
    {
      "name": "有村　美津代",
      "name_kana": "",
      "business_type": "飲食店営業（その他）",
      "address": "大島郡和泊町手々知名５１２－５１",
      "lat": 27.397529900000002,
      "lng": 128.660554431,
      "geocoding_level": 8,
      "phone": "",
      "license_no": "第035-000201号",
      "license_date": null,
      "expire_date": "2029-10-31"
    },
    {
      "name": "比嘉　則夫",
      "name_kana": "",
      "business_type": "飲食店営業（一般食堂・ﾚｽﾄﾗﾝ等）",
      "address": "大島郡和泊町手々知名５１２－７０",
      "lat": 27.39683072,
      "lng": 128.660373976,
      "geocoding_level": 8,
      "phone": "",
      "license_no": "第035-000202号",
      "license_date": null,
      "expire_date": "2029-10-31"
    },
    {
      "name": "公益社団法人　和泊町シルバー人材センター",
      "name_kana": "",
      "business_type": "飲食店営業（一般食堂・ﾚｽﾄﾗﾝ等）",
      "address": "大島郡和泊町和泊584－22",
      "lat": 27.394984415,
      "lng": 128.656310176,
      "geocoding_level": 8,
      "phone": "",
      "license_no": "第035-000204号",
      "license_date": null,
      "expire_date": "2029-10-31"
    },
    {
      "name": "梁川　拓也",
      "name_kana": "",
      "business_type": "飲食店営業（一般食堂・ﾚｽﾄﾗﾝ等）",
      "address": "大島郡和泊町手々知名512－73",
      "lat": 27.396685344,
      "lng": 128.660029193,
      "geocoding_level": 8,
      "phone": "",
      "license_no": "第035-000173号",
      "license_date": null,
      "expire_date": "2029-10-31"
    },
    {
      "name": "新納　佳恵",
      "name_kana": "",
      "business_type": "飲食店営業（一般食堂・ﾚｽﾄﾗﾝ等）",
      "address": "大島郡和泊町手々知名780",
      "lat": 27.401159488,
      "lng": 128.654462588,
      "geocoding_level": 8,
      "phone": "",
      "license_no": "第035-000239号",
      "license_date": null,
      "expire_date": "2030-01-31"
    },
    {
      "name": "外山　成子",
      "name_kana": "",
      "business_type": "そうざい製造業",
      "address": "大島郡和泊町和泊954－1 和泊町農産物加工センター",
      "lat": 27.40062336,
      "lng": 128.649483911,
      "geocoding_level": 8,
      "phone": "",
      "license_no": "第035-000243号",
      "license_date": null,
      "expire_date": "2030-01-31"
    },
    {
      "name": "出村　勝彦",
      "name_kana": "",
      "business_type": "食肉販売業",
      "address": "大島郡和泊町玉城１７５９－１",
      "lat": 27.381476941,
      "lng": 128.646571719,
      "geocoding_level": 8,
      "phone": "",
      "license_no": "第035-000287号",
      "license_date": null,
      "expire_date": "2030-01-31"
    },
    {
      "name": "竹下　敦史",
      "name_kana": "",
      "business_type": "菓子製造業",
      "address": "大島郡和泊町根折５２３－２",
      "lat": 27.394645362,
      "lng": 128.619091402,
      "geocoding_level": 8,
      "phone": "",
      "license_no": "第035-000288号",
      "license_date": null,
      "expire_date": "2030-01-31"
    },
    {
      "name": "有馬　照代",
      "name_kana": "",
      "business_type": "飲食店営業（旅館）",
      "address": "大島郡和泊町手々知名243",
      "lat": 27.405661778,
      "lng": 128.656343806,
      "geocoding_level": 8,
      "phone": "",
      "license_no": "第035-000289号",
      "license_date": null,
      "expire_date": "2030-01-31"
    },
    {
      "name": "山田観光産業（株）",
      "name_kana": "",
      "business_type": "飲食店営業（一般食堂・ﾚｽﾄﾗﾝ等）",
      "address": "大島郡和泊町手々知名５１２－１３６",
      "lat": 27.396341503,
      "lng": 128.660605893,
      "geocoding_level": 8,
      "phone": "",
      "license_no": "第035-000290号",
      "license_date": null,
      "expire_date": "2030-01-31"
    },
    {
      "name": "中野　幸一",
      "name_kana": "",
      "business_type": "飲食店営業（一般食堂・ﾚｽﾄﾗﾝ等）",
      "address": "大島郡和泊町和泊４９３－３",
      "lat": 27.392798726,
      "lng": 128.651636326,
      "geocoding_level": 8,
      "phone": "",
      "license_no": "第035-000291号",
      "license_date": null,
      "expire_date": "2030-01-31"
    },
    {
      "name": "高　末子",
      "name_kana": "",
      "business_type": "魚介類販売業",
      "address": "大島郡和泊町和泊５０５－３",
      "lat": 27.392749238,
      "lng": 128.653588189,
      "geocoding_level": 8,
      "phone": "",
      "license_no": "第035-000292号",
      "license_date": null,
      "expire_date": "2029-01-31"
    },
    {
      "name": "有限会社　山口商事",
      "name_kana": "",
      "business_type": "飲食店営業（仕出し屋・弁当屋）",
      "address": "大島郡和泊町和泊５４－１",
      "lat": 27.390318065,
      "lng": 128.655609322,
      "geocoding_level": 8,
      "phone": "",
      "license_no": "第035-000293号",
      "license_date": null,
      "expire_date": "2030-01-31"
    },
    {
      "name": "有限会社　山口商事",
      "name_kana": "",
      "business_type": "菓子製造業",
      "address": "大島郡和泊町和泊５４－１",
      "lat": 27.390318065,
      "lng": 128.655609322,
      "geocoding_level": 8,
      "phone": "",
      "license_no": "第035-000294号",
      "license_date": null,
      "expire_date": "2030-01-31"
    },
    {
      "name": "西村　　健治",
      "name_kana": "",
      "business_type": "そうざい製造業",
      "address": "大島郡和泊町和泊５８６－３",
      "lat": 27.395253731,
      "lng": 128.656300115,
      "geocoding_level": 8,
      "phone": "",
      "license_no": "第035-000296号",
      "license_date": null,
      "expire_date": "2030-01-31"
    },
    {
      "name": "大吉　正勝",
      "name_kana": "",
      "business_type": "漬物製造業",
      "address": "大島郡和泊町和泊954－1 和泊町農産物加工センター",
      "lat": 27.40062336,
      "lng": 128.649483911,
      "geocoding_level": 8,
      "phone": "",
      "license_no": "第035-000263号",
      "license_date": null,
      "expire_date": "2030-01-31"
    },
    {
      "name": "新田　笑子",
      "name_kana": "",
      "business_type": "漬物製造業",
      "address": "大島郡和泊町和泊954－1 和泊町農産物加工センター",
      "lat": 27.40062336,
      "lng": 128.649483911,
      "geocoding_level": 8,
      "phone": "",
      "license_no": "第035-000316号",
      "license_date": null,
      "expire_date": "2030-04-30"
    },
    {
      "name": "株式会社ＴＥＲＵ",
      "name_kana": "",
      "business_type": "飲食店営業（一般食堂・ﾚｽﾄﾗﾝ等）",
      "address": "大島郡和泊町手々知名512－91",
      "lat": 27.396111105,
      "lng": 128.659161644,
      "geocoding_level": 8,
      "phone": "",
      "license_no": "第035-000319号",
      "license_date": null,
      "expire_date": "2030-04-30"
    },
    {
      "name": "株式会社　新佳",
      "name_kana": "",
      "business_type": "飲食店営業（一般食堂・ﾚｽﾄﾗﾝ等）",
      "address": "大島郡和泊町手々知名512－7",
      "lat": 27.395699633000003,
      "lng": 128.65752971100002,
      "geocoding_level": 8,
      "phone": "",
      "license_no": "第035-000328号",
      "license_date": null,
      "expire_date": "2030-04-30"
    },
    {
      "name": "株式会社　ワコー商事",
      "name_kana": "",
      "business_type": "そうざい製造業",
      "address": "大島郡和泊町玉城平瀬1785－3",
      "lat": 27.384118,
      "lng": 128.632826,
      "geocoding_level": 3,
      "phone": "",
      "license_no": "第035-000334号",
      "license_date": null,
      "expire_date": "2030-04-30"
    },
    {
      "name": "株式会社　ワコー商事",
      "name_kana": "",
      "business_type": "漬物製造業",
      "address": "大島郡和泊町玉城平瀬1785－3",
      "lat": 27.384118,
      "lng": 128.632826,
      "geocoding_level": 3,
      "phone": "",
      "license_no": "第035-000335号",
      "license_date": null,
      "expire_date": "2030-04-30"
    },
    {
      "name": "西村　健治",
      "name_kana": "",
      "business_type": "菓子製造業",
      "address": "大島郡和泊町和泊586－3",
      "lat": 27.395253731,
      "lng": 128.656300115,
      "geocoding_level": 8,
      "phone": "",
      "license_no": "第035-000332号",
      "license_date": null,
      "expire_date": "2030-04-30"
    },
    {
      "name": "西村　健治",
      "name_kana": "",
      "business_type": "漬物製造業",
      "address": "大島郡和泊町和泊586－3",
      "lat": 27.395253731,
      "lng": 128.656300115,
      "geocoding_level": 8,
      "phone": "",
      "license_no": "第035-000333号",
      "license_date": null,
      "expire_date": "2030-04-30"
    },
    {
      "name": "森岡　淑子",
      "name_kana": "",
      "business_type": "飲食店営業（その他）",
      "address": "大島郡和泊町古里４６６－３",
      "lat": 27.365215354,
      "lng": 128.62535897,
      "geocoding_level": 8,
      "phone": "",
      "license_no": "第036-000004号",
      "license_date": null,
      "expire_date": "2030-04-30"
    },
    {
      "name": "森岡　淑子",
      "name_kana": "",
      "business_type": "菓子製造業",
      "address": "大島郡和泊町古里４６６－３",
      "lat": 27.365215354,
      "lng": 128.62535897,
      "geocoding_level": 8,
      "phone": "",
      "license_no": "第036-000005号",
      "license_date": null,
      "expire_date": "2030-04-30"
    },
    {
      "name": "福元　幸子",
      "name_kana": "",
      "business_type": "飲食店営業（その他）",
      "address": "大島郡和泊町手々知名５１２－１０６",
      "lat": 27.398830702,
      "lng": 128.66173345,
      "geocoding_level": 8,
      "phone": "",
      "license_no": "第036-000043号",
      "license_date": null,
      "expire_date": "2030-04-30"
    },
    {
      "name": "徳　政幸",
      "name_kana": "",
      "business_type": "飲食店営業（その他）",
      "address": "大島郡和泊町手々知名512－80",
      "lat": 27.396324311,
      "lng": 128.659752446,
      "geocoding_level": 8,
      "phone": "",
      "license_no": "第036-000045号",
      "license_date": null,
      "expire_date": "2030-04-30"
    },
    {
      "name": "有馬　久智",
      "name_kana": "",
      "business_type": "飲食店営業（一般食堂・ﾚｽﾄﾗﾝ等）",
      "address": "大島郡和泊町手々知名５５０－１",
      "lat": 27.397974819,
      "lng": 128.657393647,
      "geocoding_level": 8,
      "phone": "",
      "license_no": "第036-000046号",
      "license_date": null,
      "expire_date": "2030-04-30"
    },
    {
      "name": "東　哲也",
      "name_kana": "",
      "business_type": "飲食店営業（その他）",
      "address": "大島郡和泊町和泊581－6",
      "lat": 27.394905018,
      "lng": 128.656033518,
      "geocoding_level": 8,
      "phone": "",
      "license_no": "第036-000047号",
      "license_date": null,
      "expire_date": "2030-04-30"
    },
    {
      "name": "森　瑞絵",
      "name_kana": "",
      "business_type": "飲食店営業（旅館）",
      "address": "大島郡和泊町和泊603",
      "lat": 27.392166,
      "lng": 128.651277,
      "geocoding_level": 3,
      "phone": "",
      "license_no": "第036-000048号",
      "license_date": null,
      "expire_date": "2030-04-30"
    },
    {
      "name": "谷山　せい子",
      "name_kana": "",
      "business_type": "漬物製造業",
      "address": "大島郡和泊町大城123",
      "lat": 27.381440518000005,
      "lng": 128.616919666,
      "geocoding_level": 8,
      "phone": "",
      "license_no": "第036-000054号",
      "license_date": null,
      "expire_date": "2030-04-30"
    },
    {
      "name": "東　孝一",
      "name_kana": "",
      "business_type": "飲食店営業（その他）",
      "address": "大島郡和泊町出花976",
      "lat": 27.41604,
      "lng": 128.655107,
      "geocoding_level": 3,
      "phone": "",
      "license_no": "第036-000075号",
      "license_date": null,
      "expire_date": "2029-07-31"
    },
    {
      "name": "安田　克彦",
      "name_kana": "",
      "business_type": "飲食店営業（仕出し屋・弁当屋）",
      "address": "大島郡和泊町玉城２８０９－１",
      "lat": 27.39190537,
      "lng": 128.62656258,
      "geocoding_level": 8,
      "phone": "",
      "license_no": "第036-000087号",
      "license_date": null,
      "expire_date": "2029-07-31"
    },
    {
      "name": "池下　典子",
      "name_kana": "",
      "business_type": "飲食店営業（その他）",
      "address": "大島郡和泊町畦布1054－1(鹿児島市を除く県内一円）",
      "lat": 27.406012353,
      "lng": 128.632260345,
      "geocoding_level": 8,
      "phone": "",
      "license_no": "第036-000110号",
      "license_date": null,
      "expire_date": "2029-07-31"
    },
    {
      "name": "有限会社サンプランニング",
      "name_kana": "",
      "business_type": "飲食店営業（その他）",
      "address": "大島郡和泊町手々知名５１２－１５０",
      "lat": 27.395391966,
      "lng": 128.658833139,
      "geocoding_level": 8,
      "phone": "",
      "license_no": "第036-000111号",
      "license_date": null,
      "expire_date": "2029-07-31"
    },
    {
      "name": "有限会社　今栄商会",
      "name_kana": "",
      "business_type": "氷雪製造業",
      "address": "大島郡和泊町手々知名６８２－４",
      "lat": 27.400900951,
      "lng": 128.652766637,
      "geocoding_level": 8,
      "phone": "",
      "license_no": "第036-000112号",
      "license_date": null,
      "expire_date": "2029-07-31"
    },
    {
      "name": "山下　薫",
      "name_kana": "",
      "business_type": "飲食店営業（その他）",
      "address": "大島郡和泊町和泊1241（鹿児島市を除く県内一円）",
      "lat": 27.393884937,
      "lng": 128.656839625,
      "geocoding_level": 8,
      "phone": "",
      "license_no": "第036-000113号",
      "license_date": null,
      "expire_date": "2029-07-31"
    },
    {
      "name": "沖田　たか子",
      "name_kana": "",
      "business_type": "飲食店営業（一般食堂・ﾚｽﾄﾗﾝ等）",
      "address": "大島郡和泊町和１０５４",
      "lat": 27.394801,
      "lng": 128.638703,
      "geocoding_level": 3,
      "phone": "",
      "license_no": "第036-000115号",
      "license_date": null,
      "expire_date": "2030-07-31"
    },
    {
      "name": "山口　明日香",
      "name_kana": "",
      "business_type": "飲食店営業（一般食堂・ﾚｽﾄﾗﾝ等）",
      "address": "大島郡和泊町和泊３－４",
      "lat": 27.392340891,
      "lng": 128.656675318,
      "geocoding_level": 8,
      "phone": "",
      "license_no": "第036-000194号",
      "license_date": null,
      "expire_date": "2030-10-31"
    },
    {
      "name": "株式会社　大豊",
      "name_kana": "",
      "business_type": "菓子製造業",
      "address": "大島郡和泊町手々知名965",
      "lat": 27.402099000000003,
      "lng": 128.656713,
      "geocoding_level": 3,
      "phone": "",
      "license_no": "第035-000165号",
      "license_date": null,
      "expire_date": "2028-10-31"
    },
    {
      "name": "沖永良部島漁業協同組合",
      "name_kana": "",
      "business_type": "魚介類競り売り営業",
      "address": "大島郡和泊町手々知名512－192",
      "lat": 27.393929847,
      "lng": 128.6577089,
      "geocoding_level": 8,
      "phone": "",
      "license_no": "第033-000051号",
      "license_date": null,
      "expire_date": "2027-04-30"
    },
    {
      "name": "沖永良部島漁業協同組合",
      "name_kana": "",
      "business_type": "食品の冷凍又は冷蔵業",
      "address": "大島郡和泊町手々知名512－192",
      "lat": 27.393929847,
      "lng": 128.6577089,
      "geocoding_level": 8,
      "phone": "",
      "license_no": "第033-000052号",
      "license_date": null,
      "expire_date": "2027-04-30"
    },
    {
      "name": "沖永良部島漁業協同組合",
      "name_kana": "",
      "business_type": "氷雪製造業",
      "address": "大島郡和泊町手々知名５１２－１９２",
      "lat": 27.393929847,
      "lng": 128.6577089,
      "geocoding_level": 8,
      "phone": "",
      "license_no": "第032-000147号",
      "license_date": null,
      "expire_date": "2026-07-31"
    },
    {
      "name": "沖永良部島漁業協同組合",
      "name_kana": "",
      "business_type": "魚介類販売業",
      "address": "大島郡和泊町手々知名５１２－１９２",
      "lat": 27.393929847,
      "lng": 128.6577089,
      "geocoding_level": 8,
      "phone": "",
      "license_no": "第036-000044号",
      "license_date": null,
      "expire_date": "2030-04-30"
    },
    {
      "name": "佐藤　久美子",
      "name_kana": "",
      "business_type": "飲食店営業（その他）",
      "address": "大島郡和泊町古里229 （鹿児島市を除く県内一円）",
      "lat": 27.368342,
      "lng": 128.624373,
      "geocoding_level": 3,
      "phone": "",
      "license_no": "第036-000207号",
      "license_date": null,
      "expire_date": "2029-10-31"
    },
    {
      "name": "中尾　竜久",
      "name_kana": "",
      "business_type": "飲食店営業（その他）",
      "address": "大島郡和泊町手々知名512-184",
      "lat": 27.398189355,
      "lng": 128.66117319,
      "geocoding_level": 8,
      "phone": "",
      "license_no": "第036-000209号",
      "license_date": null,
      "expire_date": "2030-10-31"
    },
    {
      "name": "山下　さみ子",
      "name_kana": "",
      "business_type": "飲食店営業（一般食堂・ﾚｽﾄﾗﾝ等）",
      "address": "大島郡和泊町玉城１７６９－１３",
      "lat": 27.381937738,
      "lng": 128.647151592,
      "geocoding_level": 8,
      "phone": "",
      "license_no": "第036-000246号",
      "license_date": null,
      "expire_date": "2029-10-31"
    },
    {
      "name": "盛田　光一",
      "name_kana": "",
      "business_type": "飲食店営業（一般食堂・ﾚｽﾄﾗﾝ等）",
      "address": "大島郡和泊町国頭２１３８",
      "lat": 27.427875,
      "lng": 128.688815,
      "geocoding_level": 3,
      "phone": "",
      "license_no": "第036-000247号",
      "license_date": null,
      "expire_date": "2030-10-31"
    },
    {
      "name": "山本　政晃",
      "name_kana": "",
      "business_type": "飲食店営業（旅館）",
      "address": "大島郡和泊町手々知名512－49",
      "lat": 27.397403133,
      "lng": 128.660751052,
      "geocoding_level": 8,
      "phone": "",
      "license_no": "第036-000248号",
      "license_date": null,
      "expire_date": "2030-10-31"
    },
    {
      "name": "前田　勉",
      "name_kana": "",
      "business_type": "飲食店営業（一般食堂・ﾚｽﾄﾗﾝ等）",
      "address": "大島郡和泊町和泊石川平５１－１２",
      "lat": 27.392166,
      "lng": 128.651277,
      "geocoding_level": 3,
      "phone": "",
      "license_no": "第036-000249号",
      "license_date": null,
      "expire_date": "2030-10-31"
    },
    {
      "name": "合同会社　島人ぷらざ",
      "name_kana": "",
      "business_type": "水産製品製造業",
      "address": "大島郡和泊町和泊1241",
      "lat": 27.393884937,
      "lng": 128.656839625,
      "geocoding_level": 8,
      "phone": "",
      "license_no": "第036-000250号",
      "license_date": null,
      "expire_date": "2029-10-31"
    },
    {
      "name": "橋本　真太郎",
      "name_kana": "",
      "business_type": "アイスクリーム類製造業",
      "address": "大島郡和泊町古里２６４－２",
      "lat": 27.367560126,
      "lng": 128.625798306,
      "geocoding_level": 8,
      "phone": "",
      "license_no": "第036-000283号",
      "license_date": null,
      "expire_date": "2031-01-31"
    },
    {
      "name": "橋本　真太郎",
      "name_kana": "",
      "business_type": "菓子製造業",
      "address": "大島郡和泊町古里２６４－２",
      "lat": 27.367560126,
      "lng": 128.625798306,
      "geocoding_level": 8,
      "phone": "",
      "license_no": "第036-000284号",
      "license_date": null,
      "expire_date": "2031-01-31"
    },
    {
      "name": "島リノベ合同会社",
      "name_kana": "",
      "business_type": "冷凍食品製造業",
      "address": "大島郡和泊町根折６６０－１",
      "lat": 27.392524800000004,
      "lng": 128.623796722,
      "geocoding_level": 8,
      "phone": "",
      "license_no": "第036-000318号",
      "license_date": null,
      "expire_date": "2031-01-31"
    },
    {
      "name": "山畠　小夜子",
      "name_kana": "",
      "business_type": "魚介類販売業",
      "address": "大島郡和泊町手々知名512－142",
      "lat": 27.395288176,
      "lng": 128.658751676,
      "geocoding_level": 8,
      "phone": "",
      "license_no": "第032-000146号",
      "license_date": null,
      "expire_date": "2026-07-31"
    },
    {
      "name": "山畠　小夜子",
      "name_kana": "",
      "business_type": "飲食店営業（一般食堂・ﾚｽﾄﾗﾝ等）",
      "address": "大島郡和泊町手々知名字長浜512－142",
      "lat": 27.402099000000003,
      "lng": 128.656713,
      "geocoding_level": 3,
      "phone": "",
      "license_no": "第032-000149号",
      "license_date": null,
      "expire_date": "2026-07-31"
    },
    {
      "name": "あまみ農業協同組合",
      "name_kana": "",
      "business_type": "飲食店営業（その他）",
      "address": "大島郡和泊町玉城１７６９－１",
      "lat": 27.381819061,
      "lng": 128.647428516,
      "geocoding_level": 8,
      "phone": "",
      "license_no": "第036-000350号",
      "license_date": null,
      "expire_date": "2031-01-31"
    },
    {
      "name": "泉　幸蔵",
      "name_kana": "",
      "business_type": "飲食店営業（一般食堂・ﾚｽﾄﾗﾝ等）",
      "address": "大島郡和泊町手々知名５１２－２５",
      "lat": 27.398230704,
      "lng": 128.661556425,
      "geocoding_level": 8,
      "phone": "",
      "license_no": "第036-000351号",
      "license_date": null,
      "expire_date": "2031-01-31"
    },
    {
      "name": "寺原　龍二",
      "name_kana": "",
      "business_type": "飲食店営業（その他）",
      "address": "大島郡和泊町手々知名５１２－５６",
      "lat": 27.397295177,
      "lng": 128.660665385,
      "geocoding_level": 8,
      "phone": "",
      "license_no": "第036-000352号",
      "license_date": null,
      "expire_date": "2031-01-31"
    },
    {
      "name": "有限会社　今栄商会",
      "name_kana": "",
      "business_type": "飲食店営業（一般食堂・ﾚｽﾄﾗﾝ等）",
      "address": "大島郡和泊町手々知名９７６",
      "lat": 27.404501563,
      "lng": 128.64828145,
      "geocoding_level": 8,
      "phone": "",
      "license_no": "第036-000353号",
      "license_date": null,
      "expire_date": "2031-01-31"
    },
    {
      "name": "沖　雅好",
      "name_kana": "",
      "business_type": "菓子製造業",
      "address": "大島郡和泊町和９６３",
      "lat": 27.397788871,
      "lng": 128.645805968,
      "geocoding_level": 8,
      "phone": "",
      "license_no": "第036-000354号",
      "license_date": null,
      "expire_date": "2030-01-31"
    },
    {
      "name": "沖　雅好",
      "name_kana": "",
      "business_type": "そうざい製造業",
      "address": "大島郡和泊町和９６３",
      "lat": 27.397788871,
      "lng": 128.645805968,
      "geocoding_level": 8,
      "phone": "",
      "license_no": "第036-000355号",
      "license_date": null,
      "expire_date": "2030-01-31"
    },
    {
      "name": "出花　美智子",
      "name_kana": "",
      "business_type": "飲食店営業（一般食堂・ﾚｽﾄﾗﾝ等）",
      "address": "大島郡和泊町和泊６",
      "lat": 27.392166,
      "lng": 128.651277,
      "geocoding_level": 3,
      "phone": "",
      "license_no": "第036-000356号",
      "license_date": null,
      "expire_date": "2030-01-31"
    },
    {
      "name": "西村　勝",
      "name_kana": "",
      "business_type": "豆腐製造業",
      "address": "大島郡和泊町和泊７２５－２",
      "lat": 27.396291324000003,
      "lng": 128.651373262,
      "geocoding_level": 8,
      "phone": "",
      "license_no": "第036-000357号",
      "license_date": null,
      "expire_date": "2031-01-31"
    },
    {
      "name": "あまみ農業協同組合",
      "name_kana": "",
      "business_type": "飲食店営業（仕出し屋・弁当屋）",
      "address": "大島郡和泊町玉城１７６９－１",
      "lat": 27.381819061,
      "lng": 128.647428516,
      "geocoding_level": 8,
      "phone": "",
      "license_no": "第036-000358号",
      "license_date": null,
      "expire_date": "2031-01-31"
    },
    {
      "name": "塩貝　和雄",
      "name_kana": "",
      "business_type": "魚介類販売業",
      "address": "大島郡和泊町手々知名５１２－１９２ （沖永良部島漁協加工室）",
      "lat": 27.393929847,
      "lng": 128.6577089,
      "geocoding_level": 8,
      "phone": "",
      "license_no": "第036-000365号",
      "license_date": null,
      "expire_date": "2031-01-31"
    },
    {
      "name": "村山　益代",
      "name_kana": "",
      "business_type": "飲食店営業（一般食堂・ﾚｽﾄﾗﾝ等）",
      "address": "大島郡和泊町喜美留笠石544－10",
      "lat": 27.410494,
      "lng": 128.665686,
      "geocoding_level": 3,
      "phone": "",
      "license_no": "第033-000109号",
      "license_date": null,
      "expire_date": "2026-10-31"
    },
    {
      "name": "前田　勇治",
      "name_kana": "",
      "business_type": "そうざい製造業",
      "address": "大島郡和泊町和泊９５４－１ 和泊町農産物加工センター",
      "lat": 27.40062336,
      "lng": 128.649483911,
      "geocoding_level": 8,
      "phone": "",
      "license_no": "第036-000367号",
      "license_date": null,
      "expire_date": "2031-04-30"
    },
    {
      "name": "大脇　克子",
      "name_kana": "",
      "business_type": "菓子製造業",
      "address": "大島郡和泊町和泊９５４－１ 和泊町農産物加工センター",
      "lat": 27.40062336,
      "lng": 128.649483911,
      "geocoding_level": 8,
      "phone": "",
      "license_no": "第036-000371号",
      "license_date": null,
      "expire_date": "2031-04-30"
    },
    {
      "name": "竹村　拓朗",
      "name_kana": "",
      "business_type": "飲食店営業（その他）",
      "address": "大島郡和泊町手々知名５１２－８９ 中野ビル１０２号室",
      "lat": 27.395836573,
      "lng": 128.65868292,
      "geocoding_level": 8,
      "phone": "",
      "license_no": "第036-000385号",
      "license_date": null,
      "expire_date": "2031-04-30"
    },
    {
      "name": "有限会社　城乃屋",
      "name_kana": "",
      "business_type": "菓子製造業",
      "address": "大島郡和泊町和泊５３７－９",
      "lat": 27.393595608,
      "lng": 128.656285381,
      "geocoding_level": 8,
      "phone": "",
      "license_no": "第032-000055号",
      "license_date": null,
      "expire_date": "2026-04-30"
    },
    {
      "name": "平村　ヨ子",
      "name_kana": "",
      "business_type": "菓子製造業",
      "address": "大島郡和泊町手々知名162－3",
      "lat": 27.40145968,
      "lng": 128.660764866,
      "geocoding_level": 8,
      "phone": "",
      "license_no": "第037-000031号",
      "license_date": null,
      "expire_date": "2031-04-30"
    },
    {
      "name": "山田　　輝夫",
      "name_kana": "",
      "business_type": "飲食店営業（一般食堂・ﾚｽﾄﾗﾝ等）",
      "address": "大島郡和泊町手々知名５１２－１００",
      "lat": 27.397581838,
      "lng": 128.660163917,
      "geocoding_level": 8,
      "phone": "",
      "license_no": "第037-000032号",
      "license_date": null,
      "expire_date": "2031-04-30"
    },
    {
      "name": "大林　孝行",
      "name_kana": "",
      "business_type": "飲食店営業（一般食堂・ﾚｽﾄﾗﾝ等）",
      "address": "大島郡和泊町手々知名512－240",
      "lat": 27.39588313,
      "lng": 128.659674631,
      "geocoding_level": 8,
      "phone": "",
      "license_no": "第037-000038号",
      "license_date": null,
      "expire_date": "2030-04-30"
    },
    {
      "name": "市部　真吾",
      "name_kana": "",
      "business_type": "飲食店営業（仕出し屋・弁当屋）",
      "address": "大島郡和泊町和泊1－2 谷山ビル１Ｆ",
      "lat": 27.392829932000005,
      "lng": 128.6561223,
      "geocoding_level": 8,
      "phone": "",
      "license_no": "第037-000033号",
      "license_date": null,
      "expire_date": "2031-04-30"
    },
    {
      "name": "町田　一真",
      "name_kana": "",
      "business_type": "飲食店営業（一般食堂・ﾚｽﾄﾗﾝ等）",
      "address": "大島郡和泊町和泊147－6",
      "lat": 27.385602004,
      "lng": 128.652087525,
      "geocoding_level": 8,
      "phone": "",
      "license_no": "第037-000034号",
      "license_date": null,
      "expire_date": "2031-04-30"
    },
    {
      "name": "川添　　貞美",
      "name_kana": "",
      "business_type": "菓子製造業",
      "address": "大島郡和泊町和泊３９４－２",
      "lat": 27.390568553000005,
      "lng": 128.649408181,
      "geocoding_level": 8,
      "phone": "",
      "license_no": "第037-000035号",
      "license_date": null,
      "expire_date": "2031-04-30"
    },
    {
      "name": "河野　明男",
      "name_kana": "",
      "business_type": "飲食店営業（その他）",
      "address": "大島郡和泊町和泊4－10",
      "lat": 27.392030484,
      "lng": 128.656308275,
      "geocoding_level": 8,
      "phone": "",
      "license_no": "第037-000036号",
      "license_date": null,
      "expire_date": "2031-04-30"
    },
    {
      "name": "永山　学",
      "name_kana": "",
      "business_type": "菓子製造業",
      "address": "大島郡和泊町手々知名551",
      "lat": 27.402099000000003,
      "lng": 128.656713,
      "geocoding_level": 3,
      "phone": "",
      "license_no": "第034-000144号",
      "license_date": null,
      "expire_date": "2028-10-31"
    },
    {
      "name": "徳　早百合",
      "name_kana": "",
      "business_type": "漬物製造業",
      "address": "大島郡和泊町和泊578－1",
      "lat": 27.392166,
      "lng": 128.651277,
      "geocoding_level": 3,
      "phone": "",
      "license_no": "第037-000054号",
      "license_date": null,
      "expire_date": "2031-04-30"
    },
    {
      "name": "平　由紀子",
      "name_kana": "",
      "business_type": "飲食店営業（その他）",
      "address": "大島郡和泊町喜美留154－2",
      "lat": 27.407445206,
      "lng": 128.665328877,
      "geocoding_level": 8,
      "phone": "",
      "license_no": "第037-000055号",
      "license_date": null,
      "expire_date": "2030-04-30"
    },
    {
      "name": "波多野　弘美",
      "name_kana": "",
      "business_type": "飲食店営業（その他）",
      "address": "大島郡和泊町和泊１７５－２ （鹿児島市を除く県内一円）",
      "lat": 27.383013931,
      "lng": 128.650120382,
      "geocoding_level": 8,
      "phone": "",
      "license_no": "第036-000253号",
      "license_date": null,
      "expire_date": "2029-10-31"
    },
    {
      "name": "西　國子",
      "name_kana": "",
      "business_type": "飲食店営業（旅館）",
      "address": "大島郡和泊町和634",
      "lat": 27.394801,
      "lng": 128.638703,
      "geocoding_level": 3,
      "phone": "",
      "license_no": "第037-000077号",
      "license_date": null,
      "expire_date": "2030-07-31"
    },
    {
      "name": "株式会社甲斐組",
      "name_kana": "",
      "business_type": "飲食店営業（その他）",
      "address": "大島郡和泊町手々知名５１２－７３",
      "lat": 27.396685344,
      "lng": 128.660029193,
      "geocoding_level": 8,
      "phone": "",
      "license_no": "第031-000292号",
      "license_date": null,
      "expire_date": "2026-01-31"
    },
    {
      "name": "(有)えらぶ島サンサンファーム",
      "name_kana": "",
      "business_type": "漬物製造業",
      "address": "大島郡和泊町和泊954-1(和泊町農産物加工センター)",
      "lat": 27.40062336,
      "lng": 128.649483911,
      "geocoding_level": 8,
      "phone": "",
      "license_no": "第037-000079号",
      "license_date": null,
      "expire_date": "2031-07-31"
    },
    {
      "name": "株式会社　ワコー商事",
      "name_kana": "",
      "business_type": "飲食店営業（仕出し屋・弁当屋）",
      "address": "大島郡和泊町玉城1785－3",
      "lat": 27.382408576,
      "lng": 128.648580613,
      "geocoding_level": 8,
      "phone": "",
      "license_no": "第037-000123号",
      "license_date": null,
      "expire_date": "2031-07-31"
    },
    {
      "name": "株式会社　ワコー商事",
      "name_kana": "",
      "business_type": "食肉販売業",
      "address": "大島郡和泊町玉城1785－3",
      "lat": 27.382408576,
      "lng": 128.648580613,
      "geocoding_level": 8,
      "phone": "",
      "license_no": "第037-000124号",
      "license_date": null,
      "expire_date": "2031-07-31"
    },
    {
      "name": "株式会社　ワコー商事",
      "name_kana": "",
      "business_type": "魚介類販売業",
      "address": "大島郡和泊町玉城1785－3",
      "lat": 27.382408576,
      "lng": 128.648580613,
      "geocoding_level": 8,
      "phone": "",
      "license_no": "第037-000125号",
      "license_date": null,
      "expire_date": "2031-07-31"
    },
    {
      "name": "利江　龍司",
      "name_kana": "",
      "business_type": "飲食店営業（一般食堂・ﾚｽﾄﾗﾝ等）",
      "address": "大島郡和泊町手々知名５１２－１５６",
      "lat": 27.397466088,
      "lng": 128.660069938,
      "geocoding_level": 8,
      "phone": "",
      "license_no": "第037-000126号",
      "license_date": null,
      "expire_date": "2031-07-31"
    },
    {
      "name": "大田　怜男",
      "name_kana": "",
      "business_type": "飲食店営業（その他）",
      "address": "大島郡和泊町手々知名５１２－８９",
      "lat": 27.395836573,
      "lng": 128.65868292,
      "geocoding_level": 8,
      "phone": "",
      "license_no": "第037-000127号",
      "license_date": null,
      "expire_date": "2030-07-31"
    },
    {
      "name": "竹村　匡平",
      "name_kana": "",
      "business_type": "飲食店営業（一般食堂・ﾚｽﾄﾗﾝ等）",
      "address": "大島郡和泊町和泊１４７－６",
      "lat": 27.385602004,
      "lng": 128.652087525,
      "geocoding_level": 8,
      "phone": "",
      "license_no": "第037-000128号",
      "license_date": null,
      "expire_date": "2031-07-31"
    },
    {
      "name": "沖永良部酒造株式会社",
      "name_kana": "",
      "business_type": "酒類製造業",
      "address": "大島郡和泊町和泊536",
      "lat": 27.393056124,
      "lng": 128.655969748,
      "geocoding_level": 8,
      "phone": "",
      "license_no": "第037-000129号",
      "license_date": null,
      "expire_date": "2030-07-31"
    },
    {
      "name": "永山　盛淳",
      "name_kana": "",
      "business_type": "飲食店営業（仕出し屋・弁当屋）",
      "address": "大島郡和泊町和泊５８８－１",
      "lat": 27.395551189,
      "lng": 128.656384106,
      "geocoding_level": 8,
      "phone": "",
      "license_no": "第037-000130号",
      "license_date": null,
      "expire_date": "2031-07-31"
    },
    {
      "name": "永山　一盛",
      "name_kana": "",
      "business_type": "水産製品製造業",
      "address": "大島郡和泊町和泊６４１",
      "lat": 27.39697103,
      "lng": 128.655453723,
      "geocoding_level": 8,
      "phone": "",
      "license_no": "第037-000131号",
      "license_date": null,
      "expire_date": "2031-07-31"
    },
    {
      "name": "榮　純一",
      "name_kana": "",
      "business_type": "水産製品製造業",
      "address": "大島郡和泊町和泊５７６－５",
      "lat": 27.393977187,
      "lng": 128.656391411,
      "geocoding_level": 8,
      "phone": "",
      "license_no": "第037-000137号",
      "license_date": null,
      "expire_date": "2031-07-31"
    },
    {
      "name": "大吉　正勝",
      "name_kana": "",
      "business_type": "密封包装食品製造業",
      "address": "大島郡和泊町和泊954－1 和泊町農産物加工センター",
      "lat": 27.40062336,
      "lng": 128.649483911,
      "geocoding_level": 8,
      "phone": "",
      "license_no": "第037-000227号",
      "license_date": null,
      "expire_date": "2031-10-31"
    },
    {
      "name": "株式会社　ワコー商事",
      "name_kana": "",
      "business_type": "菓子製造業",
      "address": "大島郡和泊町玉城1785－3",
      "lat": 27.382408576,
      "lng": 128.648580613,
      "geocoding_level": 8,
      "phone": "",
      "license_no": "第037-000276号",
      "license_date": null,
      "expire_date": "2031-10-31"
    },
    {
      "name": "池田　よねみ",
      "name_kana": "",
      "business_type": "飲食店営業（一般食堂・ﾚｽﾄﾗﾝ等）",
      "address": "大島郡和泊町手々知名５１２－４３",
      "lat": 27.397679197,
      "lng": 128.66067537200001,
      "geocoding_level": 8,
      "phone": "",
      "license_no": "第037-000277号",
      "license_date": null,
      "expire_date": "2030-10-31"
    },
    {
      "name": "有限会社　タマキ企画",
      "name_kana": "",
      "business_type": "飲食店営業（その他）",
      "address": "大島郡和泊町手々知名５１２－５０",
      "lat": 27.39746642,
      "lng": 128.660652799,
      "geocoding_level": 8,
      "phone": "",
      "license_no": "第037-000278号",
      "license_date": null,
      "expire_date": "2030-10-31"
    },
    {
      "name": "山田　英生",
      "name_kana": "",
      "business_type": "飲食店営業（一般食堂・ﾚｽﾄﾗﾝ等）",
      "address": "大島郡和泊町和泊３－４",
      "lat": 27.392340891,
      "lng": 128.656675318,
      "geocoding_level": 8,
      "phone": "",
      "license_no": "第037-000279号",
      "license_date": null,
      "expire_date": "2031-10-31"
    },
    {
      "name": "有限会社　川添商事",
      "name_kana": "",
      "business_type": "飲食店営業（一般食堂・ﾚｽﾄﾗﾝ等）",
      "address": "大島郡和泊町和泊６－１",
      "lat": 27.392166,
      "lng": 128.651277,
      "geocoding_level": 3,
      "phone": "",
      "license_no": "第037-000280号",
      "license_date": null,
      "expire_date": "2031-10-31"
    },
    {
      "name": "泉　正幸",
      "name_kana": "",
      "business_type": "飲食店営業（一般食堂・ﾚｽﾄﾗﾝ等）",
      "address": "大島郡和泊町手々知名512－89　中野ビル102",
      "lat": 27.395836573,
      "lng": 128.65868292,
      "geocoding_level": 8,
      "phone": "",
      "license_no": "第033-000232号",
      "license_date": null,
      "expire_date": "2028-01-31"
    },
    {
      "name": "株式会社田中組",
      "name_kana": "",
      "business_type": "菓子製造業",
      "address": "大島郡和泊町国頭2305",
      "lat": 27.427360344,
      "lng": 128.684879368,
      "geocoding_level": 8,
      "phone": "",
      "license_no": "第037-000292号",
      "license_date": null,
      "expire_date": "2030-10-31"
    },
    {
      "name": "和泊町商工会",
      "name_kana": "",
      "business_type": "飲食店営業（その他）",
      "address": "大島郡和泊町和泊1225（鹿児島市を除く県内一円）",
      "lat": 27.392793527,
      "lng": 128.656814227,
      "geocoding_level": 8,
      "phone": "",
      "license_no": "第035-000203号",
      "license_date": null,
      "expire_date": "2028-10-31"
    },
    {
      "name": "小田　秀信",
      "name_kana": "",
      "business_type": "みそ製造業",
      "address": "大島郡和泊町根折1264",
      "lat": 27.398025,
      "lng": 128.62029,
      "geocoding_level": 3,
      "phone": "",
      "license_no": "第032-000252号",
      "license_date": null,
      "expire_date": "2026-01-31"
    },
    {
      "name": "小田　秀信",
      "name_kana": "",
      "business_type": "みそ製造業",
      "address": "大島郡和泊町和泊954－1",
      "lat": 27.40062336,
      "lng": 128.649483911,
      "geocoding_level": 8,
      "phone": "",
      "license_no": "第032-000314号",
      "license_date": null,
      "expire_date": "2027-04-30"
    },
    {
      "name": "株式会社GonZ",
      "name_kana": "",
      "business_type": "飲食店営業（その他）",
      "address": "大島郡和泊町和泊183－1",
      "lat": 27.384092148000004,
      "lng": 128.649996938,
      "geocoding_level": 8,
      "phone": "",
      "license_no": "第037-000338号",
      "license_date": null,
      "expire_date": "2031-01-31"
    },
    {
      "name": "ドラッグストア　マツモトキヨシ和泊店",
      "name_kana": "ドラッグストア　マツモトキヨシワドマリテン",
      "business_type": "⑬ その他の食料・飲料販売業",
      "address": "鹿児島県大島郡和泊町玉城1752-1",
      "lat": 27.380724,
      "lng": 128.646349,
      "geocoding_level": null,
      "phone": "0997814110",
      "license_no": "",
      "license_date": null,
      "expire_date": null
    },
    {
      "name": "和泊町社会福祉協議会通所介護事業所",
      "name_kana": "ワドマリチョウシャカイフクシキョウギカイツウショカイゴジギョウショ",
      "business_type": "㉖ 集団給食施設",
      "address": "鹿児島県大島郡和泊町和泊39-3",
      "lat": 27.391565,
      "lng": 128.652915,
      "geocoding_level": null,
      "phone": "0997922299",
      "license_no": "",
      "license_date": null,
      "expire_date": null
    }
  ]
}
