{
  "meta": {
    "updated": 1783906731,
    "sources": [
      {
        "source": "長野県食品営業許可施設",
        "license": "要確認"
      },
      {
        "source": "厚生労働省 食品衛生申請等システム（オープンデータ）",
        "license": "公共データ利用規約（第1.0版, PDL1.0）"
      }
    ]
  },
  "data": [
    {
      "name": "Ｔｈｅ　Ｎｏｏｋ　Ｌｏｄｇｅ",
      "name_kana": "",
      "business_type": "飲食店営業",
      "address": "長野県上水内郡飯綱町川上２７５５－１５９６",
      "lat": 36.738103636,
      "lng": 138.178503997,
      "geocoding_level": 8,
      "phone": "",
      "license_no": "第16511360号",
      "license_date": "2019-10-29",
      "expire_date": "2026-06-30"
    },
    {
      "name": "菊寿し",
      "name_kana": "",
      "business_type": "飲食店営業",
      "address": "上水内郡飯綱町大字普光寺９２０",
      "lat": 36.75432001800001,
      "lng": 138.243743576,
      "geocoding_level": 8,
      "phone": "",
      "license_no": "第16511847号",
      "license_date": "2020-02-21",
      "expire_date": "2026-06-30"
    },
    {
      "name": "れうりや",
      "name_kana": "",
      "business_type": "菓子製造業",
      "address": "長野県上水内郡飯綱町赤塩２５９４－１",
      "lat": 36.769034093,
      "lng": 138.284195963,
      "geocoding_level": 8,
      "phone": "",
      "license_no": "第16511822号",
      "license_date": "2020-02-21",
      "expire_date": "2026-06-30"
    },
    {
      "name": "れうりや",
      "name_kana": "",
      "business_type": "そうざい製造業",
      "address": "長野県上水内郡飯綱町赤塩２５９４－１",
      "lat": 36.769034093,
      "lng": 138.284195963,
      "geocoding_level": 8,
      "phone": "",
      "license_no": "第16511830号",
      "license_date": "2020-02-21",
      "expire_date": "2026-06-30"
    },
    {
      "name": "ＣｏＣｏ　Ｃａｆｅ",
      "name_kana": "",
      "business_type": "飲食店営業",
      "address": "長野県上水内郡飯綱町普光寺９２０",
      "lat": 36.75432001800001,
      "lng": 138.243743576,
      "geocoding_level": 8,
      "phone": "",
      "license_no": "第16511861号",
      "license_date": "2020-02-21",
      "expire_date": "2026-06-30"
    },
    {
      "name": "泉が丘喫茶室",
      "name_kana": "",
      "business_type": "菓子製造業",
      "address": "長野県上水内郡飯綱町大字赤塩２４８９",
      "lat": 36.762996,
      "lng": 138.287712,
      "geocoding_level": 3,
      "phone": "",
      "license_no": "第16512447号",
      "license_date": "2020-07-10",
      "expire_date": "2027-06-30"
    },
    {
      "name": "たちばな",
      "name_kana": "",
      "business_type": "飲食店営業",
      "address": "上水内郡飯綱町豊野１０３５",
      "lat": 36.742538,
      "lng": 138.2563,
      "geocoding_level": 3,
      "phone": "",
      "license_no": "第16068573号",
      "license_date": "2020-06-30",
      "expire_date": "2026-06-30"
    },
    {
      "name": "ペンションウイスキージャック",
      "name_kana": "",
      "business_type": "飲食店営業",
      "address": "上水内郡飯綱町大字川上字霊仙寺山２７５５―１６０３",
      "lat": 36.739241,
      "lng": 138.186461,
      "geocoding_level": 3,
      "phone": "",
      "license_no": "第16115628号",
      "license_date": "2020-06-30",
      "expire_date": "2026-06-30"
    },
    {
      "name": "ピュアハウスもとやま",
      "name_kana": "",
      "business_type": "飲食店営業",
      "address": "上水内郡飯綱町大字川上２７５５―１８７２",
      "lat": 36.733555638,
      "lng": 138.174609717,
      "geocoding_level": 8,
      "phone": "",
      "license_no": "第16116139号",
      "license_date": "2020-06-30",
      "expire_date": "2026-06-30"
    },
    {
      "name": "マウンテン　ヴィラ・タキハウス",
      "name_kana": "",
      "business_type": "飲食店営業",
      "address": "上水内郡飯綱町大字川上２７５５―６８",
      "lat": 36.735632442,
      "lng": 138.176847246,
      "geocoding_level": 8,
      "phone": "",
      "license_no": "第16116281号",
      "license_date": "2020-06-30",
      "expire_date": "2026-06-30"
    },
    {
      "name": "朝日屋旅館",
      "name_kana": "",
      "business_type": "飲食店営業",
      "address": "上水内郡飯綱町大字牟礼５２７",
      "lat": 36.744333,
      "lng": 138.238702,
      "geocoding_level": 3,
      "phone": "",
      "license_no": "第16140599号",
      "license_date": "2020-06-30",
      "expire_date": "2026-06-30"
    },
    {
      "name": "モーグル　ハウス",
      "name_kana": "",
      "business_type": "飲食店営業",
      "address": "上水内郡飯綱町大字川上字霊仙寺山２７５５―１８０",
      "lat": 36.739241,
      "lng": 138.186461,
      "geocoding_level": 3,
      "phone": "",
      "license_no": "第16143111号",
      "license_date": "2020-06-30",
      "expire_date": "2026-06-30"
    },
    {
      "name": "プチペンションフィールドノート",
      "name_kana": "",
      "business_type": "飲食店営業",
      "address": "上水内郡飯綱町大字川上字霊仙寺山２７７５―１９０４",
      "lat": 36.739241,
      "lng": 138.186461,
      "geocoding_level": 3,
      "phone": "",
      "license_no": "第16163181号",
      "license_date": "2020-06-30",
      "expire_date": "2026-06-30"
    },
    {
      "name": "（株）サンクゼール",
      "name_kana": "",
      "business_type": "酒類製造業",
      "address": "上水内郡飯綱町芋川１２６０",
      "lat": 36.767356368,
      "lng": 138.262900196,
      "geocoding_level": 8,
      "phone": "",
      "license_no": "第16163975号",
      "license_date": "2020-06-30",
      "expire_date": "2026-06-30"
    },
    {
      "name": "丸為旅館",
      "name_kana": "",
      "business_type": "飲食店営業",
      "address": "上水内郡飯綱町牟礼５１０",
      "lat": 36.744333,
      "lng": 138.238702,
      "geocoding_level": 3,
      "phone": "",
      "license_no": "第16194967号",
      "license_date": "2020-06-30",
      "expire_date": "2026-06-30"
    },
    {
      "name": "（有）さかえや商店",
      "name_kana": "",
      "business_type": "飲食店営業",
      "address": "上水内郡飯綱町大字普光寺９２３－１",
      "lat": 36.754169594,
      "lng": 138.244824157,
      "geocoding_level": 8,
      "phone": "",
      "license_no": "第16208872号",
      "license_date": "2020-06-30",
      "expire_date": "2026-06-30"
    },
    {
      "name": "（有）信濃農園",
      "name_kana": "",
      "business_type": "そうざい製造業",
      "address": "上水内郡飯綱町大字倉井２７２５",
      "lat": 36.756927737,
      "lng": 138.258318563,
      "geocoding_level": 8,
      "phone": "",
      "license_no": "第16512835号",
      "license_date": "2020-10-16",
      "expire_date": "2026-06-30"
    },
    {
      "name": "（有）信濃農園",
      "name_kana": "",
      "business_type": "食品の冷凍または冷蔵業",
      "address": "上水内郡飯綱町大字倉井２７２５",
      "lat": 36.756927737,
      "lng": 138.258318563,
      "geocoding_level": 8,
      "phone": "",
      "license_no": "第16512842号",
      "license_date": "2020-10-16",
      "expire_date": "2026-06-30"
    },
    {
      "name": "第一スーパー飯綱店",
      "name_kana": "",
      "business_type": "魚介類販売業",
      "address": "上水内郡飯綱町普光寺９７０―１",
      "lat": 36.753264371,
      "lng": 138.241553214,
      "geocoding_level": 8,
      "phone": "",
      "license_no": "第16007894号",
      "license_date": "2020-06-30",
      "expire_date": "2026-06-30"
    },
    {
      "name": "第一スーパー飯綱店",
      "name_kana": "",
      "business_type": "食肉販売業",
      "address": "上水内郡飯綱町普光寺９７０―１",
      "lat": 36.753264371,
      "lng": 138.241553214,
      "geocoding_level": 8,
      "phone": "",
      "license_no": "第16028187号",
      "license_date": "2020-06-30",
      "expire_date": "2026-06-30"
    },
    {
      "name": "第一スーパー飯綱店",
      "name_kana": "",
      "business_type": "飲食店営業",
      "address": "上水内郡飯綱町普光寺９７０―１",
      "lat": 36.753264371,
      "lng": 138.241553214,
      "geocoding_level": 8,
      "phone": "",
      "license_no": "第16068872号",
      "license_date": "2020-06-30",
      "expire_date": "2026-06-30"
    },
    {
      "name": "とちのき食堂",
      "name_kana": "",
      "business_type": "飲食店営業",
      "address": "長野県上水内郡飯綱町大字川上１５３５",
      "lat": 36.73558772,
      "lng": 138.212302126,
      "geocoding_level": 8,
      "phone": "",
      "license_no": "第16512109号",
      "license_date": "2020-04-24",
      "expire_date": "2026-06-30"
    },
    {
      "name": "シガ美容室　飯綱店",
      "name_kana": "",
      "business_type": "喫茶店営業",
      "address": "長野県上水内郡飯綱町普光寺９４９－７",
      "lat": 36.754339048,
      "lng": 138.24276581,
      "geocoding_level": 8,
      "phone": "",
      "license_no": "第16512761号",
      "license_date": "2020-10-02",
      "expire_date": "2027-06-30"
    },
    {
      "name": "大衆食事処　未花",
      "name_kana": "",
      "business_type": "飲食店営業",
      "address": "上水内郡飯綱町大字牟礼２７０３",
      "lat": 36.753880344,
      "lng": 138.235864278,
      "geocoding_level": 8,
      "phone": "",
      "license_no": "第16187781号",
      "license_date": "2020-06-30",
      "expire_date": "2026-06-30"
    },
    {
      "name": "レストランルック",
      "name_kana": "",
      "business_type": "飲食店営業",
      "address": "上水内郡飯綱町古町小丸山４８０",
      "lat": 36.752418,
      "lng": 138.206679,
      "geocoding_level": 3,
      "phone": "",
      "license_no": "第16116242号",
      "license_date": "2020-06-30",
      "expire_date": "2026-06-30"
    },
    {
      "name": "飯綱町三本松農産物加工施設",
      "name_kana": "",
      "business_type": "清涼飲料水製造業",
      "address": "長野県上水内郡飯綱町大字平出２９５３－２",
      "lat": 36.737679463,
      "lng": 138.247799611,
      "geocoding_level": 8,
      "phone": "",
      "license_no": "第16513549号",
      "license_date": "2021-02-05",
      "expire_date": "2027-06-30"
    },
    {
      "name": "飯綱町三本松農産物加工施設",
      "name_kana": "",
      "business_type": "かん詰またはびん詰食品製造業",
      "address": "長野県上水内郡飯綱町大字平出２９５３－２",
      "lat": 36.737679463,
      "lng": 138.247799611,
      "geocoding_level": 8,
      "phone": "",
      "license_no": "第16513556号",
      "license_date": "2021-02-05",
      "expire_date": "2027-06-30"
    },
    {
      "name": "飯綱町三本松農産物加工施設",
      "name_kana": "",
      "business_type": "菓子製造業",
      "address": "長野県上水内郡飯綱町大字平出２９５３－２",
      "lat": 36.737679463,
      "lng": 138.247799611,
      "geocoding_level": 8,
      "phone": "",
      "license_no": "第16513563号",
      "license_date": "2021-02-05",
      "expire_date": "2027-06-30"
    },
    {
      "name": "食ごよみ日和",
      "name_kana": "",
      "business_type": "飲食店営業",
      "address": "長野県上水内郡飯綱町倉井２８９４－１",
      "lat": 36.752750726,
      "lng": 138.261074259,
      "geocoding_level": 8,
      "phone": "",
      "license_no": "第16512194号",
      "license_date": "2020-05-22",
      "expire_date": "2026-06-30"
    },
    {
      "name": "ＯＫＡＺＵＹＡ　泉が丘喫茶室",
      "name_kana": "",
      "business_type": "飲食店営業",
      "address": "長野県上水内郡飯綱町大字赤塩２４８９",
      "lat": 36.762996,
      "lng": 138.287712,
      "geocoding_level": 3,
      "phone": "",
      "license_no": "第16512430号",
      "license_date": "2020-07-10",
      "expire_date": "2027-06-30"
    },
    {
      "name": "味処ふじよし（音楽堂ＭＡＭＩ）",
      "name_kana": "",
      "business_type": "飲食店営業",
      "address": "上水内郡飯綱町大字牟礼２７２６－３",
      "lat": 36.753401333,
      "lng": 138.236738455,
      "geocoding_level": 8,
      "phone": "",
      "license_no": "第16210502号",
      "license_date": "2020-06-30",
      "expire_date": "2026-06-30"
    },
    {
      "name": "飯綱町立飯綱病院",
      "name_kana": "",
      "business_type": "飲食店営業",
      "address": "上水内郡飯綱町大字牟礼２２２０",
      "lat": 36.748964328,
      "lng": 138.235618511,
      "geocoding_level": 8,
      "phone": "",
      "license_no": "第16267155号",
      "license_date": "2020-06-30",
      "expire_date": "2027-06-30"
    },
    {
      "name": "古民家ｃａｆｅ　のらのら",
      "name_kana": "",
      "business_type": "飲食店営業",
      "address": "長野県上水内郡飯綱町袖之山３１０",
      "lat": 36.724167452,
      "lng": 138.224411576,
      "geocoding_level": 8,
      "phone": "",
      "license_no": "第16512237号",
      "license_date": "2020-06-01",
      "expire_date": "2026-06-30"
    },
    {
      "name": "そば処　よこ亭",
      "name_kana": "",
      "business_type": "麺類製造業",
      "address": "上水内郡飯綱町柳里８４７－３",
      "lat": 36.743141176,
      "lng": 138.205734699,
      "geocoding_level": 8,
      "phone": "",
      "license_no": "第16226728号",
      "license_date": "2021-06-30",
      "expire_date": "2026-06-30"
    },
    {
      "name": "地場産工房そば処　よこ亭",
      "name_kana": "",
      "business_type": "飲食店営業",
      "address": "上水内郡飯綱町大字柳里８４７－３",
      "lat": 36.743141176,
      "lng": 138.205734699,
      "geocoding_level": 8,
      "phone": "",
      "license_no": "第16220846号",
      "license_date": "2022-06-30",
      "expire_date": "2028-06-30"
    },
    {
      "name": "横手直売所　四季菜",
      "name_kana": "",
      "business_type": "飲食店営業",
      "address": "上水内郡飯綱町大字柳里６２８番地１",
      "lat": 36.742398516,
      "lng": 138.20493690700002,
      "geocoding_level": 8,
      "phone": "",
      "license_no": "第16507578号",
      "license_date": "2024-06-28",
      "expire_date": "2030-06-30"
    },
    {
      "name": "横手直売所　四季菜",
      "name_kana": "",
      "business_type": "菓子製造業",
      "address": "上水内郡飯綱町大字柳里６２８番地１",
      "lat": 36.742398516,
      "lng": 138.20493690700002,
      "geocoding_level": 8,
      "phone": "",
      "license_no": "第16507585号",
      "license_date": "2024-06-28",
      "expire_date": "2030-06-30"
    },
    {
      "name": "有限会社飯綱町ふるさと振興公社",
      "name_kana": "",
      "business_type": "飲食店営業",
      "address": "上水内郡飯綱町大字柳里６２８－１",
      "lat": 36.742398516,
      "lng": 138.20493690700002,
      "geocoding_level": 8,
      "phone": "",
      "license_no": "第16520885号",
      "license_date": "2024-07-05",
      "expire_date": "2030-06-30"
    },
    {
      "name": "さみず農産物加工組合　チアさみず",
      "name_kana": "",
      "business_type": "菓子製造業",
      "address": "上水内郡飯綱町大字倉井２８９１－４",
      "lat": 36.753063246,
      "lng": 138.261151878,
      "geocoding_level": 8,
      "phone": "",
      "license_no": "第16514302号",
      "license_date": "2021-06-30",
      "expire_date": "2027-06-30"
    },
    {
      "name": "さみず農産物加工組合　チアさみず",
      "name_kana": "",
      "business_type": "そうざい製造業",
      "address": "上水内郡飯綱町大字倉井２８９１－４",
      "lat": 36.753063246,
      "lng": 138.261151878,
      "geocoding_level": 8,
      "phone": "",
      "license_no": "第16514327号",
      "license_date": "2021-06-30",
      "expire_date": "2027-06-30"
    },
    {
      "name": "さみず農産物加工組合　チアさみず",
      "name_kana": "",
      "business_type": "みそ又はしょうゆ製造業",
      "address": "上水内郡飯綱町大字倉井２８９１－４",
      "lat": 36.753063246,
      "lng": 138.261151878,
      "geocoding_level": 8,
      "phone": "",
      "license_no": "第16514310号",
      "license_date": "2021-06-30",
      "expire_date": "2027-06-30"
    },
    {
      "name": "特別養護老人ホーム　矢筒荘",
      "name_kana": "",
      "business_type": "飲食店営業",
      "address": "上水内郡飯綱町牟礼２２２７",
      "lat": 36.748547739,
      "lng": 138.234654766,
      "geocoding_level": 8,
      "phone": "",
      "license_no": "第16277691号",
      "license_date": "2021-06-30",
      "expire_date": "2027-06-30"
    },
    {
      "name": "サンクゼール",
      "name_kana": "",
      "business_type": "飲食店営業",
      "address": "上水内郡飯綱町大字芋川１２６０番地",
      "lat": 36.767356368,
      "lng": 138.262900196,
      "geocoding_level": 8,
      "phone": "",
      "license_no": "第16281692号",
      "license_date": "2021-06-30",
      "expire_date": "2026-06-30"
    },
    {
      "name": "サンクゼール",
      "name_kana": "",
      "business_type": "飲食店営業",
      "address": "上水内郡飯綱町大字芋川１２６０番地",
      "lat": 36.767356368,
      "lng": 138.262900196,
      "geocoding_level": 8,
      "phone": "",
      "license_no": "第16281703号",
      "license_date": "2021-06-30",
      "expire_date": "2026-06-30"
    },
    {
      "name": "ＭＯＮ　ｍａｒｕｓｈｉｍｅ",
      "name_kana": "",
      "business_type": "飲食店営業",
      "address": "上水内郡飯綱町豊野１７５２番地",
      "lat": 36.742538,
      "lng": 138.2563,
      "geocoding_level": 3,
      "phone": "",
      "license_no": "第16295158号",
      "license_date": "2021-06-30",
      "expire_date": "2027-06-30"
    },
    {
      "name": "ＭＯＮ　ｍａｒｕｓｈｉｍｅ",
      "name_kana": "",
      "business_type": "飲食店営業",
      "address": "上水内郡飯綱町豊野１７５２番地",
      "lat": 36.742538,
      "lng": 138.2563,
      "geocoding_level": 3,
      "phone": "",
      "license_no": "第16507981号",
      "license_date": "2023-06-30",
      "expire_date": "2028-06-30"
    },
    {
      "name": "ＭＯＮ　ｍａｒｕｓｈｉｍｅ",
      "name_kana": "",
      "business_type": "菓子製造業",
      "address": "上水内郡飯綱町大字豊野１７５２番地",
      "lat": 36.742538,
      "lng": 138.2563,
      "geocoding_level": 3,
      "phone": "",
      "license_no": "第16520248号",
      "license_date": "2024-04-08",
      "expire_date": "2030-06-30"
    },
    {
      "name": "飯綱町りんごの里まつり",
      "name_kana": "",
      "business_type": "魚介類販売業",
      "address": "上水内郡飯綱町大字牟礼１９８９番地",
      "lat": 36.744333,
      "lng": 138.238702,
      "geocoding_level": 3,
      "phone": "",
      "license_no": "第16296987号",
      "license_date": "2021-06-30",
      "expire_date": "2026-06-30"
    },
    {
      "name": "飯綱町りんごの里まつり",
      "name_kana": "",
      "business_type": "飲食店営業",
      "address": "上水内郡飯綱町大字牟礼１９８９番地",
      "lat": 36.744333,
      "lng": 138.238702,
      "geocoding_level": 3,
      "phone": "",
      "license_no": "第16296970号",
      "license_date": "2021-06-30",
      "expire_date": "2026-06-30"
    },
    {
      "name": "飯綱町イベント部会",
      "name_kana": "",
      "business_type": "飲食店営業",
      "address": "上水内郡飯綱町大字牟礼２７９５－１",
      "lat": 36.754471559,
      "lng": 138.235595844,
      "geocoding_level": 8,
      "phone": "",
      "license_no": "第16297006号",
      "license_date": "2021-06-30",
      "expire_date": "2026-06-30"
    },
    {
      "name": "飯綱町イベント部会",
      "name_kana": "",
      "business_type": "飲食店営業",
      "address": "上水内郡飯綱町大字牟礼２７９５－１",
      "lat": 36.754471559,
      "lng": 138.235595844,
      "geocoding_level": 8,
      "phone": "",
      "license_no": "第16296994号",
      "license_date": "2021-06-30",
      "expire_date": "2026-06-30"
    },
    {
      "name": "飯綱町イベント部会",
      "name_kana": "",
      "business_type": "飲食店営業",
      "address": "上水内郡飯綱町大字牟礼２７９５－１",
      "lat": 36.754471559,
      "lng": 138.235595844,
      "geocoding_level": 8,
      "phone": "",
      "license_no": "第16297013号",
      "license_date": "2021-06-30",
      "expire_date": "2026-06-30"
    },
    {
      "name": "飯綱町イベント部会",
      "name_kana": "",
      "business_type": "飲食店営業",
      "address": "上水内郡飯綱町大字牟礼２７９５－１",
      "lat": 36.754471559,
      "lng": 138.235595844,
      "geocoding_level": 8,
      "phone": "",
      "license_no": "第16297021号",
      "license_date": "2021-06-30",
      "expire_date": "2026-06-30"
    },
    {
      "name": "飯綱町イベント部会",
      "name_kana": "",
      "business_type": "飲食店営業",
      "address": "上水内郡飯綱町大字牟礼２７９５－１",
      "lat": 36.754471559,
      "lng": 138.235595844,
      "geocoding_level": 8,
      "phone": "",
      "license_no": "第16297038号",
      "license_date": "2021-06-30",
      "expire_date": "2026-06-30"
    },
    {
      "name": "飯綱町牟礼農林産物加工所　味研究委員会",
      "name_kana": "",
      "business_type": "みそ又はしょうゆ製造業",
      "address": "上水内郡飯綱町大字川上１９７０－１",
      "lat": 36.737829059,
      "lng": 138.211364009,
      "geocoding_level": 8,
      "phone": "",
      "license_no": "第16206152号",
      "license_date": "2021-06-30",
      "expire_date": "2026-06-30"
    },
    {
      "name": "さかえや商店",
      "name_kana": "",
      "business_type": "食肉販売業",
      "address": "上水内郡飯綱町大字普光寺９２１－１",
      "lat": 36.754326374,
      "lng": 138.244432779,
      "geocoding_level": 8,
      "phone": "",
      "license_no": "第16295910号",
      "license_date": "2021-06-30",
      "expire_date": "2027-06-30"
    },
    {
      "name": "Ｓａｎｄ　ｇｌａｓｓ",
      "name_kana": "",
      "business_type": "飲食店営業",
      "address": "上水内郡飯綱町大字牟礼５０９番３号 （丸為旅館内）",
      "lat": 36.752771115,
      "lng": 138.246278818,
      "geocoding_level": 8,
      "phone": "",
      "license_no": "第16514341号",
      "license_date": "2021-07-02",
      "expire_date": "2028-06-30"
    },
    {
      "name": "とちのき給食室",
      "name_kana": "",
      "business_type": "飲食店営業",
      "address": "上水内郡飯綱町大字川上１５３５",
      "lat": 36.73558772,
      "lng": 138.212302126,
      "geocoding_level": 8,
      "phone": "",
      "license_no": "第16514398号",
      "license_date": "2021-07-16",
      "expire_date": "2028-06-30"
    },
    {
      "name": "とちのき給食室",
      "name_kana": "",
      "business_type": "そうざい製造業",
      "address": "上水内郡飯綱町大字川上１５３５",
      "lat": 36.73558772,
      "lng": 138.212302126,
      "geocoding_level": 8,
      "phone": "",
      "license_no": "第16514409号",
      "license_date": "2021-07-16",
      "expire_date": "2028-06-30"
    },
    {
      "name": "泉が丘喫茶室",
      "name_kana": "",
      "business_type": "飲食店営業",
      "address": "上水内郡飯綱町大字赤塩２４８９",
      "lat": 36.762996,
      "lng": 138.287712,
      "geocoding_level": 3,
      "phone": "",
      "license_no": "第16516805号",
      "license_date": "2022-09-09",
      "expire_date": "2028-06-30"
    },
    {
      "name": "いいづなコネクト　EAST",
      "name_kana": "",
      "business_type": "飲食店営業",
      "address": "上水内郡飯綱町赤塩2489",
      "lat": 36.762996,
      "lng": 138.287712,
      "geocoding_level": 3,
      "phone": "",
      "license_no": "第16516901号",
      "license_date": "2022-09-27",
      "expire_date": "2028-06-30"
    },
    {
      "name": "ピッツェリア　アンジェリコ",
      "name_kana": "",
      "business_type": "飲食店営業",
      "address": "上水内郡飯綱町平出９９０－３",
      "lat": 36.723742146,
      "lng": 138.249853813,
      "geocoding_level": 8,
      "phone": "",
      "license_no": "第16514551号",
      "license_date": "2021-08-06",
      "expire_date": "2028-06-30"
    },
    {
      "name": "自閉症支援施設あおぞら",
      "name_kana": "",
      "business_type": "飲食店営業",
      "address": "上水内郡飯綱町大字芋川６０１３－６",
      "lat": 36.781582,
      "lng": 138.25936,
      "geocoding_level": 3,
      "phone": "",
      "license_no": "第16515711号",
      "license_date": "2022-03-25",
      "expire_date": "2028-06-30"
    },
    {
      "name": "飯綱町デイサービスセンターふれあいの園",
      "name_kana": "",
      "business_type": "飲食店営業",
      "address": "上水内郡飯綱町芋川１８１",
      "lat": 36.781582,
      "lng": 138.25936,
      "geocoding_level": 3,
      "phone": "",
      "license_no": "第16289430号",
      "license_date": "2025-06-30",
      "expire_date": "2031-06-30"
    },
    {
      "name": "長野信用金庫飯綱支店",
      "name_kana": "",
      "business_type": "飲食店営業",
      "address": "上水内郡飯綱町牟礼５２８－５",
      "lat": 36.744333,
      "lng": 138.238702,
      "geocoding_level": 3,
      "phone": "",
      "license_no": "第16287689号",
      "license_date": "2025-06-30",
      "expire_date": "2031-06-30"
    },
    {
      "name": "れうりや",
      "name_kana": "",
      "business_type": "飲食店営業",
      "address": "上水内郡飯綱町赤塩２５９４－１",
      "lat": 36.769034093,
      "lng": 138.284195963,
      "geocoding_level": 8,
      "phone": "",
      "license_no": "第16515315号",
      "license_date": "2021-12-23",
      "expire_date": "2027-06-30"
    },
    {
      "name": "れうりや",
      "name_kana": "",
      "business_type": "密封包装食品製造業",
      "address": "上水内郡飯綱町赤塩２５９４－１",
      "lat": 36.769034093,
      "lng": 138.284195963,
      "geocoding_level": 8,
      "phone": "",
      "license_no": "第16515322号",
      "license_date": "2021-12-23",
      "expire_date": "2027-06-30"
    },
    {
      "name": "れうりや",
      "name_kana": "",
      "business_type": "飲食店営業",
      "address": "上水内郡飯綱町東柏原９１",
      "lat": 36.779131,
      "lng": 138.285342,
      "geocoding_level": 3,
      "phone": "",
      "license_no": "第16517184号",
      "license_date": "2022-10-27",
      "expire_date": "2028-06-30"
    },
    {
      "name": "れうりや",
      "name_kana": "",
      "business_type": "飲食店営業",
      "address": "上水内郡飯綱町東柏原９１",
      "lat": 36.779131,
      "lng": 138.285342,
      "geocoding_level": 3,
      "phone": "",
      "license_no": "第16517191号",
      "license_date": "2022-10-27",
      "expire_date": "2028-06-30"
    },
    {
      "name": "れうりや",
      "name_kana": "",
      "business_type": "飲食店営業",
      "address": "上水内郡飯綱町普光寺９２５－１０",
      "lat": 36.753804597,
      "lng": 138.244364107,
      "geocoding_level": 8,
      "phone": "",
      "license_no": "第16518699号",
      "license_date": "2023-07-14",
      "expire_date": "2030-06-30"
    },
    {
      "name": "ケルンコーヒーロースター",
      "name_kana": "",
      "business_type": "飲食店営業",
      "address": "上水内郡飯綱町黒川１９４６－２",
      "lat": 36.743986979,
      "lng": 138.22309121,
      "geocoding_level": 8,
      "phone": "",
      "license_no": "第16517907号",
      "license_date": "2023-03-27",
      "expire_date": "2028-06-30"
    },
    {
      "name": "飯綱病院売店内パン工房",
      "name_kana": "",
      "business_type": "菓子製造業",
      "address": "上水内郡飯綱町牟礼２２２０飯綱町立飯綱病院内",
      "lat": 36.748964328,
      "lng": 138.235618511,
      "geocoding_level": 8,
      "phone": "",
      "license_no": "第16299410号",
      "license_date": "2022-06-30",
      "expire_date": "2027-06-30"
    },
    {
      "name": "ＧＲＥＥＮＶＥＩＬ",
      "name_kana": "",
      "business_type": "飲食店営業",
      "address": "上水内郡飯綱町大字倉井１６２３番地",
      "lat": 36.75550400000001,
      "lng": 138.260172,
      "geocoding_level": 3,
      "phone": "",
      "license_no": "第16516004号",
      "license_date": "2022-05-02",
      "expire_date": "2028-06-30"
    },
    {
      "name": "ｃａｆｅ　ららん",
      "name_kana": "",
      "business_type": "飲食店営業",
      "address": "上水内郡飯綱町川上２２４６",
      "lat": 36.739701652,
      "lng": 138.205293728,
      "geocoding_level": 8,
      "phone": "",
      "license_no": "第16516036号",
      "license_date": "2022-05-13",
      "expire_date": "2028-06-30"
    },
    {
      "name": "飯綱町牟礼農林畜産物加工施設",
      "name_kana": "",
      "business_type": "そうざい製造業",
      "address": "上水内郡飯綱町大字牟礼２５３８",
      "lat": 36.752978786,
      "lng": 138.235197,
      "geocoding_level": 8,
      "phone": "",
      "license_no": "第16516029号",
      "license_date": "2022-05-13",
      "expire_date": "2028-06-30"
    },
    {
      "name": "青空カフェ　和夢手",
      "name_kana": "",
      "business_type": "飲食店営業",
      "address": "上水内郡飯綱町大字川上２７５５番地２６１８",
      "lat": 36.738129418,
      "lng": 138.177563382,
      "geocoding_level": 8,
      "phone": "",
      "license_no": "第16516068号",
      "license_date": "2022-05-20",
      "expire_date": "2028-06-30"
    },
    {
      "name": "青空カフェ　和夢手",
      "name_kana": "",
      "business_type": "菓子製造業",
      "address": "上水内郡飯綱町大字川上２７５５番地２６１８",
      "lat": 36.738129418,
      "lng": 138.177563382,
      "geocoding_level": 8,
      "phone": "",
      "license_no": "第16516051号",
      "license_date": "2022-05-20",
      "expire_date": "2028-06-30"
    },
    {
      "name": "ペンション　ポム",
      "name_kana": "",
      "business_type": "飲食店営業",
      "address": "上水内郡飯綱町川上２７５５－１６０７",
      "lat": 36.737916941,
      "lng": 138.180911102,
      "geocoding_level": 8,
      "phone": "",
      "license_no": "第16516171号",
      "license_date": "2022-06-06",
      "expire_date": "2028-06-30"
    },
    {
      "name": "利休抹茶本舗　長野",
      "name_kana": "",
      "business_type": "飲食店営業",
      "address": "上水内郡飯綱町大字豊野１６１８",
      "lat": 36.742538,
      "lng": 138.2563,
      "geocoding_level": 3,
      "phone": "",
      "license_no": "第16516164号",
      "license_date": "2022-06-03",
      "expire_date": "2027-06-30"
    },
    {
      "name": "さかえや飯店",
      "name_kana": "",
      "business_type": "飲食店営業",
      "address": "上水内郡飯綱町大字古町１４６６",
      "lat": 36.752418,
      "lng": 138.206679,
      "geocoding_level": 3,
      "phone": "",
      "license_no": "第16516292号",
      "license_date": "2022-06-23",
      "expire_date": "2028-06-30"
    },
    {
      "name": "宮本商店ＦＬＡＶＯＲ",
      "name_kana": "",
      "business_type": "飲食店営業",
      "address": "上水内郡飯綱町赤塩２４５３",
      "lat": 36.762996,
      "lng": 138.287712,
      "geocoding_level": 3,
      "phone": "",
      "license_no": "第16516399号",
      "license_date": "2022-06-30",
      "expire_date": "2027-06-30"
    },
    {
      "name": "株式会社サンクゼール　本社工場１係",
      "name_kana": "",
      "business_type": "複合型そうざい製造業",
      "address": "上水内郡飯綱町芋川１２６０",
      "lat": 36.767356368,
      "lng": 138.262900196,
      "geocoding_level": 8,
      "phone": "",
      "license_no": "第16516424号",
      "license_date": "2022-06-27",
      "expire_date": "2028-06-30"
    },
    {
      "name": "株式会社サンクゼール　本社工場１係",
      "name_kana": "",
      "business_type": "密封包装食品製造業",
      "address": "上水内郡飯綱町芋川１２６０",
      "lat": 36.767356368,
      "lng": 138.262900196,
      "geocoding_level": 8,
      "phone": "",
      "license_no": "第16516431号",
      "license_date": "2022-06-27",
      "expire_date": "2028-06-30"
    },
    {
      "name": "株式会社サンクゼール　本社工場２係",
      "name_kana": "",
      "business_type": "複合型そうざい製造業",
      "address": "上水内郡飯綱町芋川１２６０",
      "lat": 36.767356368,
      "lng": 138.262900196,
      "geocoding_level": 8,
      "phone": "",
      "license_no": "第16516449号",
      "license_date": "2022-06-27",
      "expire_date": "2028-06-30"
    },
    {
      "name": "株式会社サンクゼール　本社工場２係",
      "name_kana": "",
      "business_type": "密封包装食品製造業",
      "address": "上水内郡飯綱町芋川１２６０",
      "lat": 36.767356368,
      "lng": 138.262900196,
      "geocoding_level": 8,
      "phone": "",
      "license_no": "第16516456号",
      "license_date": "2022-06-27",
      "expire_date": "2028-06-30"
    },
    {
      "name": "株式会社サンクゼール　本社工場４係",
      "name_kana": "",
      "business_type": "食用油脂製造業",
      "address": "上水内郡飯綱町大字芋川１２６０番地",
      "lat": 36.767356368,
      "lng": 138.262900196,
      "geocoding_level": 8,
      "phone": "",
      "license_no": "第16297376号",
      "license_date": "2022-06-30",
      "expire_date": "2028-06-30"
    },
    {
      "name": "（株）サンクゼール　本社工場４係",
      "name_kana": "",
      "business_type": "密封包装食品製造業",
      "address": "上水内郡飯綱町大字芋川１２６０番地",
      "lat": 36.767356368,
      "lng": 138.262900196,
      "geocoding_level": 8,
      "phone": "",
      "license_no": "第16281151号",
      "license_date": "2022-06-30",
      "expire_date": "2028-06-30"
    },
    {
      "name": "株式会社サンクゼール",
      "name_kana": "",
      "business_type": "清涼飲料水製造業",
      "address": "上水内郡飯綱町芋川１２６０番地",
      "lat": 36.767356368,
      "lng": 138.262900196,
      "geocoding_level": 8,
      "phone": "",
      "license_no": "第16523900号",
      "license_date": "2025-11-07",
      "expire_date": "2032-06-30"
    },
    {
      "name": "ファミリーレスト白樺",
      "name_kana": "",
      "business_type": "飲食店営業",
      "address": "上水内郡飯綱町古町１２４６",
      "lat": 36.752418,
      "lng": 138.206679,
      "geocoding_level": 3,
      "phone": "",
      "license_no": "第16068510号",
      "license_date": "2022-06-30",
      "expire_date": "2028-06-30"
    },
    {
      "name": "（有）三水製パン",
      "name_kana": "",
      "business_type": "菓子製造業",
      "address": "上水内郡飯綱町普光寺９４０―７",
      "lat": 36.753318747,
      "lng": 138.243663173,
      "geocoding_level": 8,
      "phone": "",
      "license_no": "第16121467号",
      "license_date": "2022-06-30",
      "expire_date": "2028-06-30"
    },
    {
      "name": "（有）三水製パン",
      "name_kana": "",
      "business_type": "そうざい製造業",
      "address": "上水内郡飯綱町普光寺９４０―７",
      "lat": 36.753318747,
      "lng": 138.243663173,
      "geocoding_level": 8,
      "phone": "",
      "license_no": "第16121450号",
      "license_date": "2022-06-30",
      "expire_date": "2028-06-30"
    },
    {
      "name": "ペンション　ハロー・ララ！",
      "name_kana": "",
      "business_type": "飲食店営業",
      "address": "上水内郡飯綱町大字川上２７５５－４６",
      "lat": 36.736871177,
      "lng": 138.17657584,
      "geocoding_level": 8,
      "phone": "",
      "license_no": "第16125362号",
      "license_date": "2022-06-30",
      "expire_date": "2028-06-30"
    },
    {
      "name": "食事処　世界一",
      "name_kana": "",
      "business_type": "菓子製造業",
      "address": "上水内郡飯綱町大字牟礼５０９－４",
      "lat": 36.752763121,
      "lng": 138.246166075,
      "geocoding_level": 8,
      "phone": "",
      "license_no": "第16516610号",
      "license_date": "2022-07-29",
      "expire_date": "2029-06-30"
    },
    {
      "name": "食事処　世界一",
      "name_kana": "",
      "business_type": "飲食店営業",
      "address": "上水内郡飯綱町牟礼５０９－４",
      "lat": 36.752763121,
      "lng": 138.246166075,
      "geocoding_level": 8,
      "phone": "",
      "license_no": "第16272370号",
      "license_date": "2025-06-30",
      "expire_date": "2031-06-30"
    },
    {
      "name": "森のおやど　ピルチャー",
      "name_kana": "",
      "business_type": "飲食店営業",
      "address": "上水内郡飯綱町高坂１３００‐１０８",
      "lat": 36.724563,
      "lng": 138.193702,
      "geocoding_level": 3,
      "phone": "",
      "license_no": "第16297847号",
      "license_date": "2022-06-30",
      "expire_date": "2028-06-30"
    },
    {
      "name": "美濃屋菓子店",
      "name_kana": "",
      "business_type": "菓子製造業",
      "address": "上水内郡飯綱町牟礼２６９８",
      "lat": 36.753872064,
      "lng": 138.235719621,
      "geocoding_level": 8,
      "phone": "",
      "license_no": "第16195834号",
      "license_date": "2022-06-30",
      "expire_date": "2028-06-30"
    },
    {
      "name": "長野国際カントリークラブ",
      "name_kana": "",
      "business_type": "飲食店営業",
      "address": "上水内郡飯綱町牟礼１３１３",
      "lat": 36.744333,
      "lng": 138.238702,
      "geocoding_level": 3,
      "phone": "",
      "license_no": "第16169679号",
      "license_date": "2022-06-30",
      "expire_date": "2028-06-30"
    },
    {
      "name": "長野国際カントリークラブ",
      "name_kana": "",
      "business_type": "飲食店営業",
      "address": "上水内郡飯綱町牟礼１３１３",
      "lat": 36.744333,
      "lng": 138.238702,
      "geocoding_level": 3,
      "phone": "",
      "license_no": "第16169661号",
      "license_date": "2025-06-30",
      "expire_date": "2031-06-30"
    },
    {
      "name": "水穂珈琲店",
      "name_kana": "",
      "business_type": "飲食店営業",
      "address": "上水内郡飯綱町豊野１６４８",
      "lat": 36.742538,
      "lng": 138.2563,
      "geocoding_level": 3,
      "phone": "",
      "license_no": "第16516673号",
      "license_date": "2022-08-08",
      "expire_date": "2027-08-31"
    },
    {
      "name": "飯綱町商工会",
      "name_kana": "",
      "business_type": "飲食店営業",
      "address": "上水内郡飯綱町大字牟礼２７９５番地１",
      "lat": 36.754471559,
      "lng": 138.235595844,
      "geocoding_level": 8,
      "phone": "",
      "license_no": "第16299392号",
      "license_date": "2022-06-30",
      "expire_date": "2027-06-30"
    },
    {
      "name": "飯綱町商工会",
      "name_kana": "",
      "business_type": "飲食店営業",
      "address": "上水内郡飯綱町大字牟礼２７９５番地１",
      "lat": 36.754471559,
      "lng": 138.235595844,
      "geocoding_level": 8,
      "phone": "",
      "license_no": "第16299402号",
      "license_date": "2022-06-30",
      "expire_date": "2027-06-30"
    },
    {
      "name": "飯綱町商工会",
      "name_kana": "",
      "business_type": "飲食店営業",
      "address": "上水内郡飯綱町大字牟礼２７９５番地１",
      "lat": 36.754471559,
      "lng": 138.235595844,
      "geocoding_level": 8,
      "phone": "",
      "license_no": "第16299385号",
      "license_date": "2022-06-30",
      "expire_date": "2027-06-30"
    },
    {
      "name": "飯綱町商工会",
      "name_kana": "",
      "business_type": "飲食店営業",
      "address": "上水内郡飯綱町大字牟礼２７９５番地１",
      "lat": 36.754471559,
      "lng": 138.235595844,
      "geocoding_level": 8,
      "phone": "",
      "license_no": "第16299378号",
      "license_date": "2022-06-30",
      "expire_date": "2027-06-30"
    },
    {
      "name": "飯綱町商工会",
      "name_kana": "",
      "business_type": "飲食店営業",
      "address": "上水内郡飯綱町牟礼２７９５番地１",
      "lat": 36.754471559,
      "lng": 138.235595844,
      "geocoding_level": 8,
      "phone": "",
      "license_no": "第16246905号",
      "license_date": "2023-06-30",
      "expire_date": "2028-06-30"
    },
    {
      "name": "林檎学校醸造所",
      "name_kana": "",
      "business_type": "飲食店営業",
      "address": "上水内郡飯綱町倉井９２２",
      "lat": 36.753937986,
      "lng": 138.275600496,
      "geocoding_level": 8,
      "phone": "",
      "license_no": "第16518197号",
      "license_date": "2023-05-16",
      "expire_date": "2028-06-30"
    },
    {
      "name": "林檎学校醸造所",
      "name_kana": "",
      "business_type": "酒類製造業",
      "address": "上水内郡飯綱町大字赤塩２４８９　いいづなコネクトＥＡＳＴ　１Ｆ",
      "lat": 36.762996,
      "lng": 138.287712,
      "geocoding_level": 3,
      "phone": "",
      "license_no": "第16518891号",
      "license_date": "2023-07-21",
      "expire_date": "2030-06-30"
    },
    {
      "name": "パカーンコーヒースタンド",
      "name_kana": "",
      "business_type": "飲食店営業",
      "address": "上水内郡飯綱町大字牟礼２７３０－１",
      "lat": 36.753076944,
      "lng": 138.237225061,
      "geocoding_level": 8,
      "phone": "",
      "license_no": "第16521211号",
      "license_date": "2024-09-27",
      "expire_date": "2031-06-30"
    },
    {
      "name": "Ｃｈａｌｅｔ　ｄｅ　Ｍｏｎｔａｇｎｅ",
      "name_kana": "",
      "business_type": "飲食店営業",
      "address": "上水内郡飯綱町大字川上２７５５－１５９７",
      "lat": 36.737666575,
      "lng": 138.178618508,
      "geocoding_level": 8,
      "phone": "",
      "license_no": "第16524022号",
      "license_date": "2025-11-28",
      "expire_date": "2032-06-30"
    },
    {
      "name": "Ｃｈａｌｅｔ　ｄｅ　Ｍｏｎｔａｇｎｅ",
      "name_kana": "",
      "business_type": "菓子製造業",
      "address": "上水内郡飯綱町大字川上２７５５－１５９７",
      "lat": 36.737666575,
      "lng": 138.178618508,
      "geocoding_level": 8,
      "phone": "",
      "license_no": "第16524030号",
      "license_date": "2025-11-28",
      "expire_date": "2032-06-30"
    },
    {
      "name": "Ｃｈａｌｅｔ　ｄｅ　Ｍｏｎｔａｇｎｅ",
      "name_kana": "",
      "business_type": "そうざい製造業",
      "address": "上水内郡飯綱町大字川上２７５５－１５９７",
      "lat": 36.737666575,
      "lng": 138.178618508,
      "geocoding_level": 8,
      "phone": "",
      "license_no": "第16524047号",
      "license_date": "2025-11-28",
      "expire_date": "2032-06-30"
    },
    {
      "name": "チアさみず",
      "name_kana": "",
      "business_type": "漬物製造業",
      "address": "上水内郡飯綱町倉井２８９１－４",
      "lat": 36.753063246,
      "lng": 138.261151878,
      "geocoding_level": 8,
      "phone": "",
      "license_no": "第16516965号",
      "license_date": "2022-09-30",
      "expire_date": "2029-06-30"
    },
    {
      "name": "呼粋屋",
      "name_kana": "",
      "business_type": "菓子製造業",
      "address": "上水内郡飯綱町大字川上２７５５－１２１９",
      "lat": 36.739241,
      "lng": 138.186461,
      "geocoding_level": 3,
      "phone": "",
      "license_no": "第16517241号",
      "license_date": "2022-11-04",
      "expire_date": "2029-06-30"
    },
    {
      "name": "味処ふじよし（音楽堂ＭＡＭＩ）",
      "name_kana": "",
      "business_type": "菓子製造業",
      "address": "上水内郡飯綱町大字牟礼２７２６－３",
      "lat": 36.753401333,
      "lng": 138.236738455,
      "geocoding_level": 8,
      "phone": "",
      "license_no": "第16517298号",
      "license_date": "2022-11-11",
      "expire_date": "2029-06-30"
    },
    {
      "name": "ｆｌｅｕｒ",
      "name_kana": "",
      "business_type": "飲食店営業",
      "address": "上水内郡飯綱町赤塩１２３７－５",
      "lat": 36.764715638,
      "lng": 138.28307176,
      "geocoding_level": 8,
      "phone": "",
      "license_no": "第16518051号",
      "license_date": "2023-04-21",
      "expire_date": "2028-06-30"
    },
    {
      "name": "消灯珈琲",
      "name_kana": "",
      "business_type": "飲食店営業",
      "address": "上水内郡飯綱町大字牟礼５１３－１",
      "lat": 36.752334395,
      "lng": 138.245053908,
      "geocoding_level": 8,
      "phone": "",
      "license_no": "第16520223号",
      "license_date": "2024-03-29",
      "expire_date": "2030-06-30"
    },
    {
      "name": "三松館",
      "name_kana": "",
      "business_type": "飲食店営業",
      "address": "上水内郡飯綱町大字倉井４２７６番地",
      "lat": 36.752613568,
      "lng": 138.27761053500004,
      "geocoding_level": 8,
      "phone": "",
      "license_no": "第16505876号",
      "license_date": "2023-06-30",
      "expire_date": "2029-06-30"
    },
    {
      "name": "傳之丞",
      "name_kana": "",
      "business_type": "菓子製造業",
      "address": "上水内郡飯綱町大字倉井４２７６番地",
      "lat": 36.752613568,
      "lng": 138.27761053500004,
      "geocoding_level": 8,
      "phone": "",
      "license_no": "第16505851号",
      "license_date": "2023-06-30",
      "expire_date": "2029-06-30"
    },
    {
      "name": "有限会社信濃農園",
      "name_kana": "",
      "business_type": "食肉処理業",
      "address": "上水内郡飯綱町大字倉井２７２５番地",
      "lat": 36.756927737,
      "lng": 138.258318563,
      "geocoding_level": 8,
      "phone": "",
      "license_no": "第16281614号",
      "license_date": "2023-06-30",
      "expire_date": "2029-06-30"
    },
    {
      "name": "有限会社信濃農園",
      "name_kana": "",
      "business_type": "飲食店営業",
      "address": "上水内郡飯綱町大字倉井２７２５番地",
      "lat": 36.756927737,
      "lng": 138.258318563,
      "geocoding_level": 8,
      "phone": "",
      "license_no": "第16288271号",
      "license_date": "2023-06-30",
      "expire_date": "2028-06-30"
    },
    {
      "name": "キッチンカー",
      "name_kana": "",
      "business_type": "飲食店営業",
      "address": "上水内郡飯綱町大字牟礼２７９５－１",
      "lat": 36.754471559,
      "lng": 138.235595844,
      "geocoding_level": 8,
      "phone": "",
      "license_no": "第16507165号",
      "license_date": "2023-06-30",
      "expire_date": "2028-06-30"
    },
    {
      "name": "ＡＰＰＬＥ　ＪＡＣＫ",
      "name_kana": "",
      "business_type": "菓子製造業",
      "address": "上水内郡飯綱町倉井９３６",
      "lat": 36.753939132,
      "lng": 138.273575735,
      "geocoding_level": 8,
      "phone": "",
      "license_no": "第16299969号",
      "license_date": "2023-06-30",
      "expire_date": "2029-06-30"
    },
    {
      "name": "飯綱ハーバルブリーズ",
      "name_kana": "",
      "business_type": "飲食店営業",
      "address": "上水内郡飯綱町川上２７５５－２４５６",
      "lat": 36.739241,
      "lng": 138.186461,
      "geocoding_level": 3,
      "phone": "",
      "license_no": "第16518674号",
      "license_date": "2023-07-10",
      "expire_date": "2029-06-30"
    },
    {
      "name": "冬山りんご",
      "name_kana": "",
      "business_type": "飲食店営業",
      "address": "上水内郡飯綱町豊野１１８８",
      "lat": 36.742538,
      "lng": 138.2563,
      "geocoding_level": 3,
      "phone": "",
      "license_no": "第16519040号",
      "license_date": "2023-08-14",
      "expire_date": "2029-06-30"
    },
    {
      "name": "ＣＡＦＥ　ｉｓ　Ｋ．Ｔ",
      "name_kana": "",
      "business_type": "飲食店営業",
      "address": "上水内郡飯綱町大字牟礼字橋詰５３９－１",
      "lat": 36.744333,
      "lng": 138.238702,
      "geocoding_level": 3,
      "phone": "",
      "license_no": "第16519445号",
      "license_date": "2023-10-20",
      "expire_date": "2030-06-30"
    },
    {
      "name": "ＣＡＦＥ　ｉｓ　Ｋ．Ｔ",
      "name_kana": "",
      "business_type": "密封包装食品製造業",
      "address": "上水内郡飯綱町大字牟礼字橋詰５３９－１",
      "lat": 36.744333,
      "lng": 138.238702,
      "geocoding_level": 3,
      "phone": "",
      "license_no": "第16519452号",
      "license_date": "2023-10-20",
      "expire_date": "2030-06-30"
    },
    {
      "name": "ＣＡＦＥ　ｉｓ　Ｋ．Ｔ",
      "name_kana": "",
      "business_type": "麺類製造業",
      "address": "上水内郡飯綱町大字牟礼字橋詰５３９－１",
      "lat": 36.744333,
      "lng": 138.238702,
      "geocoding_level": 3,
      "phone": "",
      "license_no": "第16519460号",
      "license_date": "2023-10-20",
      "expire_date": "2030-06-30"
    },
    {
      "name": "ＣＡＦＥ　ｉｓ　Ｋ．Ｔ",
      "name_kana": "",
      "business_type": "そうざい製造業",
      "address": "上水内郡飯綱町大字牟礼字橋詰５３９－１",
      "lat": 36.744333,
      "lng": 138.238702,
      "geocoding_level": 3,
      "phone": "",
      "license_no": "第16519477号",
      "license_date": "2023-10-20",
      "expire_date": "2030-06-30"
    },
    {
      "name": "ＣＡＦＥ　ｉｓ　Ｋ．Ｔ",
      "name_kana": "",
      "business_type": "菓子製造業",
      "address": "上水内郡飯綱町大字牟礼字橋詰５３９－１",
      "lat": 36.744333,
      "lng": 138.238702,
      "geocoding_level": 3,
      "phone": "",
      "license_no": "第16519484号",
      "license_date": "2023-10-20",
      "expire_date": "2030-06-30"
    },
    {
      "name": "Ｃａｍｐａｎ．ｉｎｋ",
      "name_kana": "",
      "business_type": "飲食店営業",
      "address": "上水内郡飯綱町大字赤塩２４８９ いいづなコネクトＥＡＳＴ",
      "lat": 36.762996,
      "lng": 138.287712,
      "geocoding_level": 3,
      "phone": "",
      "license_no": "第16519720号",
      "license_date": "2023-12-01",
      "expire_date": "2029-06-30"
    },
    {
      "name": "株式会社ミスズライフ",
      "name_kana": "",
      "business_type": "飲食店営業",
      "address": "上水内郡飯綱町大字赤塩２０４番地２",
      "lat": 36.762996,
      "lng": 138.287712,
      "geocoding_level": 3,
      "phone": "",
      "license_no": "第16520198号",
      "license_date": "2024-03-22",
      "expire_date": "2029-06-30"
    },
    {
      "name": "カリブー",
      "name_kana": "",
      "business_type": "飲食店営業",
      "address": "上水内郡飯綱町大字川上２７５５－２０９",
      "lat": 36.737025779,
      "lng": 138.168219159,
      "geocoding_level": 8,
      "phone": "",
      "license_no": "第16279952号",
      "license_date": "2022-06-30",
      "expire_date": "2028-06-30"
    },
    {
      "name": "ミーティア",
      "name_kana": "",
      "business_type": "飲食店営業",
      "address": "上水内郡飯綱町大字川上２７５５－１８９４",
      "lat": 36.739241,
      "lng": 138.186461,
      "geocoding_level": 3,
      "phone": "",
      "license_no": "第16514505号",
      "license_date": "2021-08-02",
      "expire_date": "2028-06-30"
    },
    {
      "name": "レストラン　リバティベル　（２Ｆ）",
      "name_kana": "",
      "business_type": "飲食店営業",
      "address": "上水内郡飯綱町大字川上２７５５－２０９",
      "lat": 36.737025779,
      "lng": 138.168219159,
      "geocoding_level": 8,
      "phone": "",
      "license_no": "第16279960号",
      "license_date": "2022-06-30",
      "expire_date": "2028-06-30"
    },
    {
      "name": "レストラン　ポーラーベアー",
      "name_kana": "",
      "business_type": "飲食店営業",
      "address": "上水内郡飯綱町大字川上２７５５－２０９",
      "lat": 36.737025779,
      "lng": 138.168219159,
      "geocoding_level": 8,
      "phone": "",
      "license_no": "第16279945号",
      "license_date": "2024-06-28",
      "expire_date": "2030-06-30"
    },
    {
      "name": "グランルーク飯綱高原",
      "name_kana": "",
      "business_type": "飲食店営業",
      "address": "上水内郡飯綱町大字川上２７５５－１",
      "lat": 36.739241,
      "lng": 138.186461,
      "geocoding_level": 3,
      "phone": "",
      "license_no": "第16510072号",
      "license_date": "2025-06-30",
      "expire_date": "2031-06-30"
    },
    {
      "name": "さんびきのこぶた",
      "name_kana": "",
      "business_type": "飲食店営業",
      "address": "上水内郡飯綱町赤塩２４８９",
      "lat": 36.762996,
      "lng": 138.287712,
      "geocoding_level": 3,
      "phone": "",
      "license_no": "第16520344号",
      "license_date": "2024-04-19",
      "expire_date": "2029-04-30"
    },
    {
      "name": "飯綱町牟礼農林産物加工所",
      "name_kana": "",
      "business_type": "漬物製造業",
      "address": "上水内郡飯綱町大字川上１９７０－１",
      "lat": 36.737829059,
      "lng": 138.211364009,
      "geocoding_level": 8,
      "phone": "",
      "license_no": "第16520441号",
      "license_date": "2024-05-10",
      "expire_date": "2030-06-30"
    },
    {
      "name": "飯綱町牟礼農林産物加工所",
      "name_kana": "",
      "business_type": "みそ又はしょうゆ製造業",
      "address": "上水内郡飯綱町川上１９７０－１",
      "lat": 36.737829059,
      "lng": 138.211364009,
      "geocoding_level": 8,
      "phone": "",
      "license_no": "第16205641号",
      "license_date": "2025-06-30",
      "expire_date": "2031-06-30"
    },
    {
      "name": "飯綱町牟礼農林産物加工所",
      "name_kana": "",
      "business_type": "清涼飲料水製造業",
      "address": "上水内郡飯綱町川上１９７０－１",
      "lat": 36.737829059,
      "lng": 138.211364009,
      "geocoding_level": 8,
      "phone": "",
      "license_no": "第16205627号",
      "license_date": "2025-06-30",
      "expire_date": "2031-06-30"
    },
    {
      "name": "飯綱町牟礼農林畜産加工施設",
      "name_kana": "",
      "business_type": "漬物製造業",
      "address": "上水内郡飯綱町大字牟礼２５３８",
      "lat": 36.752978786,
      "lng": 138.235197,
      "geocoding_level": 8,
      "phone": "",
      "license_no": "第16520508号",
      "license_date": "2024-05-17",
      "expire_date": "2030-06-30"
    },
    {
      "name": "イッチェムコーヒーロースト",
      "name_kana": "",
      "business_type": "飲食店営業",
      "address": "上水内郡飯綱町川上2755-345",
      "lat": 36.739241,
      "lng": 138.186461,
      "geocoding_level": 3,
      "phone": "",
      "license_no": "第16520807号",
      "license_date": "2024-06-24",
      "expire_date": "2029-06-30"
    },
    {
      "name": "YAMA N CHILL HALELLUJAH",
      "name_kana": "",
      "business_type": "飲食店営業",
      "address": "上水内郡飯綱町川上2755－345",
      "lat": 36.739241,
      "lng": 138.186461,
      "geocoding_level": 3,
      "phone": "",
      "license_no": "第16520740号",
      "license_date": "2024-06-12",
      "expire_date": "2029-06-30"
    },
    {
      "name": "かまど炊き味噌酵房　おの",
      "name_kana": "",
      "business_type": "みそ又はしょうゆ製造業",
      "address": "上水内郡飯綱町倉井９３６",
      "lat": 36.753939132,
      "lng": 138.273575735,
      "geocoding_level": 8,
      "phone": "",
      "license_no": "第16225213号",
      "license_date": "2024-06-28",
      "expire_date": "2030-06-30"
    },
    {
      "name": "飯綱町障害者就労支援施設　たんぽぽ",
      "name_kana": "",
      "business_type": "飲食店営業",
      "address": "上水内郡飯綱町大字倉井５番地",
      "lat": 36.75550400000001,
      "lng": 138.260172,
      "geocoding_level": 3,
      "phone": "",
      "license_no": "第16286465号",
      "license_date": "2024-06-28",
      "expire_date": "2030-06-30"
    },
    {
      "name": "癒しの宿　ｓｉｎｒａ",
      "name_kana": "",
      "business_type": "飲食店営業",
      "address": "上水内郡飯綱町大字川上２７５５－４００",
      "lat": 36.739241,
      "lng": 138.186461,
      "geocoding_level": 3,
      "phone": "",
      "license_no": "第16291081号",
      "license_date": "2024-06-28",
      "expire_date": "2029-06-30"
    },
    {
      "name": "セブンイレブン　信州牟礼店",
      "name_kana": "",
      "business_type": "飲食店営業",
      "address": "上水内郡飯綱町豊野５４１９－１",
      "lat": 36.737533203,
      "lng": 138.248100711,
      "geocoding_level": 8,
      "phone": "",
      "license_no": "第16275718号",
      "license_date": "2024-06-28",
      "expire_date": "2029-06-30"
    },
    {
      "name": "ペンションひまわり",
      "name_kana": "",
      "business_type": "飲食店営業",
      "address": "上水内郡飯綱町大字川上２７５５－２３４７",
      "lat": 36.737040819,
      "lng": 138.179664739,
      "geocoding_level": 8,
      "phone": "",
      "license_no": "第16229375号",
      "license_date": "2022-06-30",
      "expire_date": "2028-06-30"
    },
    {
      "name": "ブラベリーファーム　キッチンカー",
      "name_kana": "",
      "business_type": "飲食店営業",
      "address": "上水内郡飯綱町大字倉井字大久保４５３４",
      "lat": 36.75550400000001,
      "lng": 138.260172,
      "geocoding_level": 3,
      "phone": "",
      "license_no": "第16520861号",
      "license_date": "2024-07-04",
      "expire_date": "2030-06-30"
    },
    {
      "name": "みみずや共同加工所",
      "name_kana": "",
      "business_type": "飲食店営業",
      "address": "上水内郡飯綱町大字川上字中島１５４１番地",
      "lat": 36.739241,
      "lng": 138.186461,
      "geocoding_level": 3,
      "phone": "",
      "license_no": "第16520942号",
      "license_date": "2024-08-30",
      "expire_date": "2031-06-30"
    },
    {
      "name": "みみずや共同加工所",
      "name_kana": "",
      "business_type": "密封包装食品製造業",
      "address": "上水内郡飯綱町大字川上字中島１５４１番地",
      "lat": 36.739241,
      "lng": 138.186461,
      "geocoding_level": 3,
      "phone": "",
      "license_no": "第16521275号",
      "license_date": "2024-09-20",
      "expire_date": "2031-06-30"
    },
    {
      "name": "三日月庵",
      "name_kana": "",
      "business_type": "飲食店営業",
      "address": "上水内郡飯綱町牟礼５１１―５",
      "lat": 36.752603143,
      "lng": 138.245332863,
      "geocoding_level": 8,
      "phone": "",
      "license_no": "第16068744号",
      "license_date": "2022-06-30",
      "expire_date": "2028-06-30"
    },
    {
      "name": "パンと本の店　朝と夕",
      "name_kana": "",
      "business_type": "飲食店営業",
      "address": "上水内郡飯綱町普光寺４４１－１",
      "lat": 36.761963025,
      "lng": 138.245996157,
      "geocoding_level": 8,
      "phone": "",
      "license_no": "第16522427号",
      "license_date": "2025-06-06",
      "expire_date": "2031-06-30"
    },
    {
      "name": "パンと本の店　朝と夕",
      "name_kana": "",
      "business_type": "菓子製造業",
      "address": "上水内郡飯綱町普光寺４４１－１",
      "lat": 36.761963025,
      "lng": 138.245996157,
      "geocoding_level": 8,
      "phone": "",
      "license_no": "第16522434号",
      "license_date": "2025-06-06",
      "expire_date": "2031-06-30"
    },
    {
      "name": "山本食品株式会社　飯綱町十割そば専用工場",
      "name_kana": "",
      "business_type": "麺類製造業",
      "address": "上水内郡飯綱町大字牟礼１７８０－１",
      "lat": 36.745276069,
      "lng": 138.232458311,
      "geocoding_level": 8,
      "phone": "",
      "license_no": "第16507788号",
      "license_date": "2025-06-30",
      "expire_date": "2031-06-30"
    },
    {
      "name": "御宿　上倉荘",
      "name_kana": "",
      "business_type": "飲食店営業",
      "address": "上水内郡飯綱町川上２７５５－９４６",
      "lat": 36.739241,
      "lng": 138.186461,
      "geocoding_level": 3,
      "phone": "",
      "license_no": "第16272331号",
      "license_date": "2025-06-30",
      "expire_date": "2031-06-30"
    },
    {
      "name": "（有）明月堂",
      "name_kana": "",
      "business_type": "菓子製造業",
      "address": "上水内郡飯綱町牟礼２７２４",
      "lat": 36.744333,
      "lng": 138.238702,
      "geocoding_level": 3,
      "phone": "",
      "license_no": "第16003547号",
      "license_date": "2025-06-30",
      "expire_date": "2031-06-30"
    },
    {
      "name": "第一スーパー飯綱店",
      "name_kana": "",
      "business_type": "飲食店営業",
      "address": "上水内郡飯綱町普光寺９７０－１",
      "lat": 36.753264371,
      "lng": 138.241553214,
      "geocoding_level": 8,
      "phone": "",
      "license_no": "第16241242号",
      "license_date": "2025-06-30",
      "expire_date": "2031-06-30"
    },
    {
      "name": "ブレーメン",
      "name_kana": "",
      "business_type": "飲食店営業",
      "address": "上水内郡飯綱町坂口３５２",
      "lat": 36.717536,
      "lng": 138.202061,
      "geocoding_level": 3,
      "phone": "",
      "license_no": "第16289583号",
      "license_date": "2025-06-30",
      "expire_date": "2031-06-30"
    },
    {
      "name": "アリコ・ルージュ",
      "name_kana": "",
      "business_type": "飲食店営業",
      "address": "上水内郡飯綱町川上２７５５－１９１８",
      "lat": 36.739241,
      "lng": 138.186461,
      "geocoding_level": 3,
      "phone": "",
      "license_no": "第16241737号",
      "license_date": "2025-06-30",
      "expire_date": "2031-06-30"
    },
    {
      "name": "セブン・イレブン　三水普光寺店",
      "name_kana": "",
      "business_type": "飲食店営業",
      "address": "上水内郡飯綱町大字普光寺９６８番４",
      "lat": 36.753475561,
      "lng": 138.240559371,
      "geocoding_level": 8,
      "phone": "",
      "license_no": "第16295934号",
      "license_date": "2025-06-30",
      "expire_date": "2030-06-30"
    },
    {
      "name": "麦工房　ノラ",
      "name_kana": "",
      "business_type": "菓子製造業",
      "address": "上水内郡飯綱町大字倉井１３３５",
      "lat": 36.757657287,
      "lng": 138.262302589,
      "geocoding_level": 8,
      "phone": "",
      "license_no": "第16239896号",
      "license_date": "2025-06-30",
      "expire_date": "2031-06-30"
    },
    {
      "name": "飯綱　珈琲物語",
      "name_kana": "",
      "business_type": "飲食店営業",
      "address": "上水内郡飯綱町川上２７５５番１５９５",
      "lat": 36.738231347,
      "lng": 138.178864677,
      "geocoding_level": 8,
      "phone": "",
      "license_no": "第16288920号",
      "license_date": "2025-06-30",
      "expire_date": "2031-06-30"
    },
    {
      "name": "ファミリーマート飯綱町塩ノ入店",
      "name_kana": "",
      "business_type": "飲食店営業",
      "address": "上水内郡飯綱町大字普光寺字土手裏２９９番地２",
      "lat": 36.767816,
      "lng": 138.234512,
      "geocoding_level": 3,
      "phone": "",
      "license_no": "第16294572号",
      "license_date": "2025-06-30",
      "expire_date": "2030-06-30"
    },
    {
      "name": "アイセレモニー飯綱ホール",
      "name_kana": "",
      "business_type": "飲食店営業",
      "address": "上水内郡飯綱町大字黒川２４１５",
      "lat": 36.744307,
      "lng": 138.224311,
      "geocoding_level": 3,
      "phone": "",
      "license_no": "第16522676号",
      "license_date": "2025-07-25",
      "expire_date": "2032-06-30"
    },
    {
      "name": "あんとわん",
      "name_kana": "",
      "business_type": "飲食店営業",
      "address": "上水内郡飯綱町大字豊野５３４２－３７",
      "lat": 36.739506819,
      "lng": 138.249552258,
      "geocoding_level": 8,
      "phone": "",
      "license_no": "第16523454号",
      "license_date": "2025-09-05",
      "expire_date": "2032-06-30"
    },
    {
      "name": "ＪＡホール　いいづな",
      "name_kana": "",
      "business_type": "飲食店営業",
      "address": "上水内郡飯綱町大字普光寺９３７",
      "lat": 36.767816,
      "lng": 138.234512,
      "geocoding_level": 3,
      "phone": "",
      "license_no": "第16515062号",
      "license_date": "2021-11-12",
      "expire_date": "2028-06-30"
    },
    {
      "name": "ＪＡホールいいづな別館",
      "name_kana": "",
      "business_type": "飲食店営業",
      "address": "長野県上水内郡飯綱町大字普光寺９３７",
      "lat": 36.767816,
      "lng": 138.234512,
      "geocoding_level": 3,
      "phone": "",
      "license_no": "第16511620号",
      "license_date": "2019-12-18",
      "expire_date": "2026-06-30"
    },
    {
      "name": "丸西農園",
      "name_kana": "",
      "business_type": "密封包装食品製造業",
      "address": "上水内郡飯綱町赤塩２４６７－１",
      "lat": 36.767394093,
      "lng": 138.284335914,
      "geocoding_level": 8,
      "phone": "",
      "license_no": "第16519324号",
      "license_date": "2023-09-29",
      "expire_date": "2030-06-30"
    },
    {
      "name": "明月堂ファクトリー",
      "name_kana": "",
      "business_type": "菓子製造業",
      "address": "上水内郡飯綱町大字牟礼字裏町２５１３",
      "lat": 36.744333,
      "lng": 138.238702,
      "geocoding_level": 3,
      "phone": "",
      "license_no": "第16524428号",
      "license_date": "2026-03-06",
      "expire_date": "2032-06-30"
    },
    {
      "name": "アップルテラス（いいづなマルシェ　むーちゃん内）",
      "name_kana": "",
      "business_type": "飲食店営業",
      "address": "上水内郡飯綱町牟礼１－１ いいづなマルシェむーちゃん内",
      "lat": 36.738445432,
      "lng": 138.247196326,
      "geocoding_level": 8,
      "phone": "",
      "license_no": "第16512170号",
      "license_date": "2020-05-22",
      "expire_date": "2026-06-30"
    },
    {
      "name": "相澤農園加工所",
      "name_kana": "",
      "business_type": "清涼飲料水製造業",
      "address": "上水内郡飯綱町大字芋川１２０９",
      "lat": 36.765427546,
      "lng": 138.259428231,
      "geocoding_level": 8,
      "phone": "",
      "license_no": "第16524816号",
      "license_date": "2026-04-24",
      "expire_date": "2032-06-30"
    },
    {
      "name": "ワイナリーレストラン・サンクゼール",
      "name_kana": "",
      "business_type": "そうざい製造業",
      "address": "上水内郡飯綱町大字芋川１２６０番地",
      "lat": 36.767356368,
      "lng": 138.262900196,
      "geocoding_level": 8,
      "phone": "",
      "license_no": "第16519146号",
      "license_date": "2023-09-08",
      "expire_date": "2030-06-30"
    },
    {
      "name": "ワイナリーレストランサンクゼール",
      "name_kana": "",
      "business_type": "飲食店営業",
      "address": "上水内郡飯綱町大字芋川１２６０番地",
      "lat": 36.767356368,
      "lng": 138.262900196,
      "geocoding_level": 8,
      "phone": "",
      "license_no": "第16507471号",
      "license_date": "2024-06-28",
      "expire_date": "2030-06-30"
    },
    {
      "name": "サンクゼールワイナリー本店",
      "name_kana": "",
      "business_type": "飲食店営業",
      "address": "上水内郡飯綱町大字芋川１２６０番地",
      "lat": 36.767356368,
      "lng": 138.262900196,
      "geocoding_level": 8,
      "phone": "",
      "license_no": "第16288046号",
      "license_date": "2023-06-30",
      "expire_date": "2028-06-30"
    },
    {
      "name": "サンクゼールワイナリー本店",
      "name_kana": "",
      "business_type": "飲食店営業",
      "address": "上水内郡飯綱町大字芋川１２６０番地",
      "lat": 36.767356368,
      "lng": 138.262900196,
      "geocoding_level": 8,
      "phone": "",
      "license_no": "第16288053号",
      "license_date": "2023-06-30",
      "expire_date": "2028-06-30"
    },
    {
      "name": "むれ温泉　天狗の館",
      "name_kana": "",
      "business_type": "飲食店営業",
      "address": "長野県上水内郡飯綱町大字川上２７５５－２０９",
      "lat": 36.737025779,
      "lng": 138.168219159,
      "geocoding_level": 8,
      "phone": "",
      "license_no": "第16512041号",
      "license_date": "2020-04-01",
      "expire_date": "2026-06-30"
    },
    {
      "name": "むれ温泉　天狗の館　喫茶コーナー",
      "name_kana": "",
      "business_type": "飲食店営業",
      "address": "長野県上水内郡飯綱町大字川上２７５５－２０９",
      "lat": 36.737025779,
      "lng": 138.168219159,
      "geocoding_level": 8,
      "phone": "",
      "license_no": "第16512059号",
      "license_date": "2020-04-01",
      "expire_date": "2026-06-30"
    },
    {
      "name": "ショップ　アムール",
      "name_kana": "",
      "business_type": "飲食店営業",
      "address": "長野県上水内郡飯綱町大字川上２７５５－２０９",
      "lat": 36.737025779,
      "lng": 138.168219159,
      "geocoding_level": 8,
      "phone": "",
      "license_no": "第16512066号",
      "license_date": "2020-04-01",
      "expire_date": "2026-06-30"
    },
    {
      "name": "富士通労働組合総合センター",
      "name_kana": "",
      "business_type": "飲食店営業",
      "address": "上水内郡飯綱町大字高坂字中原１３０８－６３",
      "lat": 36.724563,
      "lng": 138.193702,
      "geocoding_level": 3,
      "phone": "",
      "license_no": "第16190591号",
      "license_date": "2019-06-28",
      "expire_date": "2026-06-30"
    },
    {
      "name": "サンクゼールワイナリー本店",
      "name_kana": "",
      "business_type": "飲食店営業",
      "address": "上水内郡飯綱町大字芋川１２６０番地",
      "lat": 36.767356368,
      "lng": 138.262900196,
      "geocoding_level": 8,
      "phone": "",
      "license_no": "第16298867号",
      "license_date": "2022-06-30",
      "expire_date": "2028-06-30"
    },
    {
      "name": "サンクゼールワイナリー本店",
      "name_kana": "",
      "business_type": "菓子製造業",
      "address": "上水内郡飯綱町大字芋川１２６０番地",
      "lat": 36.767356368,
      "lng": 138.262900196,
      "geocoding_level": 8,
      "phone": "",
      "license_no": "第16519153号",
      "license_date": "2023-09-08",
      "expire_date": "2030-06-30"
    },
    {
      "name": "サンクゼールワイナリー本店",
      "name_kana": "",
      "business_type": "飲食店営業",
      "address": "上水内郡飯綱町大字芋川１２６０番地",
      "lat": 36.767356368,
      "lng": 138.262900196,
      "geocoding_level": 8,
      "phone": "",
      "license_no": "第16520401号",
      "license_date": "2024-05-10",
      "expire_date": "2030-06-30"
    },
    {
      "name": "横手直売所　四季菜",
      "name_kana": "ヨコテチョクバイジョ　シキサイ",
      "business_type": "① 魚介類販売業（包装済みの魚介類のみの販売）",
      "address": "長野県上水内郡飯綱町柳里６２８番地１",
      "lat": 36.742366,
      "lng": 138.205035,
      "geocoding_level": null,
      "phone": "026-253-5153",
      "license_no": "",
      "license_date": null,
      "expire_date": null
    },
    {
      "name": "横手直売所　四季菜",
      "name_kana": "ヨコテチョクバイジョ　シキサイ",
      "business_type": "② 食肉販売業（包装済みの食肉のみの販売）",
      "address": "長野県上水内郡飯綱町柳里６２８番地１",
      "lat": 36.742366,
      "lng": 138.205035,
      "geocoding_level": null,
      "phone": "026-253-5153",
      "license_no": "",
      "license_date": null,
      "expire_date": null
    },
    {
      "name": "横手直売所　四季菜",
      "name_kana": "ヨコテチョクバイジョ　シキサイ",
      "business_type": "③ 乳類販売業",
      "address": "長野県上水内郡飯綱町柳里６２８番地１",
      "lat": 36.742366,
      "lng": 138.205035,
      "geocoding_level": null,
      "phone": "026-253-5153",
      "license_no": "",
      "license_date": null,
      "expire_date": null
    },
    {
      "name": "そば処　よこ亭",
      "name_kana": "ソバドコロ　ヨコテイ",
      "business_type": "㉔ 麺類製造業",
      "address": "長野県上水内郡飯綱町柳里８４７－３",
      "lat": 36.743631,
      "lng": 138.205622,
      "geocoding_level": null,
      "phone": "026-253-8287",
      "license_no": "16226728",
      "license_date": "2021-06-30",
      "expire_date": "2026-06-30"
    },
    {
      "name": "農産物直売所　さんちゃん",
      "name_kana": "ノウサンブツチョクバイジョ　サンチャン",
      "business_type": "① 魚介類販売業（包装済みの魚介類のみの販売）",
      "address": "長野県上水内郡飯綱町倉井２８９１－４",
      "lat": 36.7531,
      "lng": 138.261062,
      "geocoding_level": null,
      "phone": "026-253-0033",
      "license_no": "",
      "license_date": null,
      "expire_date": null
    },
    {
      "name": "農産物直売所　さんちゃん",
      "name_kana": "ノウサンブツチョクバイジョ　サンチャン",
      "business_type": "② 食肉販売業（包装済みの食肉のみの販売）",
      "address": "長野県上水内郡飯綱町倉井２８９１－４",
      "lat": 36.7531,
      "lng": 138.261062,
      "geocoding_level": null,
      "phone": "026-253-0033",
      "license_no": "",
      "license_date": null,
      "expire_date": null
    },
    {
      "name": "農産物直売所　さんちゃん",
      "name_kana": "ノウサンブツチョクバイジョ　サンチャン",
      "business_type": "③ 乳類販売業",
      "address": "長野県上水内郡飯綱町倉井２８９１－４",
      "lat": 36.7531,
      "lng": 138.261062,
      "geocoding_level": null,
      "phone": "026-253-0033",
      "license_no": "",
      "license_date": null,
      "expire_date": null
    },
    {
      "name": "いいづなマルシェ　むーちゃん",
      "name_kana": "イイヅナマルシェ　ムーチャン",
      "business_type": "① 魚介類販売業（包装済みの魚介類のみの販売）",
      "address": "長野県上水内郡飯綱町牟礼１－１",
      "lat": 36.73837,
      "lng": 138.246949,
      "geocoding_level": null,
      "phone": "026-253-5153",
      "license_no": "",
      "license_date": null,
      "expire_date": null
    },
    {
      "name": "いいづなマルシェ　むーちゃん",
      "name_kana": "イイヅナマルシェ　ムーチャン",
      "business_type": "② 食肉販売業（包装済みの食肉のみの販売）",
      "address": "長野県上水内郡飯綱町牟礼１－１",
      "lat": 36.73837,
      "lng": 138.246949,
      "geocoding_level": null,
      "phone": "026-253-5153",
      "license_no": "",
      "license_date": null,
      "expire_date": null
    },
    {
      "name": "いいづなマルシェ　むーちゃん",
      "name_kana": "イイヅナマルシェ　ムーチャン",
      "business_type": "③ 乳類販売業",
      "address": "長野県上水内郡飯綱町牟礼１－１",
      "lat": 36.73837,
      "lng": 138.246949,
      "geocoding_level": null,
      "phone": "026-253-5153",
      "license_no": "",
      "license_date": null,
      "expire_date": null
    },
    {
      "name": "地場産工房そば処　よこ亭",
      "name_kana": "ジバサンコウボウソバドコロ　ヨコテイ",
      "business_type": "① 飲食店営業",
      "address": "長野県上水内郡飯綱町大字柳里８４７－３",
      "lat": 36.743631,
      "lng": 138.205622,
      "geocoding_level": null,
      "phone": "0262538287",
      "license_no": "16220846",
      "license_date": "2022-06-30",
      "expire_date": "2028-06-30"
    },
    {
      "name": "横手直売所　四季菜",
      "name_kana": "ヨコテチョクバイジョ　シキサイ",
      "business_type": "① 飲食店営業",
      "address": "長野県上水内郡飯綱町大字柳里６２８番地１",
      "lat": 36.742366,
      "lng": 138.205035,
      "geocoding_level": null,
      "phone": "026-253-5153",
      "license_no": "16507578",
      "license_date": "2024-06-28",
      "expire_date": "2030-06-30"
    },
    {
      "name": "横手直売所　四季菜",
      "name_kana": "ヨコテチョクバイジョ　シキサイ",
      "business_type": "⑪ 菓子製造業",
      "address": "長野県上水内郡飯綱町大字柳里６２８番地１",
      "lat": 36.742366,
      "lng": 138.205035,
      "geocoding_level": null,
      "phone": "026-253-5153",
      "license_no": "16507585",
      "license_date": "2024-06-28",
      "expire_date": "2030-06-30"
    },
    {
      "name": "有限会社飯綱町ふるさと振興公社",
      "name_kana": "ユウゲンガイシャイイヅナマチフルサトシンコウコウシャ",
      "business_type": "① 飲食店営業",
      "address": "長野県上水内郡飯綱町大字柳里６２８－１",
      "lat": 36.742366,
      "lng": 138.205035,
      "geocoding_level": null,
      "phone": "",
      "license_no": "16520885",
      "license_date": "2024-07-05",
      "expire_date": "2030-06-30"
    },
    {
      "name": "",
      "name_kana": "",
      "business_type": "① 飲食店営業",
      "address": "長野県上水内郡飯綱町大字芋川１２６０番地",
      "lat": 36.767842,
      "lng": 138.26337,
      "geocoding_level": null,
      "phone": "0262538002",
      "license_no": "16298867",
      "license_date": "2022-06-30",
      "expire_date": "2028-06-30"
    },
    {
      "name": "サンクゼールワイナリー本店",
      "name_kana": "サンクゼールワイナリーホンテン",
      "business_type": "① 飲食店営業",
      "address": "長野県上水内郡飯綱町大字芋川１２６０番地",
      "lat": 36.767784,
      "lng": 138.263117,
      "geocoding_level": null,
      "phone": "026-253-8002",
      "license_no": "16288046",
      "license_date": "2023-06-30",
      "expire_date": "2028-06-30"
    },
    {
      "name": "サンクゼールワイナリー本店",
      "name_kana": "サンクゼールワイナリーホンテン",
      "business_type": "① 飲食店営業",
      "address": "長野県上水内郡飯綱町大字芋川１２６０番地",
      "lat": 36.767784,
      "lng": 138.263117,
      "geocoding_level": null,
      "phone": "026-253-8002",
      "license_no": "16288053",
      "license_date": "2023-06-30",
      "expire_date": "2028-06-30"
    },
    {
      "name": "ワイナリーレストラン・サンクゼール",
      "name_kana": "ワイナリーレストラン・サンクゼール",
      "business_type": "㉕ そうざい製造業",
      "address": "長野県上水内郡飯綱町大字芋川１２６０番地",
      "lat": 36.767842,
      "lng": 138.26337,
      "geocoding_level": null,
      "phone": "026-253-8070",
      "license_no": "16519146",
      "license_date": "2023-09-08",
      "expire_date": "2030-06-30"
    },
    {
      "name": "サンクゼールワイナリー・久世福商店　本店",
      "name_kana": "サンクゼールワイナリークゼフクショウテン　ホンテン",
      "business_type": "① 飲食店営業",
      "address": "長野県上水内郡飯綱町大字芋川１２６０番地",
      "lat": 36.767784,
      "lng": 138.263117,
      "geocoding_level": null,
      "phone": "",
      "license_no": "16520401",
      "license_date": "2024-05-10",
      "expire_date": "2030-06-30"
    },
    {
      "name": "ワイナリーレストランサンクゼール",
      "name_kana": "ワイナリーレストランサンクゼール",
      "business_type": "① 飲食店営業",
      "address": "長野県上水内郡飯綱町大字芋川１２６０番地",
      "lat": 36.767784,
      "lng": 138.263117,
      "geocoding_level": null,
      "phone": "026-253-8070",
      "license_no": "16507471",
      "license_date": "2024-06-28",
      "expire_date": "2030-06-30"
    },
    {
      "name": "さみず農産物加工組合　チアさみず",
      "name_kana": "サミズノウサンブツカコウクミアイ　チアサミズ",
      "business_type": "⑪ 菓子製造業",
      "address": "長野県上水内郡飯綱町大字倉井２８９１－４",
      "lat": 36.753103,
      "lng": 138.261082,
      "geocoding_level": null,
      "phone": "026-253-0032",
      "license_no": "16514302",
      "license_date": "2021-06-30",
      "expire_date": "2027-06-30"
    },
    {
      "name": "さみず農産物加工組合　チアさみず",
      "name_kana": "サミズノウサンブツカコウクミアイ　チアサミズ",
      "business_type": "㉕ そうざい製造業",
      "address": "長野県上水内郡飯綱町大字倉井２８９１－４",
      "lat": 36.753024,
      "lng": 138.26077,
      "geocoding_level": null,
      "phone": "026-253-0032",
      "license_no": "16514327",
      "license_date": "2021-06-30",
      "expire_date": "2027-06-30"
    },
    {
      "name": "さみず農産物加工組合　チアさみず",
      "name_kana": "サミズノウサンブツカコウクミアイ　チアサミズ",
      "business_type": "⑳ みそ又はしょうゆ製造業",
      "address": "長野県上水内郡飯綱町大字倉井２８９１－４",
      "lat": 36.753103,
      "lng": 138.261082,
      "geocoding_level": null,
      "phone": "026-253-0032",
      "license_no": "16514310",
      "license_date": "2021-06-30",
      "expire_date": "2027-06-30"
    },
    {
      "name": "飯綱支所",
      "name_kana": "イイズナシショ",
      "business_type": "① 飲食店営業",
      "address": "長野県上水内郡飯綱町普光寺９３７",
      "lat": 36.753498,
      "lng": 138.244464,
      "geocoding_level": null,
      "phone": "026-253-6349",
      "license_no": "16208057",
      "license_date": "2021-06-30",
      "expire_date": "2026-06-30"
    },
    {
      "name": "飯綱支所",
      "name_kana": "イイズナシショ",
      "business_type": "① 飲食店営業",
      "address": "長野県上水内郡飯綱町普光寺９３７",
      "lat": 36.753498,
      "lng": 138.244464,
      "geocoding_level": null,
      "phone": "026-253-6349",
      "license_no": "16208064",
      "license_date": "2021-06-30",
      "expire_date": "2026-06-30"
    },
    {
      "name": "飯綱支所",
      "name_kana": "イイズナシショ",
      "business_type": "① 飲食店営業",
      "address": "長野県上水内郡飯綱町普光寺９３７",
      "lat": 36.753498,
      "lng": 138.244464,
      "geocoding_level": null,
      "phone": "026-253-6349",
      "license_no": "16208071",
      "license_date": "2021-06-30",
      "expire_date": "2026-06-30"
    },
    {
      "name": "特別養護老人ホーム　矢筒荘",
      "name_kana": "ヤヅヅソウ",
      "business_type": "① 飲食店営業",
      "address": "長野県上水内郡飯綱町牟礼２２２７",
      "lat": 36.748397,
      "lng": 138.234781,
      "geocoding_level": null,
      "phone": "026-253-6666",
      "license_no": "16277691",
      "license_date": "2021-06-30",
      "expire_date": "2027-06-30"
    },
    {
      "name": "サンクゼール",
      "name_kana": "サンクゼール",
      "business_type": "① 飲食店営業",
      "address": "長野県上水内郡飯綱町大字芋川１２６０番地",
      "lat": 36.767784,
      "lng": 138.263117,
      "geocoding_level": null,
      "phone": "026-253-7006",
      "license_no": "16281692",
      "license_date": "2021-06-30",
      "expire_date": "2026-06-30"
    },
    {
      "name": "サンクゼール",
      "name_kana": "サンクゼール",
      "business_type": "① 飲食店営業",
      "address": "長野県上水内郡飯綱町大字芋川１２６０番地",
      "lat": 36.767784,
      "lng": 138.263117,
      "geocoding_level": null,
      "phone": "026-253-7006",
      "license_no": "16281703",
      "license_date": "2021-06-30",
      "expire_date": "2026-06-30"
    },
    {
      "name": "ＭＯＮ　ｍａｒｕｓｈｉｍｅ",
      "name_kana": "モンマルシメ",
      "business_type": "① 飲食店営業",
      "address": "長野県上水内郡飯綱町豊野１７５２番地",
      "lat": 36.743953,
      "lng": 138.251778,
      "geocoding_level": null,
      "phone": "026-217-2009",
      "license_no": "16295158",
      "license_date": "2021-06-30",
      "expire_date": "2027-06-30"
    },
    {
      "name": "ＭＯＮ　ｍａｒｕｓｈｉｍｅ",
      "name_kana": "モン　マルシメ",
      "business_type": "① 飲食店営業",
      "address": "長野県上水内郡飯綱町豊野１７５２番地",
      "lat": 36.743963,
      "lng": 138.251792,
      "geocoding_level": null,
      "phone": "",
      "license_no": "16507981",
      "license_date": "2023-06-30",
      "expire_date": "2028-06-30"
    },
    {
      "name": "飯綱町りんごの里まつり",
      "name_kana": "イイヅナマチリンゴノサトマツリ",
      "business_type": "④ 魚介類販売業",
      "address": "長野県上水内郡飯綱町大字牟礼１９８９番地",
      "lat": 36.741807,
      "lng": 138.237309,
      "geocoding_level": null,
      "phone": "026-253-2511",
      "license_no": "16296987",
      "license_date": "2021-06-30",
      "expire_date": "2026-06-30"
    },
    {
      "name": "飯綱町りんごの里まつり",
      "name_kana": "イイヅナマチリンゴノサトマツリ",
      "business_type": "① 飲食店営業",
      "address": "長野県上水内郡飯綱町大字牟礼１９８９番地",
      "lat": 36.741807,
      "lng": 138.237309,
      "geocoding_level": null,
      "phone": "026-253-2511",
      "license_no": "16296970",
      "license_date": "2021-06-30",
      "expire_date": "2026-06-30"
    },
    {
      "name": "飯綱町イベント部会",
      "name_kana": "イイヅナマチイベントブカイ",
      "business_type": "① 飲食店営業",
      "address": "長野県上水内郡飯綱町大字牟礼２７９５－１",
      "lat": 36.754613,
      "lng": 138.23556,
      "geocoding_level": null,
      "phone": "026-253-2511",
      "license_no": "16297006",
      "license_date": "2021-06-30",
      "expire_date": "2026-06-30"
    },
    {
      "name": "飯綱町イベント部会",
      "name_kana": "イイヅナマチイベントブカイ",
      "business_type": "① 飲食店営業",
      "address": "長野県上水内郡飯綱町大字牟礼２７９５－１",
      "lat": 36.754613,
      "lng": 138.23556,
      "geocoding_level": null,
      "phone": "026-253-2511",
      "license_no": "16296994",
      "license_date": "2021-06-30",
      "expire_date": "2026-06-30"
    },
    {
      "name": "飯綱町イベント部会",
      "name_kana": "イイヅナマチイベントブカイ",
      "business_type": "① 飲食店営業",
      "address": "長野県上水内郡飯綱町大字牟礼２７９５－１",
      "lat": 36.754613,
      "lng": 138.23556,
      "geocoding_level": null,
      "phone": "026-253-2511",
      "license_no": "16297013",
      "license_date": "2021-06-30",
      "expire_date": "2026-06-30"
    },
    {
      "name": "飯綱町イベント部会",
      "name_kana": "イイヅナマチイベントブカイ",
      "business_type": "① 飲食店営業",
      "address": "長野県上水内郡飯綱町大字牟礼２７９５－１",
      "lat": 36.754613,
      "lng": 138.23556,
      "geocoding_level": null,
      "phone": "026-253-2511",
      "license_no": "16297021",
      "license_date": "2021-06-30",
      "expire_date": "2026-06-30"
    },
    {
      "name": "飯綱町イベント部会",
      "name_kana": "イイヅナマチイベントブカイ",
      "business_type": "① 飲食店営業",
      "address": "長野県上水内郡飯綱町大字牟礼２７９５－１",
      "lat": 36.754613,
      "lng": 138.23556,
      "geocoding_level": null,
      "phone": "026-253-2511",
      "license_no": "16297038",
      "license_date": "2021-06-30",
      "expire_date": "2026-06-30"
    },
    {
      "name": "飯綱町牟礼農林産物加工所　味研究委員会",
      "name_kana": "イイヅナマチムレノウリンサンブツカコウジョ　アジケンキュウイインカイ",
      "business_type": "⑳ みそ又はしょうゆ製造業",
      "address": "長野県上水内郡飯綱町大字川上１９７０－１",
      "lat": 36.737832,
      "lng": 138.211438,
      "geocoding_level": null,
      "phone": "000-000-0000",
      "license_no": "16206152",
      "license_date": "2021-06-30",
      "expire_date": "2026-06-30"
    },
    {
      "name": "さかえや商店",
      "name_kana": "サカエヤショウテン",
      "business_type": "③ 食肉販売業",
      "address": "長野県上水内郡飯綱町大字普光寺９２１－１",
      "lat": 36.754451,
      "lng": 138.244287,
      "geocoding_level": null,
      "phone": "026-253-2046",
      "license_no": "16295910",
      "license_date": "2021-06-30",
      "expire_date": "2027-06-30"
    },
    {
      "name": "Ｓａｎｄ　ｇｌａｓｓ",
      "name_kana": "サンド　グラス",
      "business_type": "① 飲食店営業",
      "address": "長野県上水内郡飯綱町大字牟礼５０９番３号 （丸為旅館内）",
      "lat": 36.752776,
      "lng": 138.246245,
      "geocoding_level": null,
      "phone": "080-6938-8855",
      "license_no": "16514341",
      "license_date": "2021-07-02",
      "expire_date": "2028-06-30"
    },
    {
      "name": "noon farm",
      "name_kana": "ヌーンファーム",
      "business_type": "⑰ 農産保存食料品製造・加工業",
      "address": "長野県上水内郡飯綱町普光寺620-1",
      "lat": 36.760513,
      "lng": 138.244085,
      "geocoding_level": null,
      "phone": "0264056840",
      "license_no": "",
      "license_date": null,
      "expire_date": null
    },
    {
      "name": "とちのき給食室",
      "name_kana": "トチノキキュウショクシツ",
      "business_type": "① 飲食店営業",
      "address": "長野県上水内郡飯綱町大字川上１５３５",
      "lat": 36.7355,
      "lng": 138.212662,
      "geocoding_level": null,
      "phone": "026-219-1210",
      "license_no": "16514398",
      "license_date": "2021-07-16",
      "expire_date": "2028-06-30"
    },
    {
      "name": "とちのき給食室",
      "name_kana": "トチノキキュウショクシツ",
      "business_type": "㉕ そうざい製造業",
      "address": "長野県上水内郡飯綱町大字川上１５３５",
      "lat": 36.7355,
      "lng": 138.212662,
      "geocoding_level": null,
      "phone": "026-219-1210",
      "license_no": "16514409",
      "license_date": "2021-07-16",
      "expire_date": "2028-06-30"
    },
    {
      "name": "泉が丘喫茶室",
      "name_kana": "イズミガオカキッサシツ",
      "business_type": "① 飲食店営業",
      "address": "長野県上水内郡飯綱町大字赤塩２４８９",
      "lat": 36.768007,
      "lng": 138.285361,
      "geocoding_level": null,
      "phone": "026-253-3211",
      "license_no": "16516805",
      "license_date": "2022-09-09",
      "expire_date": "2028-06-30"
    },
    {
      "name": "いいづなコネクト　EAST",
      "name_kana": "イイヅナコネクトイースト",
      "business_type": "① 飲食店営業",
      "address": "長野県上水内郡飯綱町赤塩2489",
      "lat": 36.768007,
      "lng": 138.285361,
      "geocoding_level": null,
      "phone": "",
      "license_no": "16516901",
      "license_date": "2022-09-27",
      "expire_date": "2028-06-30"
    },
    {
      "name": "有限会社八幡屋礒五郎　牟礼工場",
      "name_kana": "ユウゲンガイシャヤワタヤイソゴロウ　ムレコウジョウ",
      "business_type": "⑱ 調味料製造・加工業",
      "address": "長野県上水内郡飯綱町牟礼2001-1",
      "lat": 36.743821,
      "lng": 138.237622,
      "geocoding_level": null,
      "phone": "",
      "license_no": "",
      "license_date": null,
      "expire_date": null
    },
    {
      "name": "ピッツェリア　アンジェリコ",
      "name_kana": "ピッツェリア　アンジェリコ",
      "business_type": "① 飲食店営業",
      "address": "長野県上水内郡飯綱町平出９９０－３",
      "lat": 36.72362,
      "lng": 138.249859,
      "geocoding_level": null,
      "phone": "080-1411-5787",
      "license_no": "16514551",
      "license_date": "2021-08-06",
      "expire_date": "2028-06-30"
    },
    {
      "name": "自閉症支援施設あおぞら",
      "name_kana": "ジヘイショウシエンシセツアオゾラ",
      "business_type": "① 飲食店営業",
      "address": "長野県上水内郡飯綱町大字芋川６０１３－６",
      "lat": 36.792351,
      "lng": 138.263587,
      "geocoding_level": null,
      "phone": "026-253-1299",
      "license_no": "16515711",
      "license_date": "2022-03-25",
      "expire_date": "2028-06-30"
    },
    {
      "name": "飯綱町デイサービスセンターふれあいの園",
      "name_kana": "イイヅナマチデイサービスセンターフレアイノソノ",
      "business_type": "① 飲食店営業",
      "address": "長野県上水内郡飯綱町芋川１８１",
      "lat": 36.763311,
      "lng": 138.255884,
      "geocoding_level": null,
      "phone": "026-253-8456",
      "license_no": "16289430",
      "license_date": "2025-06-30",
      "expire_date": "2031-06-30"
    },
    {
      "name": "ウエルシア飯綱平出店",
      "name_kana": "ウエルシアイイヅナヒライデテン",
      "business_type": "⑪ 百貨店、総合スーパー",
      "address": "長野県上水内郡飯綱町平出2838-1",
      "lat": 36.736395,
      "lng": 138.247538,
      "geocoding_level": null,
      "phone": "026-253-3378",
      "license_no": "",
      "license_date": null,
      "expire_date": null
    },
    {
      "name": "株式会社第一スーパー　飯綱店",
      "name_kana": "カブシキカイシャダイイチスーパー　イイヅナテン",
      "business_type": "⑪ 百貨店、総合スーパー",
      "address": "長野県上水内郡飯綱町普光寺970",
      "lat": 36.753246,
      "lng": 138.241533,
      "geocoding_level": null,
      "phone": "0262537020",
      "license_no": "",
      "license_date": null,
      "expire_date": null
    },
    {
      "name": "飯綱町立南部保育園",
      "name_kana": "イイヅナチョウリツナンブホイクエン",
      "business_type": "㉖ 集団給食施設",
      "address": "長野県上水内郡飯綱町豊野１５５０－１",
      "lat": 36.7429,
      "lng": 138.253596,
      "geocoding_level": null,
      "phone": "",
      "license_no": "",
      "license_date": null,
      "expire_date": null
    },
    {
      "name": "飯綱町立さみずっ子保育園",
      "name_kana": "イイヅナチョウリツサミズッコホイクエン",
      "business_type": "㉖ 集団給食施設",
      "address": "長野県上水内郡飯綱町普光寺１７０－４",
      "lat": 36.760634,
      "lng": 138.250068,
      "geocoding_level": null,
      "phone": "",
      "license_no": "",
      "license_date": null,
      "expire_date": null
    },
    {
      "name": "飯綱町立りんごっ子保育園",
      "name_kana": "イイヅナチョウリツリンゴッコホイクエン",
      "business_type": "㉖ 集団給食施設",
      "address": "長野県上水内郡飯綱町柳里４６７",
      "lat": 36.74069,
      "lng": 138.215031,
      "geocoding_level": null,
      "phone": "",
      "license_no": "",
      "license_date": null,
      "expire_date": null
    },
    {
      "name": "ＪＡホール　いいづな",
      "name_kana": "ジェイエイホール　イイヅナ",
      "business_type": "① 飲食店営業",
      "address": "長野県上水内郡飯綱町大字普光寺９３７",
      "lat": 36.753498,
      "lng": 138.244464,
      "geocoding_level": null,
      "phone": "026-253-2371",
      "license_no": "16515062",
      "license_date": "2021-11-12",
      "expire_date": "2028-06-30"
    },
    {
      "name": "山本食品株式会社　飯綱町十割そば専用工場",
      "name_kana": "ヤマモトショクヒンカブシキガイシャ　イイヅナマチジュウワリソバセンヨウコウジョウ",
      "business_type": "⑳ 精穀・製粉業",
      "address": "長野県上水内郡飯綱町大字牟礼1780-1",
      "lat": 36.74507,
      "lng": 138.232415,
      "geocoding_level": null,
      "phone": "026-213-8822",
      "license_no": "",
      "license_date": null,
      "expire_date": null
    },
    {
      "name": "ファミリーマート飯綱町塩ノ入店",
      "name_kana": "ファミリーマートイイヅナマチシオノイリテン",
      "business_type": "⑩ コンビニエンスストア",
      "address": "長野県上水内郡飯綱町大字普光寺土手裏 ２９９－２",
      "lat": 36.766871,
      "lng": 138.237978,
      "geocoding_level": null,
      "phone": "026-253-1123",
      "license_no": "",
      "license_date": null,
      "expire_date": null
    },
    {
      "name": "れうりや",
      "name_kana": "レウリヤ",
      "business_type": "① 飲食店営業",
      "address": "長野県上水内郡飯綱町赤塩２５９４－１",
      "lat": 36.769135,
      "lng": 138.284199,
      "geocoding_level": null,
      "phone": "",
      "license_no": "16515315",
      "license_date": "2021-12-23",
      "expire_date": "2027-06-30"
    },
    {
      "name": "れうりや",
      "name_kana": "レウリヤ",
      "business_type": "㉚ 密封包装食品製造業",
      "address": "長野県上水内郡飯綱町赤塩２５９４－１",
      "lat": 36.769135,
      "lng": 138.284199,
      "geocoding_level": null,
      "phone": "",
      "license_no": "16515322",
      "license_date": "2021-12-23",
      "expire_date": "2027-06-30"
    },
    {
      "name": "れうりや",
      "name_kana": "レウリヤ",
      "business_type": "① 飲食店営業",
      "address": "長野県上水内郡飯綱町東柏原９１",
      "lat": 36.779489,
      "lng": 138.284308,
      "geocoding_level": null,
      "phone": "",
      "license_no": "16517184",
      "license_date": "2022-10-27",
      "expire_date": "2028-06-30"
    },
    {
      "name": "れうりや",
      "name_kana": "レウリヤ",
      "business_type": "① 飲食店営業",
      "address": "長野県上水内郡飯綱町東柏原９１",
      "lat": 36.779489,
      "lng": 138.284308,
      "geocoding_level": null,
      "phone": "",
      "license_no": "16517191",
      "license_date": "2022-10-27",
      "expire_date": "2028-06-30"
    },
    {
      "name": "れうりや",
      "name_kana": "レウリヤ",
      "business_type": "① 飲食店営業",
      "address": "長野県上水内郡飯綱町普光寺９２５－１０",
      "lat": 36.753865,
      "lng": 138.24447,
      "geocoding_level": null,
      "phone": "070-6663-8603",
      "license_no": "16518699",
      "license_date": "2023-07-14",
      "expire_date": "2030-06-30"
    },
    {
      "name": "有限会社　塚田商店",
      "name_kana": "ユウゲンカイシャ　ツカダショウテン",
      "business_type": "⑦ 野菜果物販売業",
      "address": "長野県上水内郡飯綱町牟礼５１２",
      "lat": 36.752367,
      "lng": 138.24545,
      "geocoding_level": null,
      "phone": "026-253-2063",
      "license_no": "",
      "license_date": null,
      "expire_date": null
    },
    {
      "name": "ケルンコーヒーロースター",
      "name_kana": "ケルンコーヒーロースター",
      "business_type": "⑯ コーヒー製造・加工業（飲料の製造を除く。）",
      "address": "長野県上水内郡飯綱町黒川１９４６−２",
      "lat": 36.744001,
      "lng": 138.222927,
      "geocoding_level": null,
      "phone": "",
      "license_no": "",
      "license_date": null,
      "expire_date": null
    },
    {
      "name": "ケルンコーヒーロースター",
      "name_kana": "ケルンコーヒーロースター",
      "business_type": "① 飲食店営業",
      "address": "長野県上水内郡飯綱町黒川１９４６－２",
      "lat": 36.744001,
      "lng": 138.222927,
      "geocoding_level": null,
      "phone": "",
      "license_no": "16517907",
      "license_date": "2023-03-27",
      "expire_date": "2028-06-30"
    },
    {
      "name": "飯綱病院売店内パン工房",
      "name_kana": "イイヅナビョウインバイテンナイパンコウボウ",
      "business_type": "⑪ 菓子製造業",
      "address": "長野県上水内郡飯綱町牟礼２２２０飯綱町立飯綱病院内",
      "lat": 36.74891,
      "lng": 138.235483,
      "geocoding_level": null,
      "phone": "0262532248",
      "license_no": "16299410",
      "license_date": "2022-06-30",
      "expire_date": "2027-06-30"
    },
    {
      "name": "グリーンリーブスモール",
      "name_kana": "グリーンリーブスモール",
      "business_type": "③ 乳類販売業",
      "address": "長野県上水内郡飯綱町牟礼２２２０ 飯綱町立飯綱病院内",
      "lat": 36.748733,
      "lng": 138.235558,
      "geocoding_level": null,
      "phone": "",
      "license_no": "",
      "license_date": null,
      "expire_date": null
    },
    {
      "name": "いいづなコネクトEAST",
      "name_kana": "イイヅナコネクトイースト",
      "business_type": "② 食肉販売業（包装済みの食肉のみの販売）",
      "address": "長野県上水内郡飯綱町赤塩2489 いいづなコネクトEAST",
      "lat": 36.768007,
      "lng": 138.285361,
      "geocoding_level": null,
      "phone": "0262621995",
      "license_no": "",
      "license_date": null,
      "expire_date": null
    },
    {
      "name": "いいづなコネクトEAST",
      "name_kana": "イイヅナコネクトイースト",
      "business_type": "③ 乳類販売業",
      "address": "長野県上水内郡飯綱町赤塩2489 いいづなコネクトEAST",
      "lat": 36.768007,
      "lng": 138.285361,
      "geocoding_level": null,
      "phone": "0262621995",
      "license_no": "",
      "license_date": null,
      "expire_date": null
    },
    {
      "name": "いいづなコネクトEAST",
      "name_kana": "イイヅナコネクトイースト",
      "business_type": "⑥ 弁当販売業",
      "address": "長野県上水内郡飯綱町赤塩2489 いいづなコネクトEAST",
      "lat": 36.768007,
      "lng": 138.285361,
      "geocoding_level": null,
      "phone": "0262621995",
      "license_no": "",
      "license_date": null,
      "expire_date": null
    },
    {
      "name": "いいづなコネクトEAST",
      "name_kana": "イイヅナコネクトイースト",
      "business_type": "⑦ 野菜果物販売業",
      "address": "長野県上水内郡飯綱町赤塩2489 いいづなコネクトEAST",
      "lat": 36.768007,
      "lng": 138.285361,
      "geocoding_level": null,
      "phone": "0262621995",
      "license_no": "",
      "license_date": null,
      "expire_date": null
    },
    {
      "name": "いいづなコネクトEAST",
      "name_kana": "イイヅナコネクトイースト",
      "business_type": "⑧ 米穀類販売業",
      "address": "長野県上水内郡飯綱町赤塩2489 いいづなコネクトEAST",
      "lat": 36.768007,
      "lng": 138.285361,
      "geocoding_level": null,
      "phone": "0262621995",
      "license_no": "",
      "license_date": null,
      "expire_date": null
    },
    {
      "name": "いいづなコネクトEAST",
      "name_kana": "イイヅナコネクトイースト",
      "business_type": "⑬ その他の食料・飲料販売業",
      "address": "長野県上水内郡飯綱町赤塩2489 いいづなコネクトEAST",
      "lat": 36.768007,
      "lng": 138.285361,
      "geocoding_level": null,
      "phone": "0262621995",
      "license_no": "",
      "license_date": null,
      "expire_date": null
    },
    {
      "name": "いいづなコネクトEAST",
      "name_kana": "イイヅナコネクトイースト",
      "business_type": "⑯ コーヒー製造・加工業（飲料の製造を除く。）",
      "address": "長野県上水内郡飯綱町赤塩2489 いいづなコネクトEAST",
      "lat": 36.768007,
      "lng": 138.285361,
      "geocoding_level": null,
      "phone": "0262621995",
      "license_no": "",
      "license_date": null,
      "expire_date": null
    },
    {
      "name": "いいづなコネクトEAST",
      "name_kana": "イイヅナコネクトイースト",
      "business_type": "⑱ 調味料製造・加工業",
      "address": "長野県上水内郡飯綱町赤塩2489 いいづなコネクトEAST",
      "lat": 36.768007,
      "lng": 138.285361,
      "geocoding_level": null,
      "phone": "0262621995",
      "license_no": "",
      "license_date": null,
      "expire_date": null
    },
    {
      "name": "いいづなコネクトEAST",
      "name_kana": "イイヅナコネクトイースト",
      "business_type": "㉘ 露店、仮設店舗等における飲食の提供のうち、営業とみなされないもの",
      "address": "長野県上水内郡飯綱町赤塩2489 いいづなコネクトEAST",
      "lat": 36.768007,
      "lng": 138.285361,
      "geocoding_level": null,
      "phone": "0262621995",
      "license_no": "",
      "license_date": null,
      "expire_date": null
    },
    {
      "name": "ニチアスセラテック株式会社牟礼工場加工場",
      "name_kana": "ニチアスセラテックカブシキカイシャムレコウジョウカコウジョウ",
      "business_type": "⑤ コップ式自動販売機（自動洗浄・屋内設置）",
      "address": "長野県上水内郡飯綱町牟礼396",
      "lat": 36.750218,
      "lng": 138.243235,
      "geocoding_level": null,
      "phone": "026-253-2170",
      "license_no": "",
      "license_date": null,
      "expire_date": null
    },
    {
      "name": "飯綱町立飯綱病院",
      "name_kana": "イイヅナチョウリツイイヅナビョウイン",
      "business_type": "⑤ コップ式自動販売機（自動洗浄・屋内設置）",
      "address": "長野県上水内郡飯綱町牟礼2220",
      "lat": 36.749283,
      "lng": 138.235768,
      "geocoding_level": null,
      "phone": "026-253-2248",
      "license_no": "",
      "license_date": null,
      "expire_date": null
    },
    {
      "name": "ＧＲＥＥＮＶＥＩＬ",
      "name_kana": "グリーンヴェイル",
      "business_type": "① 飲食店営業",
      "address": "長野県上水内郡飯綱町大字倉井１６２３番地",
      "lat": 36.7609,
      "lng": 138.253693,
      "geocoding_level": null,
      "phone": "026-262-1412",
      "license_no": "16516004",
      "license_date": "2022-05-02",
      "expire_date": "2028-06-30"
    },
    {
      "name": "北信ヤクルト販売(株)　飯綱センター",
      "name_kana": "ホクシンヤクルトハンバイ　イイヅナセンター",
      "business_type": "⑬ その他の食料・飲料販売業",
      "address": "長野県上水内郡飯綱町倉井2028-9",
      "lat": 36.75382,
      "lng": 138.247116,
      "geocoding_level": null,
      "phone": "",
      "license_no": "",
      "license_date": null,
      "expire_date": null
    },
    {
      "name": "消灯珈琲",
      "name_kana": "ショウトウコーヒー",
      "business_type": "⑯ コーヒー製造・加工業（飲料の製造を除く。）",
      "address": "長野県上水内郡飯綱町大字牟礼513-1 Ringo荘",
      "lat": 36.752254,
      "lng": 138.245179,
      "geocoding_level": null,
      "phone": "08020886599",
      "license_no": "",
      "license_date": null,
      "expire_date": null
    },
    {
      "name": "ｃａｆｅ　ららん",
      "name_kana": "カフェ　ララン",
      "business_type": "① 飲食店営業",
      "address": "長野県上水内郡飯綱町川上２２４６",
      "lat": 36.739722,
      "lng": 138.205295,
      "geocoding_level": null,
      "phone": "080-6522-3019",
      "license_no": "16516036",
      "license_date": "2022-05-13",
      "expire_date": "2028-06-30"
    },
    {
      "name": "青空カフェ　和夢手",
      "name_kana": "アオゾラカフェ　トムテ",
      "business_type": "① 飲食店営業",
      "address": "長野県上水内郡飯綱町大字川上２７５５番地２６１８",
      "lat": 36.733975,
      "lng": 138.175236,
      "geocoding_level": null,
      "phone": "050-5360-8798",
      "license_no": "16516068",
      "license_date": "2022-05-20",
      "expire_date": "2028-06-30"
    },
    {
      "name": "青空カフェ　和夢手",
      "name_kana": "アオゾラカフェ　トムテ",
      "business_type": "⑪ 菓子製造業",
      "address": "長野県上水内郡飯綱町大字川上２７５５番地２６１８",
      "lat": 36.733975,
      "lng": 138.175236,
      "geocoding_level": null,
      "phone": "050-5360-8798",
      "license_no": "16516051",
      "license_date": "2022-05-20",
      "expire_date": "2028-06-30"
    },
    {
      "name": "利休抹茶本舗　長野",
      "name_kana": "リキュウマッチャホンポ　ナガノ",
      "business_type": "① 飲食店営業",
      "address": "長野県上水内郡飯綱町大字豊野１６１８",
      "lat": 36.743853,
      "lng": 138.253839,
      "geocoding_level": null,
      "phone": "026-253-8650",
      "license_no": "16516164",
      "license_date": "2022-06-03",
      "expire_date": "2027-06-30"
    },
    {
      "name": "さかえや飯店",
      "name_kana": "サカエヤハンテン",
      "business_type": "① 飲食店営業",
      "address": "長野県上水内郡飯綱町大字古町１４６６",
      "lat": 36.752209,
      "lng": 138.208019,
      "geocoding_level": null,
      "phone": "026-253-2403",
      "license_no": "16516292",
      "license_date": "2022-06-23",
      "expire_date": "2028-06-30"
    },
    {
      "name": "株式会社サンクゼール　本社工場１係",
      "name_kana": "カブシキガイシャサンクゼール　ホンシャコウジョウイチカカリ",
      "business_type": "㉖ 複合型そうざい製造業",
      "address": "長野県上水内郡飯綱町芋川１２６０",
      "lat": 36.767784,
      "lng": 138.263117,
      "geocoding_level": null,
      "phone": "026-253-8860",
      "license_no": "16516424",
      "license_date": "2022-06-27",
      "expire_date": "2028-06-30"
    },
    {
      "name": "株式会社サンクゼール　本社工場１係",
      "name_kana": "カブシキガイシャサンクゼール　ホンシャコウジョウイチカカリ",
      "business_type": "㉚ 密封包装食品製造業",
      "address": "長野県上水内郡飯綱町芋川１２６０",
      "lat": 36.767784,
      "lng": 138.263117,
      "geocoding_level": null,
      "phone": "026-253-8860",
      "license_no": "16516431",
      "license_date": "2022-06-27",
      "expire_date": "2028-06-30"
    },
    {
      "name": "株式会社サンクゼール　本社工場２係",
      "name_kana": "カブシキガイシャサンクゼール　ホンシャコウジョウニカカリ",
      "business_type": "㉖ 複合型そうざい製造業",
      "address": "長野県上水内郡飯綱町芋川１２６０",
      "lat": 36.767784,
      "lng": 138.263117,
      "geocoding_level": null,
      "phone": "026-253-8860",
      "license_no": "16516449",
      "license_date": "2022-06-27",
      "expire_date": "2028-06-30"
    },
    {
      "name": "株式会社サンクゼール　本社工場２係",
      "name_kana": "カブシキガイシャサンクゼール　ホンシャコウジョウニカカリ",
      "business_type": "㉚ 密封包装食品製造業",
      "address": "長野県上水内郡飯綱町芋川１２６０",
      "lat": 36.767784,
      "lng": 138.263117,
      "geocoding_level": null,
      "phone": "026-253-8860",
      "license_no": "16516456",
      "license_date": "2022-06-27",
      "expire_date": "2028-06-30"
    },
    {
      "name": "株式会社サンクゼール　本社工場４係",
      "name_kana": "カブシキガイシャサンクゼール　ホンシャコウジョウヨンカカリ",
      "business_type": "⑲ 食用油脂製造業",
      "address": "長野県上水内郡飯綱町大字芋川１２６０番地",
      "lat": 36.767784,
      "lng": 138.263117,
      "geocoding_level": null,
      "phone": "0262538860",
      "license_no": "16297376",
      "license_date": "2022-06-30",
      "expire_date": "2028-06-30"
    },
    {
      "name": "（株）サンクゼール　本社工場４係",
      "name_kana": "カブシキガイシャサンクゼール　ホンシャコウジョウヨンカカリ",
      "business_type": "㉚ 密封包装食品製造業",
      "address": "長野県上水内郡飯綱町大字芋川１２６０番地",
      "lat": 36.767784,
      "lng": 138.263117,
      "geocoding_level": null,
      "phone": "0262537002",
      "license_no": "16281151",
      "license_date": "2022-06-30",
      "expire_date": "2028-06-30"
    },
    {
      "name": "株式会社サンクゼール",
      "name_kana": "カブシキガイシャサンクゼール",
      "business_type": "⑭ 清涼飲料水製造業",
      "address": "長野県上水内郡飯綱町芋川１２６０番地",
      "lat": 36.767784,
      "lng": 138.263117,
      "geocoding_level": null,
      "phone": "026-253-7072",
      "license_no": "16523900",
      "license_date": "2025-11-07",
      "expire_date": "2032-06-30"
    },
    {
      "name": "ファミリーレスト白樺",
      "name_kana": "ファミリーレストシラカバ",
      "business_type": "① 飲食店営業",
      "address": "長野県上水内郡飯綱町古町１２４６",
      "lat": 36.754425,
      "lng": 138.207292,
      "geocoding_level": null,
      "phone": "0262533677",
      "license_no": "16068510",
      "license_date": "2022-06-30",
      "expire_date": "2028-06-30"
    },
    {
      "name": "（有）三水製パン",
      "name_kana": "ユウゲンガイシャ　サミズセイパン",
      "business_type": "⑪ 菓子製造業",
      "address": "長野県上水内郡飯綱町普光寺９４０―７",
      "lat": 36.753321,
      "lng": 138.243697,
      "geocoding_level": null,
      "phone": "0262533022",
      "license_no": "16121467",
      "license_date": "2022-06-30",
      "expire_date": "2028-06-30"
    },
    {
      "name": "（有）三水製パン",
      "name_kana": "ユウゲンガイシャサミズセイパン",
      "business_type": "㉕ そうざい製造業",
      "address": "長野県上水内郡飯綱町普光寺９４０―７",
      "lat": 36.753321,
      "lng": 138.243697,
      "geocoding_level": null,
      "phone": "0262533022",
      "license_no": "16121450",
      "license_date": "2022-06-30",
      "expire_date": "2028-06-30"
    },
    {
      "name": "食事処　世界一",
      "name_kana": "ショクジドコロ　セカイイチ",
      "business_type": "⑪ 菓子製造業",
      "address": "長野県上水内郡飯綱町大字牟礼５０９－４",
      "lat": 36.752734,
      "lng": 138.246156,
      "geocoding_level": null,
      "phone": "",
      "license_no": "16516610",
      "license_date": "2022-07-29",
      "expire_date": "2029-06-30"
    },
    {
      "name": "食事処　世界一",
      "name_kana": "ショクジドコロ　セカイイチ",
      "business_type": "① 飲食店営業",
      "address": "長野県上水内郡飯綱町牟礼５０９－４",
      "lat": 36.752758,
      "lng": 138.246138,
      "geocoding_level": null,
      "phone": "026-253-2142",
      "license_no": "16272370",
      "license_date": "2025-06-30",
      "expire_date": "2031-06-30"
    },
    {
      "name": "森のおやど　ピルチャー",
      "name_kana": "モリノオヤド　ピルチャー",
      "business_type": "① 飲食店営業",
      "address": "長野県上水内郡飯綱町高坂１３００‐１０８",
      "lat": 36.725959,
      "lng": 138.181702,
      "geocoding_level": null,
      "phone": "",
      "license_no": "16297847",
      "license_date": "2022-06-30",
      "expire_date": "2028-06-30"
    },
    {
      "name": "長野国際カントリークラブ",
      "name_kana": "ナガノコクサイカントリークラブ",
      "business_type": "① 飲食店営業",
      "address": "長野県上水内郡飯綱町牟礼１３１３",
      "lat": 36.732775,
      "lng": 138.238236,
      "geocoding_level": null,
      "phone": "0262533333",
      "license_no": "16169679",
      "license_date": "2022-06-30",
      "expire_date": "2028-06-30"
    },
    {
      "name": "長野国際カントリークラブ",
      "name_kana": "ナガノコクサイカントリークラブ",
      "business_type": "① 飲食店営業",
      "address": "長野県上水内郡飯綱町牟礼１３１３",
      "lat": 36.732775,
      "lng": 138.238236,
      "geocoding_level": null,
      "phone": "026-253-3333",
      "license_no": "16169661",
      "license_date": "2025-06-30",
      "expire_date": "2031-06-30"
    },
    {
      "name": "水穂珈琲店",
      "name_kana": "ミズホコーヒーテン",
      "business_type": "① 飲食店営業",
      "address": "長野県上水内郡飯綱町豊野１６４８",
      "lat": 36.742924,
      "lng": 138.251978,
      "geocoding_level": null,
      "phone": "",
      "license_no": "16516673",
      "license_date": "2022-08-08",
      "expire_date": "2027-08-31"
    },
    {
      "name": "飯綱町商工会",
      "name_kana": "イイヅナマチショウコウカイ",
      "business_type": "① 飲食店営業",
      "address": "長野県上水内郡飯綱町大字牟礼２７９５番地１",
      "lat": 36.754613,
      "lng": 138.23556,
      "geocoding_level": null,
      "phone": "0262533310",
      "license_no": "16299392",
      "license_date": "2022-06-30",
      "expire_date": "2027-06-30"
    },
    {
      "name": "飯綱町商工会",
      "name_kana": "イイヅナマチショウコウカイ",
      "business_type": "① 飲食店営業",
      "address": "長野県上水内郡飯綱町大字牟礼２７９５番地１",
      "lat": 36.754613,
      "lng": 138.23556,
      "geocoding_level": null,
      "phone": "0262533310",
      "license_no": "16299402",
      "license_date": "2022-06-30",
      "expire_date": "2027-06-30"
    },