{
  "meta": {
    "updated": 1783906731,
    "sources": [
      {
        "source": "長野県食品営業許可施設",
        "license": "要確認"
      },
      {
        "source": "厚生労働省 食品衛生申請等システム（オープンデータ）",
        "license": "公共データ利用規約（第1.0版, PDL1.0）"
      }
    ]
  },
  "data": [
    {
      "name": "Ｈｅｕｒｅｕｘ　ＨＥＵＲＥ",
      "name_kana": "",
      "business_type": "菓子製造業",
      "address": "小諸市柏木３４２－５　エイティワンビル１Ｆ右",
      "lat": 36.328815,
      "lng": 138.452676,
      "geocoding_level": 3,
      "phone": "",
      "license_no": "第01251315号",
      "license_date": "2019-11-15",
      "expire_date": "2026-10-31"
    },
    {
      "name": "スナック　りんご",
      "name_kana": "",
      "business_type": "飲食店営業",
      "address": "小諸市相生町一丁目１－６　こやまビル１階左",
      "lat": 36.326878,
      "lng": 138.42212300000003,
      "geocoding_level": 3,
      "phone": "",
      "license_no": "第01253736号",
      "license_date": "2020-07-17",
      "expire_date": "2027-04-30"
    },
    {
      "name": "テールドシエルワイナリー",
      "name_kana": "",
      "business_type": "酒類製造業",
      "address": "小諸市滋野甲４０６３番地１０",
      "lat": 36.366010137,
      "lng": 138.407902689,
      "geocoding_level": 8,
      "phone": "",
      "license_no": "第01254091号",
      "license_date": "2020-08-21",
      "expire_date": "2026-10-31"
    },
    {
      "name": "信州ほしの（株）",
      "name_kana": "",
      "business_type": "麺類製造業",
      "address": "小諸市西原５２０－１",
      "lat": 36.34698145,
      "lng": 138.402348337,
      "geocoding_level": 8,
      "phone": "",
      "license_no": "第01135490号",
      "license_date": "2020-10-30",
      "expire_date": "2026-10-31"
    },
    {
      "name": "虎屋菓子店",
      "name_kana": "",
      "business_type": "菓子製造業",
      "address": "小諸市古城１－４－７",
      "lat": 36.329084,
      "lng": 138.41745,
      "geocoding_level": 3,
      "phone": "",
      "license_no": "第01135500号",
      "license_date": "2020-10-30",
      "expire_date": "2026-10-31"
    },
    {
      "name": "（株）浅間農園",
      "name_kana": "",
      "business_type": "清涼飲料水製造業",
      "address": "小諸市甲川原田１８３１",
      "lat": 36.31151,
      "lng": 138.431163,
      "geocoding_level": 3,
      "phone": "",
      "license_no": "第02131711号",
      "license_date": "2020-10-30",
      "expire_date": "2026-10-31"
    },
    {
      "name": "蒸しぱん屋　粉花",
      "name_kana": "",
      "business_type": "菓子製造業",
      "address": "小諸市相生町一丁目４－７",
      "lat": 36.326878,
      "lng": 138.42212300000003,
      "geocoding_level": 3,
      "phone": "",
      "license_no": "第01254771号",
      "license_date": "2020-11-13",
      "expire_date": "2027-10-31"
    },
    {
      "name": "ゲストハウス　Ｃｉｅｌ　ｅｔｏｉｌｅ内　シエルキッチン",
      "name_kana": "",
      "business_type": "飲食店営業",
      "address": "小諸市大久保２４２６－８６７ 草笛ランドＢ－３３",
      "lat": 36.330442,
      "lng": 138.401486,
      "geocoding_level": 3,
      "phone": "",
      "license_no": "第01254717号",
      "license_date": "2020-11-06",
      "expire_date": "2026-11-30"
    },
    {
      "name": "小諸グランドキャッスルホテル　レストラン千曲",
      "name_kana": "",
      "business_type": "飲食店営業",
      "address": "小諸市古城１－１－５",
      "lat": 36.329084,
      "lng": 138.41745,
      "geocoding_level": 3,
      "phone": "",
      "license_no": "第01137729号",
      "license_date": "2020-11-30",
      "expire_date": "2026-11-30"
    },
    {
      "name": "（株）中棚温泉",
      "name_kana": "",
      "business_type": "飲食店営業",
      "address": "小諸市乙１２１０",
      "lat": 36.340124,
      "lng": 138.438408,
      "geocoding_level": 3,
      "phone": "",
      "license_no": "第02142429号",
      "license_date": "2020-11-30",
      "expire_date": "2026-11-30"
    },
    {
      "name": "高峰温泉　２階",
      "name_kana": "",
      "business_type": "飲食店営業",
      "address": "小諸市菱平７０４－１",
      "lat": 36.358827,
      "lng": 138.438818,
      "geocoding_level": 3,
      "phone": "",
      "license_no": "第02145579号",
      "license_date": "2020-11-30",
      "expire_date": "2026-11-30"
    },
    {
      "name": "高峰温泉　１階",
      "name_kana": "",
      "business_type": "飲食店営業",
      "address": "小諸市菱平７０４－１",
      "lat": 36.358827,
      "lng": 138.438818,
      "geocoding_level": 3,
      "phone": "",
      "license_no": "第02145586号",
      "license_date": "2020-11-30",
      "expire_date": "2026-11-30"
    },
    {
      "name": "はりこし亭",
      "name_kana": "",
      "business_type": "麺類製造業",
      "address": "小諸市古城１２０８－８",
      "lat": 36.329084,
      "lng": 138.41745,
      "geocoding_level": 3,
      "phone": "",
      "license_no": "第01255089号",
      "license_date": "2021-01-22",
      "expire_date": "2027-04-30"
    },
    {
      "name": "くーみんキッチン",
      "name_kana": "",
      "business_type": "飲食店営業",
      "address": "小諸市菱平８８－２８",
      "lat": 36.339836067,
      "lng": 138.433694727,
      "geocoding_level": 8,
      "phone": "",
      "license_no": "第01253729号",
      "license_date": "2020-07-17",
      "expire_date": "2027-04-30"
    },
    {
      "name": "理依",
      "name_kana": "",
      "business_type": "飲食店営業",
      "address": "小諸市大手１－３－１６",
      "lat": 36.328496,
      "lng": 138.421219,
      "geocoding_level": 3,
      "phone": "",
      "license_no": "第01255299号",
      "license_date": "2021-02-26",
      "expire_date": "2027-04-30"
    },
    {
      "name": "凰琉雅（OLGA）",
      "name_kana": "",
      "business_type": "飲食店営業",
      "address": "小諸市柏木１２２４－９",
      "lat": 36.33553739,
      "lng": 138.457358934,
      "geocoding_level": 8,
      "phone": "",
      "license_no": "第01255460号",
      "license_date": "2021-03-19",
      "expire_date": "2027-11-30"
    },
    {
      "name": "ハンディ―ロケーション　こもろ医療センター店",
      "name_kana": "",
      "business_type": "喫茶店営業",
      "address": "小諸市相生町3-3-21",
      "lat": 36.327444,
      "lng": 138.425575,
      "geocoding_level": 3,
      "phone": "",
      "license_no": "第01255872号",
      "license_date": "2021-04-02",
      "expire_date": "2027-04-30"
    },
    {
      "name": "ベーカリーカフェ　ハグリコ",
      "name_kana": "",
      "business_type": "飲食店営業",
      "address": "小諸市市町５－３－７",
      "lat": 36.335188,
      "lng": 138.418498,
      "geocoding_level": 3,
      "phone": "",
      "license_no": "第01255915号",
      "license_date": "2021-04-05",
      "expire_date": "2027-04-30"
    },
    {
      "name": "ベーカリーカフェ　ハグリコ",
      "name_kana": "",
      "business_type": "菓子製造業",
      "address": "小諸市市町５－３－７",
      "lat": 36.335188,
      "lng": 138.418498,
      "geocoding_level": 3,
      "phone": "",
      "license_no": "第01255922号",
      "license_date": "2021-04-05",
      "expire_date": "2027-04-30"
    },
    {
      "name": "あぐりの湯食堂",
      "name_kana": "",
      "business_type": "飲食店営業",
      "address": "小諸市大久保1145-1",
      "lat": 36.330442,
      "lng": 138.401486,
      "geocoding_level": 3,
      "phone": "",
      "license_no": "第01256045号",
      "license_date": "2021-04-16",
      "expire_date": "2027-04-30"
    },
    {
      "name": "あぐりの湯食堂",
      "name_kana": "",
      "business_type": "アイスクリーム類製造業",
      "address": "小諸市大久保1145-1",
      "lat": 36.330442,
      "lng": 138.401486,
      "geocoding_level": 3,
      "phone": "",
      "license_no": "第01256052号",
      "license_date": "2021-04-16",
      "expire_date": "2027-04-30"
    },
    {
      "name": "小諸愛昇殿",
      "name_kana": "",
      "business_type": "飲食店営業",
      "address": "小諸市八幡町3-1-11",
      "lat": 36.328170079,
      "lng": 138.433938741,
      "geocoding_level": 8,
      "phone": "",
      "license_no": "第01256216号",
      "license_date": "2021-04-23",
      "expire_date": "2027-04-30"
    },
    {
      "name": "salon de the' konohana",
      "name_kana": "",
      "business_type": "飲食店営業",
      "address": "小諸市相生町１丁目４－７",
      "lat": 36.326878,
      "lng": 138.42212300000003,
      "geocoding_level": 3,
      "phone": "",
      "license_no": "第01256344号",
      "license_date": "2021-04-23",
      "expire_date": "2027-04-30"
    },
    {
      "name": "家族想邸宅みつわ　小諸東店",
      "name_kana": "",
      "business_type": "飲食店営業",
      "address": "小諸市加増２丁目１１－１２",
      "lat": 36.320917,
      "lng": 138.435652,
      "geocoding_level": 3,
      "phone": "",
      "license_no": "第01256426号",
      "license_date": "2021-04-30",
      "expire_date": "2027-04-30"
    },
    {
      "name": "そばや　七良右ヱ門",
      "name_kana": "",
      "business_type": "飲食店営業",
      "address": "小諸市本町３－１－２",
      "lat": 36.329275,
      "lng": 138.42523,
      "geocoding_level": 3,
      "phone": "",
      "license_no": "第01137009号",
      "license_date": "2021-04-30",
      "expire_date": "2027-04-30"
    },
    {
      "name": "居酒屋　ひまわり",
      "name_kana": "",
      "business_type": "飲食店営業",
      "address": "小諸市赤坂１－１６－１０",
      "lat": 36.325625,
      "lng": 138.425654,
      "geocoding_level": 3,
      "phone": "",
      "license_no": "第01137491号",
      "license_date": "2021-04-30",
      "expire_date": "2027-04-30"
    },
    {
      "name": "あおい　南町店",
      "name_kana": "",
      "business_type": "飲食店営業",
      "address": "小諸市南町２－２－４",
      "lat": 36.322397,
      "lng": 138.42749100000003,
      "geocoding_level": 3,
      "phone": "",
      "license_no": "第01137825号",
      "license_date": "2021-04-30",
      "expire_date": "2027-04-30"
    },
    {
      "name": "かつの店　ながたや",
      "name_kana": "",
      "business_type": "飲食店営業",
      "address": "小諸市甲１６４１－７",
      "lat": 36.313316237,
      "lng": 138.426943244,
      "geocoding_level": 8,
      "phone": "",
      "license_no": "第01138635号",
      "license_date": "2021-04-30",
      "expire_date": "2027-04-30"
    },
    {
      "name": "Ｏｎｅ　Ｐｅａｃｅ",
      "name_kana": "",
      "business_type": "飲食店営業",
      "address": "小諸市相生町１－３－６　３Ｆ",
      "lat": 36.326878,
      "lng": 138.42212300000003,
      "geocoding_level": 3,
      "phone": "",
      "license_no": "第01162304号",
      "license_date": "2021-04-30",
      "expire_date": "2027-04-30"
    },
    {
      "name": "ラーメン　一粋",
      "name_kana": "",
      "business_type": "飲食店営業",
      "address": "小諸市御影新田１５３２－１３",
      "lat": 36.306584426,
      "lng": 138.446049552,
      "geocoding_level": 8,
      "phone": "",
      "license_no": "第01162425号",
      "license_date": "2021-04-30",
      "expire_date": "2027-04-30"
    },
    {
      "name": "草笛　麺工房",
      "name_kana": "",
      "business_type": "麺類製造業",
      "address": "小諸市古城１－６－２",
      "lat": 36.329084,
      "lng": 138.41745,
      "geocoding_level": 3,
      "phone": "",
      "license_no": "第01184579号",
      "license_date": "2021-04-30",
      "expire_date": "2028-04-30"
    },
    {
      "name": "星の砂",
      "name_kana": "",
      "business_type": "飲食店営業",
      "address": "小諸市大手１－３－３　山本ビル３Ｆ",
      "lat": 36.328496,
      "lng": 138.421219,
      "geocoding_level": 3,
      "phone": "",
      "license_no": "第01195426号",
      "license_date": "2021-04-30",
      "expire_date": "2027-04-30"
    },
    {
      "name": "割烹　うな藤",
      "name_kana": "",
      "business_type": "飲食店営業",
      "address": "小諸市赤坂１－８－３",
      "lat": 36.325625,
      "lng": 138.425654,
      "geocoding_level": 3,
      "phone": "",
      "license_no": "第01196251号",
      "license_date": "2021-04-30",
      "expire_date": "2027-04-30"
    },
    {
      "name": "山野草",
      "name_kana": "",
      "business_type": "飲食店営業",
      "address": "小諸市大手２－１－１５",
      "lat": 36.328494,
      "lng": 138.423722,
      "geocoding_level": 3,
      "phone": "",
      "license_no": "第01196574号",
      "license_date": "2021-04-30",
      "expire_date": "2027-04-30"
    },
    {
      "name": "模擬株式会社「スマイル小商店街」",
      "name_kana": "",
      "business_type": "飲食店営業",
      "address": "小諸市田町３－１－１",
      "lat": 36.334514,
      "lng": 138.421144,
      "geocoding_level": 3,
      "phone": "",
      "license_no": "第01196752号",
      "license_date": "2021-04-30",
      "expire_date": "2027-04-30"
    },
    {
      "name": "丸山珈琲　小諸店",
      "name_kana": "",
      "business_type": "飲食店営業",
      "address": "小諸市平原寺前１１５２－１",
      "lat": 36.315489,
      "lng": 138.471695,
      "geocoding_level": 3,
      "phone": "",
      "license_no": "第01197410号",
      "license_date": "2021-04-30",
      "expire_date": "2027-04-30"
    },
    {
      "name": "ティーサロン　寿徳",
      "name_kana": "",
      "business_type": "飲食店営業",
      "address": "小諸市相生町１－３－１",
      "lat": 36.326878,
      "lng": 138.42212300000003,
      "geocoding_level": 3,
      "phone": "",
      "license_no": "第01197929号",
      "license_date": "2021-04-30",
      "expire_date": "2027-04-30"
    },
    {
      "name": "笊蕎麦　刻",
      "name_kana": "",
      "business_type": "飲食店営業",
      "address": "小諸市大手１－３－１４",
      "lat": 36.328496,
      "lng": 138.421219,
      "geocoding_level": 3,
      "phone": "",
      "license_no": "第01198098号",
      "license_date": "2021-04-30",
      "expire_date": "2027-04-30"
    },
    {
      "name": "モダン割烹　ほとなり",
      "name_kana": "",
      "business_type": "飲食店営業",
      "address": "小諸市本町３－１－６",
      "lat": 36.329275,
      "lng": 138.42523,
      "geocoding_level": 3,
      "phone": "",
      "license_no": "第01228545号",
      "license_date": "2021-04-30",
      "expire_date": "2027-04-30"
    },
    {
      "name": "和食処　みよし",
      "name_kana": "",
      "business_type": "飲食店営業",
      "address": "小諸市平原１７８４－３",
      "lat": 36.316047771,
      "lng": 138.473514137,
      "geocoding_level": 8,
      "phone": "",
      "license_no": "第02146898号",
      "license_date": "2021-04-30",
      "expire_date": "2028-04-30"
    },
    {
      "name": "おけさ茶屋",
      "name_kana": "",
      "business_type": "飲食店営業",
      "address": "小諸市古城２－３－３４",
      "lat": 36.32561,
      "lng": 138.42039100000002,
      "geocoding_level": 3,
      "phone": "",
      "license_no": "第02147861号",
      "license_date": "2021-04-30",
      "expire_date": "2028-04-30"
    },
    {
      "name": "野澤屋",
      "name_kana": "",
      "business_type": "飲食店営業",
      "address": "小諸市森山65-8",
      "lat": 36.303543326,
      "lng": 138.448378425,
      "geocoding_level": 8,
      "phone": "",
      "license_no": "第01256586号",
      "license_date": "2021-05-21",
      "expire_date": "2028-04-30"
    },
    {
      "name": "あぐりの湯こもろ食堂",
      "name_kana": "",
      "business_type": "飲食店営業",
      "address": "小諸市大久保1145-1",
      "lat": 36.330442,
      "lng": 138.401486,
      "geocoding_level": 3,
      "phone": "",
      "license_no": "第01256701号",
      "license_date": "2021-05-28",
      "expire_date": "2028-04-30"
    },
    {
      "name": "nine",
      "name_kana": "",
      "business_type": "飲食店営業",
      "address": "小諸市大手1-4-6",
      "lat": 36.328496,
      "lng": 138.421219,
      "geocoding_level": 3,
      "phone": "",
      "license_no": "第01257251号",
      "license_date": "2021-07-20",
      "expire_date": "2028-04-30"
    },
    {
      "name": "八ヶ倉　小諸店",
      "name_kana": "",
      "business_type": "飲食店営業",
      "address": "小諸市加増佃１７９－１３",
      "lat": 36.330652,
      "lng": 138.448117,
      "geocoding_level": 3,
      "phone": "",
      "license_no": "第02146802号",
      "license_date": "2021-04-30",
      "expire_date": "2028-04-30"
    },
    {
      "name": "草原",
      "name_kana": "",
      "business_type": "飲食店営業",
      "address": "小諸市大手町２－１－１０　Ｂ１",
      "lat": 36.326874,
      "lng": 138.426021,
      "geocoding_level": 2,
      "phone": "",
      "license_no": "第01197338号",
      "license_date": "2021-04-30",
      "expire_date": "2027-04-30"
    },
    {
      "name": "スナック　健",
      "name_kana": "",
      "business_type": "飲食店営業",
      "address": "小諸市大手1-4-9",
      "lat": 36.328496,
      "lng": 138.421219,
      "geocoding_level": 3,
      "phone": "",
      "license_no": "第01257791号",
      "license_date": "2021-09-22",
      "expire_date": "2027-04-30"
    },
    {
      "name": "ｂｏｃｃａ　ｃｏｆｆｅｅ＋ｅａｔｓ",
      "name_kana": "",
      "business_type": "飲食店営業",
      "address": "小諸市御影新田２５０８－２１",
      "lat": 36.299114673,
      "lng": 138.454038522,
      "geocoding_level": 8,
      "phone": "",
      "license_no": "第01254763号",
      "license_date": "2020-11-13",
      "expire_date": "2027-04-30"
    },
    {
      "name": "ツルヤ小諸店",
      "name_kana": "",
      "business_type": "菓子製造業",
      "address": "小諸市相生町二丁目2-22",
      "lat": 36.327302,
      "lng": 138.424177,
      "geocoding_level": 3,
      "phone": "",
      "license_no": "第01257931号",
      "license_date": "2021-10-08",
      "expire_date": "2028-04-30"
    },
    {
      "name": "ツルヤ小諸店　１階",
      "name_kana": "",
      "business_type": "飲食店営業",
      "address": "小諸市相生町二丁目2-22",
      "lat": 36.327302,
      "lng": 138.424177,
      "geocoding_level": 3,
      "phone": "",
      "license_no": "第01257948号",
      "license_date": "2021-10-08",
      "expire_date": "2028-04-30"
    },
    {
      "name": "ツルヤ小諸店",
      "name_kana": "",
      "business_type": "飲食店営業",
      "address": "小諸市相生町二丁目2-22",
      "lat": 36.327302,
      "lng": 138.424177,
      "geocoding_level": 3,
      "phone": "",
      "license_no": "第01257955号",
      "license_date": "2021-10-08",
      "expire_date": "2028-04-30"
    },
    {
      "name": "めん六や　長野小諸西店",
      "name_kana": "",
      "business_type": "飲食店営業",
      "address": "小諸市西原田中反２５８－１",
      "lat": 36.344239,
      "lng": 138.403916,
      "geocoding_level": 3,
      "phone": "",
      "license_no": "第01194623号",
      "license_date": "2021-04-30",
      "expire_date": "2027-04-30"
    },
    {
      "name": "日本料理音羽",
      "name_kana": "",
      "business_type": "豆腐製造業",
      "address": "小諸市鶴巻2-2-27",
      "lat": 36.324172,
      "lng": 138.428942,
      "geocoding_level": 3,
      "phone": "",
      "license_no": "第01258085号",
      "license_date": "2021-10-22",
      "expire_date": "2028-04-30"
    },
    {
      "name": "日本料理音羽",
      "name_kana": "",
      "business_type": "清涼飲料水製造業",
      "address": "小諸市鶴巻2-2-27",
      "lat": 36.324172,
      "lng": 138.428942,
      "geocoding_level": 3,
      "phone": "",
      "license_no": "第01258092号",
      "license_date": "2021-10-22",
      "expire_date": "2028-04-30"
    },
    {
      "name": "スナック　夜来香",
      "name_kana": "",
      "business_type": "飲食店営業",
      "address": "小諸市大手１－３－２夜来香ビル地下一階",
      "lat": 36.328496,
      "lng": 138.421219,
      "geocoding_level": 3,
      "phone": "",
      "license_no": "第01256530号",
      "license_date": "2021-05-14",
      "expire_date": "2027-04-30"
    },
    {
      "name": "ちゃんちき",
      "name_kana": "",
      "business_type": "飲食店営業",
      "address": "小諸市相生町１－３－４",
      "lat": 36.326878,
      "lng": 138.42212300000003,
      "geocoding_level": 3,
      "phone": "",
      "license_no": "第01225338号",
      "license_date": "2021-04-30",
      "expire_date": "2027-04-30"
    },
    {
      "name": "台湾料理　蓬莱閣",
      "name_kana": "",
      "business_type": "飲食店営業",
      "address": "小諸市南町2丁目2－1",
      "lat": 36.322397,
      "lng": 138.42749100000003,
      "geocoding_level": 3,
      "phone": "",
      "license_no": "第01258441号",
      "license_date": "2021-11-24",
      "expire_date": "2028-04-30"
    },
    {
      "name": "ツルヤ　小諸東店",
      "name_kana": "",
      "business_type": "飲食店営業",
      "address": "小諸市御幸町２－２－２６",
      "lat": 36.31698,
      "lng": 138.43738,
      "geocoding_level": 3,
      "phone": "",
      "license_no": "第01180980号",
      "license_date": "2020-12-28",
      "expire_date": "2026-12-31"
    },
    {
      "name": "ツルヤ　小諸東店",
      "name_kana": "",
      "business_type": "菓子製造業",
      "address": "小諸市御幸町２－２－２６",
      "lat": 36.31698,
      "lng": 138.43738,
      "geocoding_level": 3,
      "phone": "",
      "license_no": "第01181009号",
      "license_date": "2020-12-28",
      "expire_date": "2026-12-31"
    },
    {
      "name": "Ｆｕｌｌｍｏｏｎ",
      "name_kana": "",
      "business_type": "飲食店営業",
      "address": "小諸市大手1-1-5",
      "lat": 36.328496,
      "lng": 138.421219,
      "geocoding_level": 3,
      "phone": "",
      "license_no": "第01258683号",
      "license_date": "2022-01-14",
      "expire_date": "2028-04-30"
    },
    {
      "name": "大塚酒造（株）",
      "name_kana": "",
      "business_type": "酒類製造業",
      "address": "小諸市大手２－１－２４",
      "lat": 36.328494,
      "lng": 138.423722,
      "geocoding_level": 3,
      "phone": "",
      "license_no": "第02016918号",
      "license_date": "2021-10-29",
      "expire_date": "2026-10-31"
    },
    {
      "name": "セブンイレブン　小諸御影店",
      "name_kana": "",
      "business_type": "飲食店営業",
      "address": "小諸市御影新田２５９５－１",
      "lat": 36.297927905,
      "lng": 138.467784765,
      "geocoding_level": 8,
      "phone": "",
      "license_no": "第01183609号",
      "license_date": "2021-12-28",
      "expire_date": "2026-12-31"
    },
    {
      "name": "セブンイレブン　小諸三和１丁目店",
      "name_kana": "",
      "business_type": "飲食店営業",
      "address": "小諸市三和１－３０２５－１４",
      "lat": 36.330067,
      "lng": 138.42984,
      "geocoding_level": 3,
      "phone": "",
      "license_no": "第01233235号",
      "license_date": "2021-12-28",
      "expire_date": "2026-12-31"
    },
    {
      "name": "メフォス０１０５５１号店",
      "name_kana": "",
      "business_type": "飲食店営業",
      "address": "小諸市大字滋野甲９０７－１ 小諸市立西保育園",
      "lat": 36.343378727,
      "lng": 138.3868454,
      "geocoding_level": 8,
      "phone": "",
      "license_no": "第01255510号",
      "license_date": "2021-03-19",
      "expire_date": "2027-04-30"
    },
    {
      "name": "きのこの森",
      "name_kana": "",
      "business_type": "飲食店営業",
      "address": "小諸市大字菱平７６２－２",
      "lat": 36.358827,
      "lng": 138.438818,
      "geocoding_level": 3,
      "phone": "",
      "license_no": "第01253138号",
      "license_date": "2020-06-05",
      "expire_date": "2027-04-30"
    },
    {
      "name": "delicatessen　山吹",
      "name_kana": "",
      "business_type": "食肉製品製造業",
      "address": "小諸市荒町1-6-4",
      "lat": 36.328143,
      "lng": 138.42730700000004,
      "geocoding_level": 3,
      "phone": "",
      "license_no": "第01257186号",
      "license_date": "2021-07-16",
      "expire_date": "2027-10-31"
    },
    {
      "name": "delicatessen　山吹",
      "name_kana": "",
      "business_type": "漬物製造業",
      "address": "小諸市荒町1-6-4",
      "lat": 36.328143,
      "lng": 138.42730700000004,
      "geocoding_level": 3,
      "phone": "",
      "license_no": "第01257193号",
      "license_date": "2021-07-16",
      "expire_date": "2027-10-31"
    },
    {
      "name": "デリカテッセン山吹",
      "name_kana": "",
      "business_type": "飲食店営業",
      "address": "小諸市荒町1-6-4",
      "lat": 36.328143,
      "lng": 138.42730700000004,
      "geocoding_level": 3,
      "phone": "",
      "license_no": "第01257550号",
      "license_date": "2021-08-18",
      "expire_date": "2027-10-31"
    },
    {
      "name": "マクドナルド　１８号小諸店",
      "name_kana": "",
      "business_type": "飲食店営業",
      "address": "小諸市諸１１１－５",
      "lat": 36.336861521,
      "lng": 138.417542858,
      "geocoding_level": 8,
      "phone": "",
      "license_no": "第01197039号",
      "license_date": "2021-04-30",
      "expire_date": "2027-04-30"
    },
    {
      "name": "マクドナルド　１８号小諸店",
      "name_kana": "",
      "business_type": "アイスクリーム類製造業",
      "address": "小諸市諸１１１－５",
      "lat": 36.336861521,
      "lng": 138.417542858,
      "geocoding_level": 8,
      "phone": "",
      "license_no": "第01197053号",
      "license_date": "2021-04-30",
      "expire_date": "2027-04-30"
    },
    {
      "name": "マクドナルド　１８号小諸店",
      "name_kana": "",
      "business_type": "菓子製造業",
      "address": "小諸市諸１１１－５",
      "lat": 36.336861521,
      "lng": 138.417542858,
      "geocoding_level": 8,
      "phone": "",
      "license_no": "第01197046号",
      "license_date": "2021-04-30",
      "expire_date": "2027-04-30"
    },
    {
      "name": "ｔｅ　ｔｅ　ｄｏ",
      "name_kana": "",
      "business_type": "飲食店営業",
      "address": "小諸市菱平１９０４－６",
      "lat": 36.349117285,
      "lng": 138.429695584,
      "geocoding_level": 8,
      "phone": "",
      "license_no": "第01266096号",
      "license_date": "2023-07-28",
      "expire_date": "2030-04-30"
    },
    {
      "name": "ｔｅ　ｔｅ　ｄｏ",
      "name_kana": "",
      "business_type": "密封包装食品製造業",
      "address": "小諸市菱平１９０４－６",
      "lat": 36.349117285,
      "lng": 138.429695584,
      "geocoding_level": 8,
      "phone": "",
      "license_no": "第01266107号",
      "license_date": "2023-07-28",
      "expire_date": "2030-04-30"
    },
    {
      "name": "ツルヤ小諸店",
      "name_kana": "",
      "business_type": "食肉販売業",
      "address": "小諸市相生町二丁目2-22",
      "lat": 36.327302,
      "lng": 138.424177,
      "geocoding_level": 3,
      "phone": "",
      "license_no": "第01257916号",
      "license_date": "2021-10-08",
      "expire_date": "2028-04-30"
    },
    {
      "name": "ツルヤ　小諸東店",
      "name_kana": "",
      "business_type": "魚介類販売業",
      "address": "小諸市御幸町２－２－２６",
      "lat": 36.31698,
      "lng": 138.43738,
      "geocoding_level": 3,
      "phone": "",
      "license_no": "第01180997号",
      "license_date": "2020-12-28",
      "expire_date": "2026-12-31"
    },
    {
      "name": "ツルヤ小諸店",
      "name_kana": "",
      "business_type": "魚介類販売業",
      "address": "小諸市相生町二丁目2-22",
      "lat": 36.327302,
      "lng": 138.424177,
      "geocoding_level": 3,
      "phone": "",
      "license_no": "第01257923号",
      "license_date": "2021-10-08",
      "expire_date": "2028-04-30"
    },
    {
      "name": "ＫＡＪＩ　Ｈｏｕｓｅ",
      "name_kana": "",
      "business_type": "飲食店営業",
      "address": "小諸市諸２０１",
      "lat": 36.342363,
      "lng": 138.415888,
      "geocoding_level": 3,
      "phone": "",
      "license_no": "第01230610号",
      "license_date": "2021-11-30",
      "expire_date": "2027-11-30"
    },
    {
      "name": "寺田屋",
      "name_kana": "",
      "business_type": "飲食店営業",
      "address": "小諸市大手１－４－８",
      "lat": 36.328496,
      "lng": 138.421219,
      "geocoding_level": 3,
      "phone": "",
      "license_no": "第01164893号",
      "license_date": "2021-04-30",
      "expire_date": "2027-04-30"
    },
    {
      "name": "デイサービスセンター　あさま",
      "name_kana": "",
      "business_type": "飲食店営業",
      "address": "小諸市耳取９４８－１",
      "lat": 36.29087919,
      "lng": 138.438041134,
      "geocoding_level": 8,
      "phone": "",
      "license_no": "第01227218号",
      "license_date": "2021-04-30",
      "expire_date": "2027-04-30"
    },
    {
      "name": "布引温泉　こもろ",
      "name_kana": "",
      "business_type": "飲食店営業",
      "address": "小諸市大久保６２０－３",
      "lat": 36.330442,
      "lng": 138.401486,
      "geocoding_level": 3,
      "phone": "",
      "license_no": "第01199111号",
      "license_date": "2021-04-30",
      "expire_date": "2027-04-30"
    },
    {
      "name": "布引温泉　こもろ",
      "name_kana": "",
      "business_type": "喫茶店営業",
      "address": "小諸市大久保６２０－３",
      "lat": 36.330442,
      "lng": 138.401486,
      "geocoding_level": 3,
      "phone": "",
      "license_no": "第01199143号",
      "license_date": "2021-04-30",
      "expire_date": "2027-04-30"
    },
    {
      "name": "ショートステイ　佐久平",
      "name_kana": "",
      "business_type": "飲食店営業",
      "address": "小諸市市３３８－３",
      "lat": 36.281393111,
      "lng": 138.442951293,
      "geocoding_level": 8,
      "phone": "",
      "license_no": "第01184530号",
      "license_date": "2021-04-30",
      "expire_date": "2028-04-30"
    },
    {
      "name": "メフォス０１０５５０号店",
      "name_kana": "",
      "business_type": "飲食店営業",
      "address": "小諸市大字山浦３１９０－１ 小諸市立千曲保育園",
      "lat": 36.322641832,
      "lng": 138.410910311,
      "geocoding_level": 8,
      "phone": "",
      "license_no": "第01255502号",
      "license_date": "2021-03-19",
      "expire_date": "2027-04-30"
    },
    {
      "name": "マールツァイト　は・な・れ",
      "name_kana": "",
      "business_type": "飲食店営業",
      "address": "小諸市乙1127-4",
      "lat": 36.332335921,
      "lng": 138.430710402,
      "geocoding_level": 8,
      "phone": "",
      "license_no": "第01257511号",
      "license_date": "2021-08-05",
      "expire_date": "2028-04-30"
    },
    {
      "name": "ツルヤ　みかげ店",
      "name_kana": "",
      "business_type": "飲食店営業",
      "address": "小諸市御影新田２５９０－１",
      "lat": 36.298098513,
      "lng": 138.46725120400004,
      "geocoding_level": 8,
      "phone": "",
      "license_no": "第01197441号",
      "license_date": "2021-04-30",
      "expire_date": "2027-04-30"
    },
    {
      "name": "ツルヤ　みかげ店",
      "name_kana": "",
      "business_type": "飲食店営業",
      "address": "小諸市御影新田２５９０－１",
      "lat": 36.298098513,
      "lng": 138.46725120400004,
      "geocoding_level": 8,
      "phone": "",
      "license_no": "第01197459号",
      "license_date": "2021-04-30",
      "expire_date": "2027-04-30"
    },
    {
      "name": "ツルヤ　みかげ店",
      "name_kana": "",
      "business_type": "菓子製造業",
      "address": "小諸市御影新田２５９０－１",
      "lat": 36.298098513,
      "lng": 138.46725120400004,
      "geocoding_level": 8,
      "phone": "",
      "license_no": "第01197466号",
      "license_date": "2021-04-30",
      "expire_date": "2027-04-30"
    },
    {
      "name": "ユー・パレット　小諸店",
      "name_kana": "",
      "business_type": "魚介類販売業",
      "address": "小諸市御影新田大塚原１８５０－１",
      "lat": 36.301331,
      "lng": 138.46751900000004,
      "geocoding_level": 3,
      "phone": "",
      "license_no": "第02143335号",
      "license_date": "2021-04-30",
      "expire_date": "2027-04-30"
    },
    {
      "name": "暁の星幼稚園",
      "name_kana": "",
      "business_type": "飲食店営業",
      "address": "小諸市田町２－３－３３",
      "lat": 36.332913,
      "lng": 138.422535,
      "geocoding_level": 3,
      "phone": "",
      "license_no": "第01227321号",
      "license_date": "2021-04-30",
      "expire_date": "2027-04-30"
    },
    {
      "name": "炭火焼肉　牛角　小諸店",
      "name_kana": "",
      "business_type": "飲食店営業",
      "address": "小諸市御影新田２２１８",
      "lat": 36.301331,
      "lng": 138.46751900000004,
      "geocoding_level": 3,
      "phone": "",
      "license_no": "第01196154号",
      "license_date": "2021-04-30",
      "expire_date": "2027-04-30"
    },
    {
      "name": "株式会社高見澤　小諸工場",
      "name_kana": "",
      "business_type": "食品の冷凍または冷蔵業",
      "address": "小諸市御影新田２５７６－１",
      "lat": 36.298463132,
      "lng": 138.46607686,
      "geocoding_level": 8,
      "phone": "",
      "license_no": "第01224453号",
      "license_date": "2020-10-30",
      "expire_date": "2026-10-31"
    },
    {
      "name": "めん六や　長野小諸店",
      "name_kana": "",
      "business_type": "飲食店営業",
      "address": "小諸市和田和田原９１６番地１　ダイナム内",
      "lat": 36.290628,
      "lng": 138.458116,
      "geocoding_level": 3,
      "phone": "",
      "license_no": "第01168031号",
      "license_date": "2022-04-28",
      "expire_date": "2028-04-30"
    },
    {
      "name": "お食事処　やまへい",
      "name_kana": "",
      "business_type": "飲食店営業",
      "address": "小諸市平原１１７２－１",
      "lat": 36.314185531,
      "lng": 138.461510436,
      "geocoding_level": 8,
      "phone": "",
      "license_no": "第02022967号",
      "license_date": "2022-04-28",
      "expire_date": "2028-04-30"
    },
    {
      "name": "株式会社やまへい　本社工場",
      "name_kana": "",
      "business_type": "漬物製造業",
      "address": "小諸市甲１１９９",
      "lat": 36.31151,
      "lng": 138.431163,
      "geocoding_level": 3,
      "phone": "",
      "license_no": "第01263125号",
      "license_date": "2023-02-24",
      "expire_date": "2029-11-30"
    },
    {
      "name": "バーミヤン　小諸東店",
      "name_kana": "",
      "business_type": "飲食店営業",
      "address": "小諸市御幸町２－２－２４",
      "lat": 36.31698,
      "lng": 138.43738,
      "geocoding_level": 3,
      "phone": "",
      "license_no": "第01153441号",
      "license_date": "2022-04-28",
      "expire_date": "2028-04-30"
    },
    {
      "name": "小諸セントラルキッチン",
      "name_kana": "",
      "business_type": "水産製品製造業",
      "address": "小諸市与良町5丁目-3343-1",
      "lat": 36.323584,
      "lng": 138.433723,
      "geocoding_level": 3,
      "phone": "",
      "license_no": "第01265763号",
      "license_date": "2023-07-14",
      "expire_date": "2029-11-30"
    },
    {
      "name": "小諸セントラルキッチン",
      "name_kana": "",
      "business_type": "そうざい製造業",
      "address": "小諸市与良町5丁目-3343-1",
      "lat": 36.323584,
      "lng": 138.433723,
      "geocoding_level": 3,
      "phone": "",
      "license_no": "第01265771号",
      "license_date": "2023-07-14",
      "expire_date": "2029-11-30"
    },
    {
      "name": "小諸セントラルキッチン",
      "name_kana": "",
      "business_type": "菓子製造業",
      "address": "小諸市与良町２－９－２",
      "lat": 36.325770102,
      "lng": 138.435170126,
      "geocoding_level": 8,
      "phone": "",
      "license_no": "第01268581号",
      "license_date": "2024-03-22",
      "expire_date": "2030-11-30"
    },
    {
      "name": "小諸セントラルキッチン",
      "name_kana": "",
      "business_type": "食肉販売業",
      "address": "小諸市与良町２－９－２",
      "lat": 36.325770102,
      "lng": 138.435170126,
      "geocoding_level": 8,
      "phone": "",
      "license_no": "第01268599号",
      "license_date": "2024-03-22",
      "expire_date": "2030-11-30"
    },
    {
      "name": "ほっともっと　小諸東店",
      "name_kana": "",
      "business_type": "飲食店営業",
      "address": "小諸市御幸町２－３－７",
      "lat": 36.31698,
      "lng": 138.43738,
      "geocoding_level": 3,
      "phone": "",
      "license_no": "第01200438号",
      "license_date": "2022-04-28",
      "expire_date": "2028-04-30"
    },
    {
      "name": "ほっともっと小諸坂の上店",
      "name_kana": "",
      "business_type": "飲食店営業",
      "address": "小諸市三和１丁目８－５",
      "lat": 36.330067,
      "lng": 138.42984,
      "geocoding_level": 3,
      "phone": "",
      "license_no": "第01246721号",
      "license_date": "2025-04-30",
      "expire_date": "2031-04-30"
    },
    {
      "name": "さがみ典礼　小諸法事センター",
      "name_kana": "",
      "business_type": "飲食店営業",
      "address": "小諸市甲３５－２",
      "lat": 36.31151,
      "lng": 138.431163,
      "geocoding_level": 3,
      "phone": "",
      "license_no": "第01236588号",
      "license_date": "2023-04-28",
      "expire_date": "2029-04-30"
    },
    {
      "name": "さがみ典礼　小諸法事センター",
      "name_kana": "",
      "business_type": "飲食店営業",
      "address": "小諸市甲３５－２",
      "lat": 36.31151,
      "lng": 138.431163,
      "geocoding_level": 3,
      "phone": "",
      "license_no": "第01236571号",
      "license_date": "2023-04-28",
      "expire_date": "2029-04-30"
    },
    {
      "name": "ツルヤ　みかげ店",
      "name_kana": "",
      "business_type": "魚介類販売業",
      "address": "小諸市御影新田2590-1",
      "lat": 36.298098513,
      "lng": 138.46725120400004,
      "geocoding_level": 8,
      "phone": "",
      "license_no": "第01151789号",
      "license_date": "2021-12-28",
      "expire_date": "2028-12-31"
    },
    {
      "name": "ツルヤ　みかげ店",
      "name_kana": "",
      "business_type": "食肉販売業",
      "address": "小諸市御影新田2590-1",
      "lat": 36.298098513,
      "lng": 138.46725120400004,
      "geocoding_level": 8,
      "phone": "",
      "license_no": "第01151796号",
      "license_date": "2021-12-28",
      "expire_date": "2028-12-31"
    },
    {
      "name": "ツルヤ　小諸東店",
      "name_kana": "",
      "business_type": "食肉販売業",
      "address": "小諸市御幸町２－２－２６",
      "lat": 36.31698,
      "lng": 138.43738,
      "geocoding_level": 3,
      "phone": "",
      "license_no": "第02119310号",
      "license_date": "2024-12-27",
      "expire_date": "2031-11-30"
    },
    {
      "name": "OLENO　COFFEE",
      "name_kana": "",
      "business_type": "飲食店営業",
      "address": "小諸市与良町3丁目10-7",
      "lat": 36.321401,
      "lng": 138.429717,
      "geocoding_level": 3,
      "phone": "",
      "license_no": "第01257065号",
      "license_date": "2021-07-09",
      "expire_date": "2028-04-30"
    },
    {
      "name": "燻製屋ヒメ",
      "name_kana": "",
      "business_type": "水産製品製造業",
      "address": "小諸市柏木321番地",
      "lat": 36.328815,
      "lng": 138.452676,
      "geocoding_level": 3,
      "phone": "",
      "license_no": "第01257072号",
      "license_date": "2021-07-09",
      "expire_date": "2026-10-31"
    },
    {
      "name": "中部電力株式会社　小諸寮内レパスト",
      "name_kana": "",
      "business_type": "飲食店営業",
      "address": "小諸市紺屋町２－８－３０",
      "lat": 36.32845600000001,
      "lng": 138.43155,
      "geocoding_level": 3,
      "phone": "",
      "license_no": "第01212102号",
      "license_date": "2024-04-30",
      "expire_date": "2030-04-30"
    },
    {
      "name": "株式会社　井沢",
      "name_kana": "",
      "business_type": "食肉販売業",
      "address": "小諸市西原３２８番地１",
      "lat": 36.340182699,
      "lng": 138.402788171,
      "geocoding_level": 8,
      "phone": "",
      "license_no": "第01257179号",
      "license_date": "2021-07-16",
      "expire_date": "2027-12-31"
    },
    {
      "name": "ルルパ小諸愛の郷",
      "name_kana": "",
      "business_type": "飲食店営業",
      "address": "小諸市甲字北原田１６９３－６",
      "lat": 36.31151,
      "lng": 138.431163,
      "geocoding_level": 3,
      "phone": "",
      "license_no": "第01238225号",
      "license_date": "2023-04-28",
      "expire_date": "2029-04-30"
    },
    {
      "name": "さくから",
      "name_kana": "",
      "business_type": "飲食店営業",
      "address": "小諸市和田811-1",
      "lat": 36.293657103,
      "lng": 138.45804833400004,
      "geocoding_level": 8,
      "phone": "",
      "license_no": "第01257461号",
      "license_date": "2021-07-30",
      "expire_date": "2028-04-30"
    },
    {
      "name": "カラオケ　まねきねこ　小諸店",
      "name_kana": "",
      "business_type": "飲食店営業",
      "address": "小諸市滋野甲１１７１－３",
      "lat": 36.344704236,
      "lng": 138.38075155,
      "geocoding_level": 8,
      "phone": "",
      "license_no": "第01169965号",
      "license_date": "2022-04-28",
      "expire_date": "2028-04-30"
    },
    {
      "name": "セイケンリノベーション株式会社コモド",
      "name_kana": "",
      "business_type": "飲食店営業",
      "address": "小諸市荒町2丁目6番7号",
      "lat": 36.325819,
      "lng": 138.428628,
      "geocoding_level": 3,
      "phone": "",
      "license_no": "第01257624号",
      "license_date": "2021-09-03",
      "expire_date": "2028-04-30"
    },
    {
      "name": "メフォス０１０６５６号店",
      "name_kana": "",
      "business_type": "飲食店営業",
      "address": "小諸市甲１９９１",
      "lat": 36.316024174,
      "lng": 138.422445932,
      "geocoding_level": 8,
      "phone": "",
      "license_no": "第01259301号",
      "license_date": "2022-03-25",
      "expire_date": "2028-04-30"
    },
    {
      "name": "メフォス　１０７７６　号店",
      "name_kana": "",
      "business_type": "飲食店営業",
      "address": "小諸市大字八満７０番地",
      "lat": 36.319999693,
      "lng": 138.45489755,
      "geocoding_level": 8,
      "phone": "",
      "license_no": "第01268752号",
      "license_date": "2024-03-28",
      "expire_date": "2030-04-30"
    },
    {
      "name": "メフォス　１０７７７　号店",
      "name_kana": "",
      "business_type": "飲食店営業",
      "address": "小諸市大字市６６２番地１０",
      "lat": 36.291888058,
      "lng": 138.44246186,
      "geocoding_level": 8,
      "phone": "",
      "license_no": "第01268760号",
      "license_date": "2024-03-28",
      "expire_date": "2030-04-30"
    },
    {
      "name": "メフォス　１０７７８　号店",
      "name_kana": "",
      "business_type": "飲食店営業",
      "address": "小諸市大字御影新田１２６５番地１",
      "lat": 36.309102228,
      "lng": 138.47342149900004,
      "geocoding_level": 8,
      "phone": "",
      "license_no": "第01268777号",
      "license_date": "2024-03-28",
      "expire_date": "2030-04-30"
    },
    {
      "name": "さくら保育園",
      "name_kana": "",
      "business_type": "飲食店営業",
      "address": "小諸市六供１－７－１",
      "lat": 36.331726,
      "lng": 138.425638,
      "geocoding_level": 3,
      "phone": "",
      "license_no": "第01203103号",
      "license_date": "2022-04-28",
      "expire_date": "2028-04-30"
    },
    {
      "name": "愛灯園",
      "name_kana": "",
      "business_type": "飲食店営業",
      "address": "小諸市字高峯己一番地",
      "lat": 36.326874,
      "lng": 138.426021,
      "geocoding_level": 2,
      "phone": "",
      "license_no": "第01213001号",
      "license_date": "2024-04-30",
      "expire_date": "2030-04-30"
    },
    {
      "name": "こまくさケアセンター　日清医療食品事業所",
      "name_kana": "",
      "business_type": "飲食店営業",
      "address": "小諸市南町２丁目２－２７",
      "lat": 36.322397,
      "lng": 138.42749100000003,
      "geocoding_level": 3,
      "phone": "",
      "license_no": "第01270251号",
      "license_date": "2024-06-21",
      "expire_date": "2031-04-30"
    },
    {
      "name": "株式会社西友　小諸小原店",
      "name_kana": "",
      "business_type": "魚介類販売業",
      "address": "小諸市甲東原田1649-6",
      "lat": 36.31151,
      "lng": 138.431163,
      "geocoding_level": 3,
      "phone": "",
      "license_no": "第01143971号",
      "license_date": "2023-12-28",
      "expire_date": "2030-11-30"
    },
    {
      "name": "株式会社西友　小諸小原店　若菜",
      "name_kana": "",
      "business_type": "飲食店営業",
      "address": "小諸市甲東原田1649-6 西友内",
      "lat": 36.31151,
      "lng": 138.431163,
      "geocoding_level": 3,
      "phone": "",
      "license_no": "第01177556号",
      "license_date": "2025-12-26",
      "expire_date": "2032-04-30"
    },
    {
      "name": "ポッコ",
      "name_kana": "",
      "business_type": "飲食店営業",
      "address": "小諸市大手1-4-8 NKビル",
      "lat": 36.328496,
      "lng": 138.421219,
      "geocoding_level": 3,
      "phone": "",
      "license_no": "第01257738号",
      "license_date": "2021-09-17",
      "expire_date": "2027-04-30"
    },
    {
      "name": "サエーラ　あさま",
      "name_kana": "",
      "business_type": "飲食店営業",
      "address": "小諸市大字加増５３２－１",
      "lat": 36.317213952,
      "lng": 138.442882922,
      "geocoding_level": 8,
      "phone": "",
      "license_no": "第01249702号",
      "license_date": "2025-04-30",
      "expire_date": "2031-04-30"
    },
    {
      "name": "サエーラ　あさま　別館",
      "name_kana": "",
      "business_type": "飲食店営業",
      "address": "小諸市大字加増５３２－１",
      "lat": 36.317213952,
      "lng": 138.442882922,
      "geocoding_level": 8,
      "phone": "",
      "license_no": "第01249710号",
      "license_date": "2025-04-30",
      "expire_date": "2031-04-30"
    },
    {
      "name": "ドメーヌ・フジタ",
      "name_kana": "",
      "business_type": "酒類製造業",
      "address": "小諸市滋野甲4162-221",
      "lat": 36.362622447,
      "lng": 138.401356643,
      "geocoding_level": 8,
      "phone": "",
      "license_no": "第01257784号",
      "license_date": "2021-09-22",
      "expire_date": "2027-10-31"
    },
    {
      "name": "すき家　18号小諸店",
      "name_kana": "",
      "business_type": "飲食店営業",
      "address": "小諸市諸1-5-11",
      "lat": 36.336007,
      "lng": 138.41957200000002,
      "geocoding_level": 3,
      "phone": "",
      "license_no": "第01175683号",
      "license_date": "2023-04-28",
      "expire_date": "2029-04-30"
    },
    {
      "name": "まめぱんこーぼ　坊ちゃんママのパン",
      "name_kana": "",
      "business_type": "菓子製造業",
      "address": "小諸市平原761-4",
      "lat": 36.312474639,
      "lng": 138.460596097,
      "geocoding_level": 8,
      "phone": "",
      "license_no": "第01257834号",
      "license_date": "2021-09-30",
      "expire_date": "2027-10-31"
    },
    {
      "name": "小諸駅そば　清野商店",
      "name_kana": "",
      "business_type": "飲食店営業",
      "address": "小諸市相生町１丁目１　しなの鉄道小諸駅舎待合室内",
      "lat": 36.326878,
      "lng": 138.42212300000003,
      "geocoding_level": 3,
      "phone": "",
      "license_no": "第01257866号",
      "license_date": "2021-09-30",
      "expire_date": "2028-04-30"
    },
    {
      "name": "焼きたて屋",
      "name_kana": "",
      "business_type": "飲食店営業",
      "address": "小諸市滋野甲１４４２－２　カインズ小諸店内",
      "lat": 36.339936134,
      "lng": 138.391120757,
      "geocoding_level": 8,
      "phone": "",
      "license_no": "第01243044号",
      "license_date": "2023-04-28",
      "expire_date": "2028-04-30"
    },
    {
      "name": "ホテル　愛花夢小諸",
      "name_kana": "",
      "business_type": "飲食店営業",
      "address": "小諸市西原大道添839-5",
      "lat": 36.344239,
      "lng": 138.403916,
      "geocoding_level": 3,
      "phone": "",
      "license_no": "第01258128号",
      "license_date": "2021-10-29",
      "expire_date": "2027-04-30"
    },
    {
      "name": "WRAP!WRAP!",
      "name_kana": "",
      "business_type": "飲食店営業",
      "address": "小諸市乙５１４－４",
      "lat": 36.334589458,
      "lng": 138.42561457,
      "geocoding_level": 8,
      "phone": "",
      "license_no": "第01258562号",
      "license_date": "2021-12-17",
      "expire_date": "2026-12-31"
    },
    {
      "name": "Y's　Delicatessen",
      "name_kana": "",
      "business_type": "そうざい製造業",
      "address": "小諸市乙５１４－６",
      "lat": 36.334494956,
      "lng": 138.425769282,
      "geocoding_level": 8,
      "phone": "",
      "license_no": "第01262895号",
      "license_date": "2023-02-03",
      "expire_date": "2029-11-30"
    },
    {
      "name": "焼肉七福神",
      "name_kana": "",
      "business_type": "飲食店営業",
      "address": "小諸市大手１丁目４－８",
      "lat": 36.328496,
      "lng": 138.421219,
      "geocoding_level": 3,
      "phone": "",
      "license_no": "第01237680号",
      "license_date": "2022-04-28",
      "expire_date": "2027-04-30"
    },
    {
      "name": "焼肉　七福神",
      "name_kana": "",
      "business_type": "飲食店営業",
      "address": "小諸市",
      "lat": 36.326874,
      "lng": 138.426021,
      "geocoding_level": 2,
      "phone": "",
      "license_no": "第01238129号",
      "license_date": "2022-04-28",
      "expire_date": "2027-04-30"
    },
    {
      "name": "Ｒｏａｓｔ　Ｊｏｋｅｒ　本店",
      "name_kana": "",
      "business_type": "飲食店営業",
      "address": "小諸市大手１－４－８　　ＮＫビル２Ｆ",
      "lat": 36.328496,
      "lng": 138.421219,
      "geocoding_level": 3,
      "phone": "",
      "license_no": "第01275946号",
      "license_date": "2025-09-05",
      "expire_date": "2031-04-30"
    },
    {
      "name": "家族想邸宅みつわ　浅科中佐都店",
      "name_kana": "",
      "business_type": "飲食店営業",
      "address": "小諸市耳取１４７９",
      "lat": 36.289452,
      "lng": 138.427861,
      "geocoding_level": 3,
      "phone": "",
      "license_no": "第01251112号",
      "license_date": "2025-04-30",
      "expire_date": "2030-04-30"
    },
    {
      "name": "（株）あんでーくっく　佐久工場",
      "name_kana": "",
      "business_type": "飲食店営業",
      "address": "小諸市御影新田香久保２６０８",
      "lat": 36.301331,
      "lng": 138.46751900000004,
      "geocoding_level": 3,
      "phone": "",
      "license_no": "第01134582号",
      "license_date": "2024-04-30",
      "expire_date": "2030-04-30"
    },
    {
      "name": "浅間技研工業（株）社員食堂",
      "name_kana": "",
      "business_type": "飲食店営業",
      "address": "小諸市大字耳取字牛原４５０番地",
      "lat": 36.289452,
      "lng": 138.427861,
      "geocoding_level": 3,
      "phone": "",
      "license_no": "第01245636号",
      "license_date": "2025-04-30",
      "expire_date": "2031-04-30"
    },
    {
      "name": "（株）八十二銀行　小諸支店　社員食堂",
      "name_kana": "",
      "business_type": "飲食店営業",
      "address": "小諸市荒町１－６－１２",
      "lat": 36.328143,
      "lng": 138.42730700000004,
      "geocoding_level": 3,
      "phone": "",
      "license_no": "第01184903号",
      "license_date": "2025-04-30",
      "expire_date": "2031-04-30"
    },
    {
      "name": "ハグリコ　ファクトリー",
      "name_kana": "",
      "business_type": "飲食店営業",
      "address": "小諸市古城2丁目2-28",
      "lat": 36.32561,
      "lng": 138.42039100000002,
      "geocoding_level": 3,
      "phone": "",
      "license_no": "第01258402号",
      "license_date": "2021-11-19",
      "expire_date": "2028-04-30"
    },
    {
      "name": "ハグリコ　ファクトリー",
      "name_kana": "",
      "business_type": "菓子製造業",
      "address": "小諸市古城2丁目2-28",
      "lat": 36.32561,
      "lng": 138.42039100000002,
      "geocoding_level": 3,
      "phone": "",
      "license_no": "第01258410号",
      "license_date": "2021-11-19",
      "expire_date": "2028-04-30"
    },
    {
      "name": "（福）七草会　おむすび長屋",
      "name_kana": "",
      "business_type": "みそ又はしょうゆ製造業",
      "address": "小諸市加増谷地７４２－４",
      "lat": 36.330652,
      "lng": 138.448117,
      "geocoding_level": 3,
      "phone": "",
      "license_no": "第01207297号",
      "license_date": "2023-10-31",
      "expire_date": "2029-11-30"
    },
    {
      "name": "卯の花作業所",
      "name_kana": "",
      "business_type": "豆腐製造業",
      "address": "小諸市加増谷地７４２－４",
      "lat": 36.330652,
      "lng": 138.448117,
      "geocoding_level": 3,
      "phone": "",
      "license_no": "第01207308号",
      "license_date": "2023-10-31",
      "expire_date": "2029-11-30"
    },
    {
      "name": "CLASSON　THE　TERRACE",
      "name_kana": "",
      "business_type": "そうざい製造業",
      "address": "小諸市田町3-4-33",
      "lat": 36.334514,
      "lng": 138.421144,
      "geocoding_level": 3,
      "phone": "",
      "license_no": "第01258345号",
      "license_date": "2021-11-19",
      "expire_date": "2027-10-31"
    },
    {
      "name": "CLASSON　THE　TERRACE",
      "name_kana": "",
      "business_type": "飲食店営業",
      "address": "小諸市田町3-4-33",
      "lat": 36.334514,
      "lng": 138.421144,
      "geocoding_level": 3,
      "phone": "",
      "license_no": "第01258854号",
      "license_date": "2022-02-04",
      "expire_date": "2028-04-30"
    },
    {
      "name": "三美きのこ加工",
      "name_kana": "",
      "business_type": "密封包装食品製造業",
      "address": "小諸市与良町3丁目８－２　シティハイツイ１０２号室",
      "lat": 36.321401,
      "lng": 138.429717,
      "geocoding_level": 3,
      "phone": "",
      "license_no": "第01275526号",
      "license_date": "2025-07-25",
      "expire_date": "2031-11-30"
    },
    {
      "name": "酢久商店株式会社",
      "name_kana": "",
      "business_type": "みそ又はしょうゆ製造業",
      "address": "小諸市荒町1-7-12",
      "lat": 36.328143,
      "lng": 138.42730700000004,
      "geocoding_level": 3,
      "phone": "",
      "license_no": "第02016843号",
      "license_date": "2021-10-29",
      "expire_date": "2026-10-31"
    },
    {
      "name": "（有）しいばし",
      "name_kana": "",
      "business_type": "そうざい製造業",
      "address": "小諸市大手1-5-15",
      "lat": 36.328496,
      "lng": 138.421219,
      "geocoding_level": 3,
      "phone": "",
      "license_no": "第02017790号",
      "license_date": "2021-10-29",
      "expire_date": "2026-10-31"
    },
    {
      "name": "（有）しいばし",
      "name_kana": "",
      "business_type": "食肉販売業",
      "address": "小諸市大手１－５－１５",
      "lat": 36.328496,
      "lng": 138.421219,
      "geocoding_level": 3,
      "phone": "",
      "license_no": "第02014341号",
      "license_date": "2022-10-31",
      "expire_date": "2028-10-31"
    },
    {
      "name": "特別養護老人ホーム　あさがお",
      "name_kana": "",
      "business_type": "飲食店営業",
      "address": "小諸市東雲5-7-1",
      "lat": 36.333066673,
      "lng": 138.440088677,
      "geocoding_level": 8,
      "phone": "",
      "license_no": "第01263350号",
      "license_date": "2023-03-10",
      "expire_date": "2029-04-30"
    },
    {
      "name": "（有）常盤館",
      "name_kana": "",
      "business_type": "飲食店営業",
      "address": "小諸市菱平762-2",
      "lat": 36.358827,
      "lng": 138.438818,
      "geocoding_level": 3,
      "phone": "",
      "license_no": "第02127142号",
      "license_date": "2021-11-30",
      "expire_date": "2026-11-30"
    },
    {
      "name": "常盤館　雲の助",
      "name_kana": "",
      "business_type": "飲食店営業",
      "address": "小諸市菱平762-2",
      "lat": 36.358827,
      "lng": 138.438818,
      "geocoding_level": 3,
      "phone": "",
      "license_no": "第01155823号",
      "license_date": "2021-11-30",
      "expire_date": "2026-11-30"
    },
    {
      "name": "（有）常盤館",
      "name_kana": "",
      "business_type": "飲食店営業",
      "address": "小諸市菱平７６２－２",
      "lat": 36.358827,
      "lng": 138.438818,
      "geocoding_level": 3,
      "phone": "",
      "license_no": "第02105733号",
      "license_date": "2023-11-30",
      "expire_date": "2029-11-30"
    },
    {
      "name": "居酒屋　龍",
      "name_kana": "",
      "business_type": "飲食店営業",
      "address": "小諸市大手1-3-2　２階",
      "lat": 36.328496,
      "lng": 138.421219,
      "geocoding_level": 3,
      "phone": "",
      "license_no": "第01258669号",
      "license_date": "2022-01-07",
      "expire_date": "2028-04-30"
    },
    {
      "name": "（株）アーデン",
      "name_kana": "",
      "business_type": "密封包装食品製造業",
      "address": "小諸市森山６６－１",
      "lat": 36.303851181,
      "lng": 138.447379428,
      "geocoding_level": 8,
      "phone": "",
      "license_no": "第02135300号",
      "license_date": "2025-10-31",
      "expire_date": "2031-11-30"
    },
    {
      "name": "りんご家SUKEGAWA",
      "name_kana": "",
      "business_type": "飲食店営業",
      "address": "小諸市甲４６６０－４６",
      "lat": 36.347931027,
      "lng": 138.443812141,
      "geocoding_level": 8,
      "phone": "",
      "license_no": "第01258701号",
      "license_date": "2022-01-13",
      "expire_date": "2027-01-31"
    },
    {
      "name": "海鮮亭　楓",
      "name_kana": "",
      "business_type": "飲食店営業",
      "address": "小諸市大手1-3-4 安楽屋ビル2F",
      "lat": 36.328496,
      "lng": 138.421219,
      "geocoding_level": 3,
      "phone": "",
      "license_no": "第01258772号",
      "license_date": "2022-01-21",
      "expire_date": "2028-04-30"
    },
    {
      "name": "セブンイレブン　小諸御影新田店",
      "name_kana": "",
      "business_type": "飲食店営業",
      "address": "小諸市御影新田香久保2603-1",
      "lat": 36.301331,
      "lng": 138.46751900000004,
      "geocoding_level": 3,
      "phone": "",
      "license_no": "第01233121号",
      "license_date": "2021-12-28",
      "expire_date": "2026-12-31"
    },
    {
      "name": "セブンイレブン小諸芦原店",
      "name_kana": "",
      "business_type": "飲食店営業",
      "address": "小諸市新町一丁目5番13号",
      "lat": 36.33166,
      "lng": 138.415729,
      "geocoding_level": 3,
      "phone": "",
      "license_no": "第01237002号",
      "license_date": "2021-12-28",
      "expire_date": "2026-12-31"
    },
    {
      "name": "民家カフェ　散歩道",
      "name_kana": "",
      "business_type": "飲食店営業",
      "address": "小諸市六供１丁目２番１１号",
      "lat": 36.331726,
      "lng": 138.425638,
      "geocoding_level": 3,
      "phone": "",
      "license_no": "第01259027号",
      "license_date": "2022-03-08",
      "expire_date": "2027-04-30"
    },
    {
      "name": "Hotel ひしや",
      "name_kana": "",
      "business_type": "飲食店営業",
      "address": "小諸市御影新田２７４６－１",
      "lat": 36.296658501,
      "lng": 138.468329188,
      "geocoding_level": 8,
      "phone": "",
      "license_no": "第01259034号",
      "license_date": "2022-03-04",
      "expire_date": "2027-11-30"
    },
    {
      "name": "菱屋海賊船",
      "name_kana": "",
      "business_type": "飲食店営業",
      "address": "小諸市御影新田２７４６－１",
      "lat": 36.296658501,
      "lng": 138.468329188,
      "geocoding_level": 8,
      "phone": "",
      "license_no": "第01141089号",
      "license_date": "2023-04-28",
      "expire_date": "2029-04-30"
    },
    {
      "name": "ステーキレストランＨｉｓｈｉｙａ海賊船",
      "name_kana": "",
      "business_type": "そうざい製造業",
      "address": "小諸市御影新田２７４６－１",
      "lat": 36.296658501,
      "lng": 138.468329188,
      "geocoding_level": 8,
      "phone": "",
      "license_no": "第01269830号",
      "license_date": "2024-05-24",
      "expire_date": "2030-11-30"
    },
    {
      "name": "Ｈｉｓｈｉｙａ工房",
      "name_kana": "",
      "business_type": "食肉販売業",
      "address": "小諸市御影新田２７４６－１",
      "lat": 36.296658501,
      "lng": 138.468329188,
      "geocoding_level": 8,
      "phone": "",
      "license_no": "第01269847号",
      "license_date": "2024-05-24",
      "expire_date": "2030-11-30"
    },
    {
      "name": "ステーキレストランＨｉｓｈｉｙａ海賊船",
      "name_kana": "",
      "business_type": "飲食店営業",
      "address": "小諸市相生町１－３－１",
      "lat": 36.326878,
      "lng": 138.42212300000003,
      "geocoding_level": 3,
      "phone": "",
      "license_no": "第01271855号",
      "license_date": "2024-09-11",
      "expire_date": "2029-09-30"
    },
    {
      "name": "NUKAJI　WINE　HOUSE（糠地ワインハウス）",
      "name_kana": "",
      "business_type": "飲食店営業",
      "address": "小諸市大字滋野甲字北山４１６２－５１２",
      "lat": 36.352987,
      "lng": 138.392634,
      "geocoding_level": 3,
      "phone": "",
      "license_no": "第01259041号",
      "license_date": "2022-03-10",
      "expire_date": "2028-04-30"
    },
    {
      "name": "テールドシエル",
      "name_kana": "",
      "business_type": "飲食店営業",
      "address": "小諸市八幡町三丁目７番５号",
      "lat": 36.327667634,
      "lng": 138.436621793,
      "geocoding_level": 8,
      "phone": "",
      "license_no": "第01240735号",
      "license_date": "2023-04-28",
      "expire_date": "2028-04-30"
    },
    {
      "name": "Blanc　Surely",
      "name_kana": "",
      "business_type": "菓子製造業",
      "address": "小諸市六供１－９－２７",
      "lat": 36.331726,
      "lng": 138.425638,
      "geocoding_level": 3,
      "phone": "",
      "license_no": "第01259283号",
      "license_date": "2022-03-25",
      "expire_date": "2027-10-31"
    },
    {
      "name": "あさま苑　小諸センター",
      "name_kana": "",
      "business_type": "飲食店営業",
      "address": "小諸市加増５１２ー６",
      "lat": 36.316990191,
      "lng": 138.443335075,
      "geocoding_level": 8,
      "phone": "",
      "license_no": "第01259326号",
      "license_date": "2022-03-28",
      "expire_date": "2028-04-30"
    },
    {
      "name": "ラミヤーキッチン　スリランカフード",
      "name_kana": "",
      "business_type": "飲食店営業",
      "address": "小諸市大字塩野１９８７",
      "lat": 36.341934,
      "lng": 138.479951,
      "geocoding_level": 3,
      "phone": "",
      "license_no": "第01259415号",
      "license_date": "2022-03-30",
      "expire_date": "2027-04-30"
    },
    {
      "name": "学校法人福島学園　みすず幼稚園",
      "name_kana": "",
      "business_type": "飲食店営業",
      "address": "小諸市東雲三丁目15番４号",
      "lat": 36.331300287,
      "lng": 138.442930774,
      "geocoding_level": 8,
      "phone": "",
      "license_no": "第01259380号",
      "license_date": "2022-03-30",
      "expire_date": "2028-04-30"
    },
    {
      "name": "株式会社ユウワ従業員食堂",
      "name_kana": "",
      "business_type": "飲食店営業",
      "address": "小諸市西原７００番地１",
      "lat": 36.348445278,
      "lng": 138.40245442,
      "geocoding_level": 8,
      "phone": "",
      "license_no": "第01269039号",
      "license_date": "2024-04-12",
      "expire_date": "2030-04-30"
    },
    {
      "name": "フォーハノイ",
      "name_kana": "",
      "business_type": "飲食店営業",
      "address": "小諸市大手２丁目１番１０号",
      "lat": 36.328494,
      "lng": 138.423722,
      "geocoding_level": 3,
      "phone": "",
      "license_no": "第01263207号",
      "license_date": "2023-02-24",
      "expire_date": "2029-04-30"
    },
    {
      "name": "竹幸製麺所",
      "name_kana": "",
      "business_type": "麺類製造業",
      "address": "小諸市本町２－３－７",
      "lat": 36.32972,
      "lng": 138.423216,
      "geocoding_level": 3,
      "phone": "",
      "license_no": "第01259504号",
      "license_date": "2022-04-08",
      "expire_date": "2027-10-31"
    },
    {
      "name": "麺賊　夢我夢中本店",
      "name_kana": "",
      "business_type": "飲食店営業",
      "address": "小諸市御影新田２５９５－５",
      "lat": 36.298441911,
      "lng": 138.467483939,
      "geocoding_level": 8,
      "phone": "",
      "license_no": "第01236937号",
      "license_date": "2023-04-28",
      "expire_date": "2029-04-30"
    },
    {
      "name": "竹幸Ｆｏｏｄｌａｂｏ",
      "name_kana": "",
      "business_type": "そうざい製造業",
      "address": "小諸市本町２－３－７",
      "lat": 36.32972,
      "lng": 138.423216,
      "geocoding_level": 3,
      "phone": "",
      "license_no": "第01267981号",
      "license_date": "2023-12-01",
      "expire_date": "2029-11-30"
    },
    {
      "name": "竹幸製麺所",
      "name_kana": "",
      "business_type": "麺類製造業",
      "address": "小諸市本町２－３－７",
      "lat": 36.32972,
      "lng": 138.423216,
      "geocoding_level": 3,
      "phone": "",
      "license_no": "第01267999号",
      "license_date": "2023-12-01",
      "expire_date": "2029-11-30"
    },
    {
      "name": "中華そば　やまさだ",
      "name_kana": "",
      "business_type": "飲食店営業",
      "address": "小諸市本町２－３－７",
      "lat": 36.32972,
      "lng": 138.423216,
      "geocoding_level": 3,
      "phone": "",
      "license_no": "第01224916号",
      "license_date": "2024-04-30",
      "expire_date": "2029-04-30"
    },
    {
      "name": "豚骨醤油ラーメン尽者",
      "name_kana": "",
      "business_type": "飲食店営業",
      "address": "小諸市三和１－７－３０２０－５",
      "lat": 36.330067,
      "lng": 138.42984,
      "geocoding_level": 3,
      "phone": "",
      "license_no": "第01273094号",
      "license_date": "2025-01-10",
      "expire_date": "2031-04-30"
    },
    {
      "name": "Ｍille・Beaute（ミリ・ボーテ）",
      "name_kana": "",
      "business_type": "飲食店営業",
      "address": "小諸市菱平１０７２－２",
      "lat": 36.343378938,
      "lng": 138.431416208,
      "geocoding_level": 8,
      "phone": "",
      "license_no": "第01259640号",
      "license_date": "2022-04-15",
      "expire_date": "2027-04-30"
    },
    {
      "name": "パスタとワインの店　暖",
      "name_kana": "",
      "business_type": "菓子製造業",
      "address": "小諸市御影新田２２７０－１",
      "lat": 36.30061214,
      "lng": 138.468701133,
      "geocoding_level": 8,
      "phone": "",
      "license_no": "第01259671号",
      "license_date": "2022-04-22",
      "expire_date": "2027-10-31"
    },
    {
      "name": "パスタとワインの店　暖",
      "name_kana": "",
      "business_type": "飲食店営業",
      "address": "小諸市御影新田２２７０－１",
      "lat": 36.30061214,
      "lng": 138.468701133,
      "geocoding_level": 8,
      "phone": "",
      "license_no": "第01261188号",
      "license_date": "2022-07-27",
      "expire_date": "2027-07-31"
    },
    {
      "name": "パスタとワインの店　暖",
      "name_kana": "",
      "business_type": "そうざい製造業",
      "address": "小諸市御影新田２２７０－１",
      "lat": 36.30061214,
      "lng": 138.468701133,
      "geocoding_level": 8,
      "phone": "",
      "license_no": "第01264316号",
      "license_date": "2023-04-28",
      "expire_date": "2029-11-30"
    },
    {
      "name": "Ｋｕｒｏｓｈｉｓｈｉ　Ｋｉｔｃｈｅｎ",
      "name_kana": "",
      "business_type": "飲食店営業",
      "address": "小諸市和田８７７－１",
      "lat": 36.292604189,
      "lng": 138.460172473,
      "geocoding_level": 8,
      "phone": "",
      "license_no": "第01263941号",
      "license_date": "2023-04-14",
      "expire_date": "2028-04-30"
    },
    {
      "name": "本陣主屋",
      "name_kana": "",
      "business_type": "飲食店営業",
      "address": "小諸市大手1-6-14",
      "lat": 36.328496,
      "lng": 138.421219,
      "geocoding_level": 3,
      "phone": "",
      "license_no": "第01259835号",
      "license_date": "2022-04-27",
      "expire_date": "2027-04-30"
    },
    {
      "name": "プチポム",
      "name_kana": "",
      "business_type": "飲食店営業",
      "address": "小諸市八満９２－５",
      "lat": 36.318675301,
      "lng": 138.455940535,
      "geocoding_level": 8,
      "phone": "",
      "license_no": "第01259803号",
      "license_date": "2022-04-21",
      "expire_date": "2027-04-30"
    },
    {
      "name": "スナック　リボン",
      "name_kana": "",
      "business_type": "飲食店営業",
      "address": "小諸市相生町１－２－７",
      "lat": 36.326878,
      "lng": 138.42212300000003,
      "geocoding_level": 3,
      "phone": "",
      "license_no": "第01259811号",
      "license_date": "2022-04-22",
      "expire_date": "2028-04-30"
    },
    {
      "name": "和風らあめん　都奈",
      "name_kana": "",
      "business_type": "飲食店営業",
      "address": "小諸市大手１－１－５",
      "lat": 36.328496,
      "lng": 138.421219,
      "geocoding_level": 3,
      "phone": "",
      "license_no": "第02145853号",
      "license_date": "2022-04-28",
      "expire_date": "2028-04-30"
    },
    {
      "name": "セブン-イレブン　小諸水押店",
      "name_kana": "",
      "business_type": "飲食店営業",
      "address": "小諸市丙字青木４０７－１",
      "lat": 36.332708,
      "lng": 138.406232,
      "geocoding_level": 3,
      "phone": "",
      "license_no": "第01238079号",
      "license_date": "2022-04-28",
      "expire_date": "2027-04-30"
    },
    {
      "name": "満天星",
      "name_kana": "",
      "business_type": "飲食店営業",
      "address": "小諸市大字山浦９１３－１",
      "lat": 36.304353443,
      "lng": 138.417220131,
      "geocoding_level": 8,
      "phone": "",
      "license_no": "第01259956号",
      "license_date": "2022-05-13",
      "expire_date": "2029-04-30"
    },
    {
      "name": "マルフジ",
      "name_kana": "",
      "business_type": "飲食店営業",
      "address": "小諸市相生町２－２７－２ 神林ビル１F",
      "lat": 36.327302,
      "lng": 138.424177,
      "geocoding_level": 3,
      "phone": "",
      "license_no": "第01260054号",
      "license_date": "2022-05-16",
      "expire_date": "2029-04-30"
    },
    {
      "name": "ラ・カフェ　ノルウェイの森",
      "name_kana": "",
      "business_type": "飲食店営業",
      "address": "小諸市柏木上出間１４５４－３",
      "lat": 36.325858,
      "lng": 138.456014,
      "geocoding_level": 3,
      "phone": "",
      "license_no": "第01139791号",
      "license_date": "2022-04-28",
      "expire_date": "2028-04-30"
    },
    {
      "name": "居酒屋　吉法師",
      "name_kana": "",
      "business_type": "飲食店営業",
      "address": "小諸市南町１－２７３６－５",
      "lat": 36.323997000000006,
      "lng": 138.425945,
      "geocoding_level": 3,
      "phone": "",
      "license_no": "第01262557号",
      "license_date": "2022-11-25",
      "expire_date": "2029-04-30"
    },
    {
      "name": "天麩羅割烹　懐",
      "name_kana": "",
      "business_type": "飲食店営業",
      "address": "小諸市相生町１－２－７",
      "lat": 36.326878,
      "lng": 138.42212300000003,
      "geocoding_level": 3,
      "phone": "",
      "license_no": "第01168062号",
      "license_date": "2022-04-28",
      "expire_date": "2028-04-30"
    },
    {
      "name": "酒・酒家",
      "name_kana": "",
      "business_type": "飲食店営業",
      "address": "小諸市大手１－４－９",
      "lat": 36.328496,
      "lng": 138.421219,
      "geocoding_level": 3,
      "phone": "",
      "license_no": "第01168824号",
      "license_date": "2022-04-28",
      "expire_date": "2028-04-30"
    },
    {
      "name": "くるまやラーメン　小諸店",
      "name_kana": "",
      "business_type": "飲食店営業",
      "address": "小諸市与良町６－１－３",
      "lat": 36.325464447,
      "lng": 138.435546968,
      "geocoding_level": 8,
      "phone": "",
      "license_no": "第01170840号",
      "license_date": "2022-04-28",
      "expire_date": "2028-04-30"
    },
    {
      "name": "居酒屋　紫陽花",
      "name_kana": "",
      "business_type": "飲食店営業",
      "address": "小諸市大手１－２－１",
      "lat": 36.328496,
      "lng": 138.421219,
      "geocoding_level": 3,
      "phone": "",
      "license_no": "第01171221号",
      "license_date": "2022-04-28",
      "expire_date": "2028-04-30"
    },
    {
      "name": "小料理　凛",
      "name_kana": "",
      "business_type": "飲食店営業",
      "address": "小諸市相生町１－２－１５",
      "lat": 36.326878,
      "lng": 138.42212300000003,
      "geocoding_level": 3,
      "phone": "",
      "license_no": "第01202268号",
      "license_date": "2022-04-28",
      "expire_date": "2028-04-30"
    },
    {
      "name": "酒蔵大学　千なり",
      "name_kana": "",
      "business_type": "飲食店営業",
      "address": "小諸市鶴巻２－１－１",
      "lat": 36.324172,
      "lng": 138.428942,
      "geocoding_level": 3,
      "phone": "",
      "license_no": "第01202461号",
      "license_date": "2022-04-28",
      "expire_date": "2028-04-30"
    },
    {
      "name": "そらいろの丘",
      "name_kana": "",
      "business_type": "飲食店営業",
      "address": "小諸市山浦虚空蔵４２９３－１",
      "lat": 36.308909,
      "lng": 138.406077,
      "geocoding_level": 3,
      "phone": "",
      "license_no": "第01231857号",
      "license_date": "2022-04-28",
      "expire_date": "2028-04-30"
    },
    {
      "name": "カフェ　花ＣＯ",
      "name_kana": "",
      "business_type": "飲食店営業",
      "address": "小諸市相生町３－３－３小諸プラザ１Ｆ",
      "lat": 36.327444,
      "lng": 138.425575,
      "geocoding_level": 3,
      "phone": "",
      "license_no": "第01232667号",
      "license_date": "2022-04-28",
      "expire_date": "2028-04-30"
    },
    {
      "name": "中華　杏亭",
      "name_kana": "",
      "business_type": "飲食店営業",
      "address": "小諸市御影新田２７４６－１",
      "lat": 36.296658501,
      "lng": 138.468329188,
      "geocoding_level": 8,
      "phone": "",
      "license_no": "第01233114号",
      "license_date": "2022-04-28",
      "expire_date": "2028-04-30"
    },
    {
      "name": "ＳＡＫＵＲＡ　Ｃａｆｅ",
      "name_kana": "",
      "business_type": "飲食店営業",
      "address": "小諸市甲１１４－１０",
      "lat": 36.308788815,
      "lng": 138.43795349,
      "geocoding_level": 8,
      "phone": "",
      "license_no": "第01234587号",
      "license_date": "2022-04-28",
      "expire_date": "2027-04-30"
    },
    {
      "name": "SAKURA　Cafe",
      "name_kana": "",
      "business_type": "飲食店営業",
      "address": "小諸市甲１１４－１０",
      "lat": 36.308788815,
      "lng": 138.43795349,
      "geocoding_level": 8,
      "phone": "",
      "license_no": "第01238727号",
      "license_date": "2022-04-28",
      "expire_date": "2027-04-30"
    },
    {
      "name": "宮嶋林檎園",
      "name_kana": "",
      "business_type": "飲食店営業",
      "address": "小諸市森山９５９－１１",
      "lat": 36.294853116,
      "lng": 138.438078242,
      "geocoding_level": 8,
      "phone": "",
      "license_no": "第01234594号",
      "license_date": "2022-04-28",
      "expire_date": "2027-04-30"
    },
    {
      "name": "小諸なる小宮山酒店",
      "name_kana": "",
      "business_type": "飲食店営業",
      "address": "小諸市鶴巻一丁目４番１４号",
      "lat": 36.323534,
      "lng": 138.428493,
      "geocoding_level": 3,
      "phone": "",
      "license_no": "第01234669号",
      "license_date": "2022-04-28",
      "expire_date": "2027-04-30"
    },
    {
      "name": "小諸なる小宮山酒店",
      "name_kana": "",
      "business_type": "飲食店営業",
      "address": "小諸市鶴巻一丁目４番１４号",
      "lat": 36.323534,
      "lng": 138.428493,
      "geocoding_level": 3,
      "phone": "",
      "license_no": "第01266460号",
      "license_date": "2023-08-15",
      "expire_date": "2028-08-31"
    },
    {
      "name": "浅間兄弟",
      "name_kana": "",
      "business_type": "飲食店営業",
      "address": "小諸市南町２－１－９",
      "lat": 36.322397,
      "lng": 138.42749100000003,
      "geocoding_level": 3,
      "phone": "",
      "license_no": "第01234732号",
      "license_date": "2022-04-28",
      "expire_date": "2027-04-30"
    },
    {
      "name": "PORKY",
      "name_kana": "",
      "business_type": "飲食店営業",
      "address": "小諸市山浦９３９－５",
      "lat": 36.302256240000006,
      "lng": 138.418102045,
      "geocoding_level": 8,
      "phone": "",
      "license_no": "第01234903号",
      "license_date": "2022-04-28",
      "expire_date": "2027-04-30"
    },
    {
      "name": "TEPPAN　kitchen　PORKY",
      "name_kana": "",
      "business_type": "そうざい製造業",
      "address": "小諸市山浦９３９－５",
      "lat": 36.302256240000006,
      "lng": 138.418102045,
      "geocoding_level": 8,
      "phone": "",
      "license_no": "第01266791号",
      "license_date": "2023-09-08",
      "expire_date": "2029-11-30"
    },
    {
      "name": "ＣＬｏｕｄ９",
      "name_kana": "",
      "business_type": "飲食店営業",
      "address": "小諸市御影新田１５３９－１",
      "lat": 36.306186789,
      "lng": 138.446524788,
      "geocoding_level": 8,
      "phone": "",
      "license_no": "第01235664号",
      "license_date": "2022-04-28",
      "expire_date": "2027-04-30"
    },
    {
      "name": "相生会館",
      "name_kana": "",
      "business_type": "飲食店営業",
      "address": "小諸市相生町二丁目１番５号",
      "lat": 36.327302,
      "lng": 138.424177,
      "geocoding_level": 3,
      "phone": "",
      "license_no": "第01236798号",
      "license_date": "2022-04-28",
      "expire_date": "2027-04-30"
    },
    {
      "name": "小諸町並みミュージアム",
      "name_kana": "",
      "business_type": "飲食店営業",
      "address": "小諸市荒町一丁目５番７号",
      "lat": 36.328143,
      "lng": 138.42730700000004,
      "geocoding_level": 3,
      "phone": "",
      "license_no": "第01237116号",
      "license_date": "2022-04-28",
      "expire_date": "2027-04-30"
    },
    {
      "name": "小諸町並みミュージアム",
      "name_kana": "",
      "business_type": "飲食店営業",
      "address": "小諸市荒町一丁目５番７号",
      "lat": 36.328143,
      "lng": 138.42730700000004,
      "geocoding_level": 3,
      "phone": "",
      "license_no": "第01237123号",
      "license_date": "2022-04-28",
      "expire_date": "2027-04-30"
    },
    {
      "name": "響",
      "name_kana": "",
      "business_type": "飲食店営業",
      "address": "小諸市大手町１－４－４",
      "lat": 36.326874,
      "lng": 138.426021,
      "geocoding_level": 2,
      "phone": "",
      "license_no": "第01237665号",
      "license_date": "2022-04-28",
      "expire_date": "2027-04-30"
    },
    {
      "name": "あさま高原マルシェ",
      "name_kana": "",
      "business_type": "飲食店営業",
      "address": "小諸市甲４４７９－９",
      "lat": 36.340309085,
      "lng": 138.445631468,
      "geocoding_level": 8,
      "phone": "",
      "license_no": "第01237730号",
      "license_date": "2022-04-28",
      "expire_date": "2027-04-30"
    },
    {
      "name": "あさま高原マルシェ",
      "name_kana": "",
      "business_type": "そうざい製造業",
      "address": "小諸市甲４４７９－９",
      "lat": 36.340309085,
      "lng": 138.445631468,
      "geocoding_level": 8,
      "phone": "",
      "license_no": "第01237747号",
      "license_date": "2022-04-28",
      "expire_date": "2027-04-30"
    },
    {
      "name": "軽井沢のアトリエ",
      "name_kana": "",
      "business_type": "菓子製造業",
      "address": "小諸市甲４４７９－９",
      "lat": 36.340309085,
      "lng": 138.445631468,
      "geocoding_level": 8,
      "phone": "",
      "license_no": "第01236660号",
      "license_date": "2022-10-31",
      "expire_date": "2028-10-31"
    },
    {
      "name": "四海浪　売店",
      "name_kana": "",
      "business_type": "飲食店営業",
      "address": "小諸市丁３１５－イ　懐古園内",
      "lat": 36.326564,
      "lng": 138.41693,
      "geocoding_level": 3,
      "phone": "",
      "license_no": "第02000383号",
      "license_date": "2022-04-28",
      "expire_date": "2028-04-30"
    },
    {
      "name": "たけやぶ",
      "name_kana": "",
      "business_type": "飲食店営業",
      "address": "小諸市八満３６０－４",
      "lat": 36.322385919,
      "lng": 138.460768356,
      "geocoding_level": 8,
      "phone": "",
      "license_no": "第02100145号",
      "license_date": "2022-04-28",
      "expire_date": "2028-04-30"
    },
    {
      "name": "喰い処　末廣",
      "name_kana": "",
      "business_type": "飲食店営業",
      "address": "小諸市南町１－９－１２",
      "lat": 36.323997000000006,
      "lng": 138.425945,
      "geocoding_level": 3,
      "phone": "",
      "license_no": "第02115834号",
      "license_date": "2022-04-28",
      "expire_date": "2028-04-30"
    },
    {
      "name": "エメラルド",
      "name_kana": "",
      "business_type": "飲食店営業",
      "address": "小諸市相生町１－３－５",
      "lat": 36.326878,
      "lng": 138.42212300000003,
      "geocoding_level": 3,
      "phone": "",
      "license_no": "第02020941号",
      "license_date": "2022-04-28",
      "expire_date": "2028-04-30"
    },
    {
      "name": "東京電力パワーグリッド（株）千曲川事務所",
      "name_kana": "",
      "business_type": "飲食店営業",
      "address": "小諸市田町２－３－２",
      "lat": 36.332913,
      "lng": 138.422535,
      "geocoding_level": 3,
      "phone": "",
      "license_no": "第02123343号",
      "license_date": "2022-04-28",
      "expire_date": "2028-04-30"
    },
    {
      "name": "城下寮　食堂",
      "name_kana": "",
      "business_type": "飲食店営業",
      "address": "小諸市甲２１７１",
      "lat": 36.31151,
      "lng": 138.431163,
      "geocoding_level": 3,
      "phone": "",
      "license_no": "第02145530号",
      "license_date": "2022-04-28",
      "expire_date": "2028-04-30"
    },
    {
      "name": "喫茶　グレイス",
      "name_kana": "",
      "business_type": "飲食店営業",
      "address": "小諸市市五反田７９７－２０",
      "lat": 36.290425,
      "lng": 138.445845,
      "geocoding_level": 3,
      "phone": "",
      "license_no": "第02123611号",
      "license_date": "2022-04-28",
      "expire_date": "2028-04-30"
    },
    {
      "name": "スナック　俺ん家",
      "name_kana": "",
      "business_type": "飲食店営業",
      "address": "小諸市和田外端１２６－５",
      "lat": 36.290628,
      "lng": 138.458116,
      "geocoding_level": 3,
      "phone": "",
      "license_no": "第02126268号",
      "license_date": "2022-04-28",
      "expire_date": "2028-04-30"
    },
    {
      "name": "菖蒲庵",
      "name_kana": "",
      "business_type": "飲食店営業",
      "address": "小諸市山浦１０７５",
      "lat": 36.305121686,
      "lng": 138.416992503,
      "geocoding_level": 8,
      "phone": "",
      "license_no": "第02144986号",
      "license_date": "2022-04-28",
      "expire_date": "2028-04-30"
    },
    {
      "name": "井泉庵",
      "name_kana": "",
      "business_type": "飲食店営業",
      "address": "小諸市新町１－３－３１",
      "lat": 36.33166,
      "lng": 138.415729,
      "geocoding_level": 3,
      "phone": "",
      "license_no": "第01157856号",
      "license_date": "2022-04-28",
      "expire_date": "2027-04-30"
    },
    {
      "name": "小諸商工会議所",
      "name_kana": "",
      "business_type": "飲食店営業",
      "address": "小諸市",
      "lat": 36.326874,
      "lng": 138.426021,
      "geocoding_level": 2,
      "phone": "",
      "license_no": "第01183865号",
      "license_date": "2022-04-28",
      "expire_date": "2027-04-30"
    },
    {
      "name": "小諸商工会議所",
      "name_kana": "",
      "business_type": "飲食店営業",
      "address": "小諸市相生町３－３－１２",
      "lat": 36.327444,
      "lng": 138.425575,
      "geocoding_level": 3,
      "phone": "",
      "license_no": "第01224909号",
      "license_date": "2024-04-30",
      "expire_date": "2029-04-30"
    },
    {
      "name": "古久清",
      "name_kana": "",
      "business_type": "飲食店営業",
      "address": "小諸市甲３３５５－２",
      "lat": 36.31151,
      "lng": 138.431163,
      "geocoding_level": 3,
      "phone": "",
      "license_no": "第02021331号",
      "license_date": "2022-04-28",
      "expire_date": "2028-04-30"
    },
    {
      "name": "タイレストラン　ＳＯ．ＲＵＴＨＡＩ",
      "name_kana": "",
      "business_type": "飲食店営業",
      "address": "小諸市鶴巻１－３－１１",
      "lat": 36.323534,
      "lng": 138.428493,
      "geocoding_level": 3,
      "phone": "",
      "license_no": "第01168183号",
      "license_date": "2022-04-28",
      "expire_date": "2028-04-30"
    },
    {
      "name": "凱",
      "name_kana": "",
      "business_type": "飲食店営業",
      "address": "小諸市大字滋野甲５９１－１",
      "lat": 36.352984979,
      "lng": 138.389668045,
      "geocoding_level": 8,
      "phone": "",
      "license_no": "第01231907号",
      "license_date": "2022-04-28",
      "expire_date": "2028-04-30"
    },
    {
      "name": "凱",
      "name_kana": "",
      "business_type": "菓子製造業",
      "address": "小諸市大字滋野甲５９１－１",
      "lat": 36.352984979,
      "lng": 138.389668045,
      "geocoding_level": 8,
      "phone": "",
      "license_no": "第01260435号",
      "license_date": "2022-06-17",
      "expire_date": "2028-10-31"
    },
    {
      "name": "凱",
      "name_kana": "",
      "business_type": "麺類製造業",
      "address": "小諸市大字滋野甲５９１－１",
      "lat": 36.352984979,
      "lng": 138.389668045,
      "geocoding_level": 8,
      "phone": "",
      "license_no": "第01260428号",
      "license_date": "2022-06-17",
      "expire_date": "2028-10-31"
    },
    {
      "name": "浅間兄弟",
      "name_kana": "",
      "business_type": "飲食店営業",
      "address": "小諸市",
      "lat": 36.326874,
      "lng": 138.426021,
      "geocoding_level": 2,
      "phone": "",
      "license_no": "第01234725号",
      "license_date": "2022-04-28",
      "expire_date": "2027-04-30"
    },
    {
      "name": "レストラン　八億",
      "name_kana": "",
      "business_type": "飲食店営業",
      "address": "小諸市滋野甲１１９７－３",
      "lat": 36.344305074,
      "lng": 138.382383187,
      "geocoding_level": 8,
      "phone": "",
      "license_no": "第02145222号",
      "license_date": "2022-04-28",
      "expire_date": "2028-04-30"
    },
    {
      "name": "膳",
      "name_kana": "",
      "business_type": "飲食店営業",
      "address": "小諸市相生町２－１－３",
      "lat": 36.327302,
      "lng": 138.424177,
      "geocoding_level": 3,
      "phone": "",
      "license_no": "第01171390号",
      "license_date": "2022-04-28",
      "expire_date": "2028-04-30"
    },
    {
      "name": "かるく一杯　ちどり",
      "name_kana": "",
      "business_type": "飲食店営業",
      "address": "小諸市和田８５３－１１",
      "lat": 36.293794441,
      "lng": 138.461337925,
      "geocoding_level": 8,
      "phone": "",
      "license_no": "第01135346号",
      "license_date": "2022-04-28",
      "expire_date": "2027-04-30"
    },
    {
      "name": "ちゃんちき",
      "name_kana": "",
      "business_type": "飲食店営業",
      "address": "小諸市山浦７４６",
      "lat": 36.300035495,
      "lng": 138.416435733,
      "geocoding_level": 8,
      "phone": "",
      "license_no": "第01236734号",
      "license_date": "2022-04-28",
      "expire_date": "2027-04-30"
    },
    {
      "name": "ちゃんちき",
      "name_kana": "",
      "business_type": "飲食店営業",
      "address": "小諸市山浦７４６",
      "lat": 36.300035495,
      "lng": 138.416435733,
      "geocoding_level": 8,
      "phone": "",
      "license_no": "第01236727号",
      "license_date": "2022-04-28",
      "expire_date": "2027-04-30"
    },
    {
      "name": "ベルコーヒー",
      "name_kana": "",
      "business_type": "飲食店営業",
      "address": "小諸市大手２－１－３０",
      "lat": 36.328494,
      "lng": 138.423722,
      "geocoding_level": 3,
      "phone": "",
      "license_no": "第01234741号",
      "license_date": "2022-04-28",
      "expire_date": "2027-04-30"
    },
    {
      "name": "花川堂",
      "name_kana": "",
      "business_type": "飲食店営業",
      "address": "小諸市大手１－１－６",
      "lat": 36.328496,
      "lng": 138.421219,
      "geocoding_level": 3,
      "phone": "",
      "license_no": "第02033021号",
      "license_date": "2022-04-28",
      "expire_date": "2028-04-30"
    },
    {
      "name": "喫茶　いけの",
      "name_kana": "",
      "business_type": "飲食店営業",
      "address": "小諸市相生町２－２－５",
      "lat": 36.327302,
      "lng": 138.424177,
      "geocoding_level": 3,
      "phone": "",
      "license_no": "第02114216号",
      "license_date": "2022-04-28",
      "expire_date": "2027-04-30"
    },
    {
      "name": "郷ごころ",
      "name_kana": "",
      "business_type": "麺類製造業",
      "address": "小諸市森山６６－３",
      "lat": 36.303733449,
      "lng": 138.448404219,
      "geocoding_level": 8,
      "phone": "",
      "license_no": "第01235041号",
      "license_date": "2022-04-28",
      "expire_date": "2027-04-30"
    },
    {
      "name": "あそび場",
      "name_kana": "",
      "business_type": "飲食店営業",
      "address": "小諸市相生町３－１－６　４階",
      "lat": 36.327444,
      "lng": 138.425575,
      "geocoding_level": 3,
      "phone": "",
      "license_no": "第01260190号",
      "license_date": "2022-05-30",
      "expire_date": "2028-04-30"
    },
    {
      "name": "あそび場",
      "name_kana": "",
      "business_type": "飲食店営業",
      "address": "小諸市塩野２１４５",
      "lat": 36.341934,
      "lng": 138.479951,
      "geocoding_level": 3,
      "phone": "",
      "license_no": "第01265279号",
      "license_date": "2023-06-23",
      "expire_date": "2028-06-30"
    },
    {
      "name": "居酒屋　ぶらいかん",
      "name_kana": "",
      "business_type": "飲食店営業",
      "address": "小諸市柏木２０７－１４",
      "lat": 36.31444905,
      "lng": 138.449902784,
      "geocoding_level": 8,
      "phone": "",
      "license_no": "第01260218号",
      "license_date": "2022-05-26",
      "expire_date": "2027-05-31"
    },
    {
      "name": "居酒屋　ぶらいかん",
      "name_kana": "",
      "business_type": "飲食店営業",
      "address": "小諸市柏木２０７－１４",
      "lat": 36.31444905,
      "lng": 138.449902784,
      "geocoding_level": 8,
      "phone": "",
      "license_no": "第01266089号",
      "license_date": "2023-07-25",
      "expire_date": "2028-07-31"
    },
    {
      "name": "ぶらいかん",
      "name_kana": "",
      "business_type": "飲食店営業",
      "address": "小諸市相生町１－２－３",
      "lat": 36.326878,
      "lng": 138.42212300000003,
      "geocoding_level": 3,
      "phone": "",
      "license_no": "第01242362号",
      "license_date": "2024-04-30",
      "expire_date": "2030-04-30"
    },
    {
      "name": "スナック　Peace",
      "name_kana": "",
      "business_type": "飲食店営業",
      "address": "小諸市大手１－３－１５",
      "lat": 36.328496,
      "lng": 138.421219,
      "geocoding_level": 3,
      "phone": "",
      "license_no": "第01260346号",
      "license_date": "2022-06-10",
      "expire_date": "2029-04-30"
    },
    {
      "name": "鯉かまぼこや",
      "name_kana": "",
      "business_type": "水産製品製造業",
      "address": "小諸市市９０７番地",
      "lat": 36.290425,
      "lng": 138.445845,
      "geocoding_level": 3,
      "phone": "",
      "license_no": "第01270640号",
      "license_date": "2024-07-05",
      "expire_date": "2030-11-30"
    },
    {
      "name": "ドリーム　キッチン",
      "name_kana": "",
      "business_type": "飲食店営業",
      "address": "小諸市荒町１－４－２",
      "lat": 36.328143,
      "lng": 138.42730700000004,
      "geocoding_level": 3,
      "phone": "",
      "license_no": "第01219934号",
      "license_date": "2024-04-30",
      "expire_date": "2029-04-30"
    },
    {
      "name": "komoro-street",
      "name_kana": "",
      "business_type": "飲食店営業",
      "address": "小諸市相生町２－２－２",
      "lat": 36.327302,
      "lng": 138.424177,
      "geocoding_level": 3,
      "phone": "",
      "license_no": "第01260638号",
      "license_date": "2022-07-01",
      "expire_date": "2029-04-30"
    },
    {
      "name": "Bar　Nox",
      "name_kana": "",
      "business_type": "飲食店営業",
      "address": "小諸市大手１丁目３－１５　B１",
      "lat": 36.328496,
      "lng": 138.421219,
      "geocoding_level": 3,
      "phone": "",
      "license_no": "第01260660号",
      "license_date": "2022-07-01",
      "expire_date": "2029-04-30"
    },
    {
      "name": "岡山千紗",
      "name_kana": "",
      "business_type": "飲食店営業",
      "address": "小諸市加増3丁目7ｰ17 メゾン21小諸東102号室",
      "lat": 36.315873,
      "lng": 138.441343,
      "geocoding_level": 3,
      "phone": "",
      "license_no": "第01260734号",
      "license_date": "2022-06-30",
      "expire_date": "2027-06-30"
    },
    {
      "name": "ケアハウスのぞみ",
      "name_kana": "",
      "business_type": "飲食店営業",
      "address": "小諸市大字和田９６６番地１５１",
      "lat": 36.296897334,
      "lng": 138.46172769,
      "geocoding_level": 8,
      "phone": "",
      "license_no": "第01236556号",
      "license_date": "2023-04-28",
      "expire_date": "2029-04-30"
    },
    {
      "name": "タウンコートのぞみ",
      "name_kana": "",
      "business_type": "飲食店営業",
      "address": "小諸市御影新田２５６９－１",
      "lat": 36.29746142,
      "lng": 138.465624296,
      "geocoding_level": 8,
      "phone": "",
      "license_no": "第01246695号",
      "license_date": "2025-04-30",
      "expire_date": "2031-04-30"
    },
    {
      "name": "ＧＡＬＡ",
      "name_kana": "",
      "business_type": "飲食店営業",
      "address": "小諸市",
      "lat": 36.326874,
      "lng": 138.426021,
      "geocoding_level": 2,
      "phone": "",
      "license_no": "第01262436号",
      "license_date": "2022-11-10",
      "expire_date": "2027-11-30"
    },
    {
      "name": "山野草",
      "name_kana": "",
      "business_type": "飲食店営業",
      "address": "小諸市大字大久保１９８",
      "lat": 36.330442,
      "lng": 138.401486,
      "geocoding_level": 3,
      "phone": "",
      "license_no": "第01261003号",
      "license_date": "2022-07-13",
      "expire_date": "2027-07-31"
    },
    {
      "name": "夢幻",
      "name_kana": "",
      "business_type": "飲食店営業",
      "address": "小諸市大手１－３－２",
      "lat": 36.328496,
      "lng": 138.421219,
      "geocoding_level": 3,
      "phone": "",
      "license_no": "第01231056号",
      "license_date": "2022-04-28",
      "expire_date": "2028-04-30"
    },
    {
      "name": "itoka　イトカ",
      "name_kana": "",
      "business_type": "菓子製造業",
      "address": "小諸市相生町３－２－３　1階",
      "lat": 36.327444,
      "lng": 138.425575,
      "geocoding_level": 3,
      "phone": "",
      "license_no": "第01261957号",
      "license_date": "2022-09-30",
      "expire_date": "2028-11-30"
    },
    {
      "name": "Ｄｒｅｓｓｉｎｇ　ｋｉｔｃｈｅｎ",
      "name_kana": "",
      "business_type": "飲食店営業",
      "address": "小諸市相生町３丁目２－３　１階",
      "lat": 36.327444,
      "lng": 138.425575,
      "geocoding_level": 3,
      "phone": "",
      "license_no": "第01261964号",
      "license_date": "2022-09-30",
      "expire_date": "2028-11-30"
    },
    {
      "name": "スナック　なつこ",
      "name_kana": "",
      "business_type": "飲食店営業",
      "address": "小諸市大手１－２－２",
      "lat": 36.328496,
      "lng": 138.421219,
      "geocoding_level": 3,
      "phone": "",
      "license_no": "第02134076号",
      "license_date": "2022-04-28",
      "expire_date": "2028-04-30"
    },
    {
      "name": "ハイビスカス",
      "name_kana": "",
      "business_type": "飲食店営業",
      "address": "小諸市田町１－７－１０",
      "lat": 36.331125,
      "lng": 138.423304,
      "geocoding_level": 3,
      "phone": "",
      "license_no": "第02135649号",
      "license_date": "2022-04-28",
      "expire_date": "2028-04-30"
    },
    {
      "name": "小諸蕎麦切道場　草笛　明日香",
      "name_kana": "",
      "business_type": "飲食店営業",
      "address": "小諸市古城丁２６４－１カラ４、２６５－３",
      "lat": 36.326874,
      "lng": 138.426021,
      "geocoding_level": 2,
      "phone": "",
      "license_no": "第02143545号",
      "license_date": "2022-04-28",
      "expire_date": "2028-04-30"
    },
    {
      "name": "（有）草笛",
      "name_kana": "",
      "business_type": "飲食店営業",
      "address": "小諸市古城一丁目１番１０号",
      "lat": 36.329084,
      "lng": 138.41745,
      "geocoding_level": 3,
      "phone": "",
      "license_no": "第01234255号",
      "license_date": "2022-04-28",
      "expire_date": "2028-04-30"
    },
    {
      "name": "スピカ、麦の穂",
      "name_kana": "",
      "business_type": "菓子製造業",
      "address": "小諸市甲４５９９－５",
      "lat": 36.350639053,
      "lng": 138.447727582,
      "geocoding_level": 8,
      "phone": "",
      "license_no": "第01230723号",
      "license_date": "2022-04-28",
      "expire_date": "2028-04-30"
    },
    {
      "name": "スピカ、麦の穂",
      "name_kana": "",
      "business_type": "飲食店営業",
      "address": "小諸市甲4599-5",
      "lat": 36.350639053,
      "lng": 138.447727582,
      "geocoding_level": 8,
      "phone": "",
      "license_no": "第01230731号",
      "license_date": "2022-04-28",
      "expire_date": "2028-04-30"
    },
    {
      "name": "中華そば　やまさだ",
      "name_kana": "",
      "business_type": "飲食店営業",
      "address": "小諸市本町二丁目３番７号",
      "lat": 36.32972,
      "lng": 138.423216,
      "geocoding_level": 3,
      "phone": "",
      "license_no": "第01240169号",
      "license_date": "2022-06-30",
      "expire_date": "2027-06-30"
    },
    {
      "name": "本町実業会",
      "name_kana": "",
      "business_type": "飲食店営業",
      "address": "小諸市本町２－３－９ ほんまち町屋館内",
      "lat": 36.32972,
      "lng": 138.423216,
      "geocoding_level": 3,
      "phone": "",
      "license_no": "第01261206号",
      "license_date": "2022-07-28",
      "expire_date": "2027-07-31"
    },
    {
      "name": "Ｓｉｌｋｓｕｎ",
      "name_kana": "",
      "business_type": "飲食店営業",
      "address": "小諸市加増１－１－８",
      "lat": 36.320855,
      "lng": 138.432697,
      "geocoding_level": 3,
      "phone": "",
      "license_no": "第01266776号",
      "license_date": "2023-08-29",
      "expire_date": "2028-08-31"
    },
    {
      "name": "ねこのや",
      "name_kana": "",
      "business_type": "飲食店営業",
      "address": "小諸市相生町１－３－１ 小諸ロイヤルビル宮坂食品２Ｆ",
      "lat": 36.326878,
      "lng": 138.42212300000003,
      "geocoding_level": 3,
      "phone": "",
      "license_no": "第01261381号",
      "license_date": "2022-08-19",
      "expire_date": "2029-04-30"
    },
    {
      "name": "ピックタイ",
      "name_kana": "",
      "business_type": "飲食店営業",
      "address": "小諸市相生町１－２－１１",
      "lat": 36.326878,
      "lng": 138.42212300000003,
      "geocoding_level": 3,
      "phone": "",
      "license_no": "第01261416号",
      "license_date": "2022-08-19",
      "expire_date": "2029-04-30"
    },
    {
      "name": "マンズワイン（株）　小諸ワイナリー",
      "name_kana": "",
      "business_type": "酒類製造業",
      "address": "小諸市諸３７５",
      "lat": 36.342363,
      "lng": 138.415888,
      "geocoding_level": 3,
      "phone": "",
      "license_no": "第02016925号",
      "license_date": "2022-10-31",
      "expire_date": "2028-10-31"
    },
    {
      "name": "マンズワイン株式会社　小諸ワイナリー",
      "name_kana": "",
      "business_type": "飲食店営業",
      "address": "小諸市諸３７５",
      "lat": 36.342363,
      "lng": 138.415888,
      "geocoding_level": 3,
      "phone": "",
      "license_no": "第01212928号",
      "license_date": "2024-10-31",
      "expire_date": "2030-11-30"
    },
    {
      "name": "マンズワイン（株）　小諸ワイナリー　収穫祭",
      "name_kana": "",
      "business_type": "飲食店営業",
      "address": "小諸市諸３７５",
      "lat": 36.342363,
      "lng": 138.415888,
      "geocoding_level": 3,
      "phone": "",
      "license_no": "第01147941号",
      "license_date": "2025-04-30",
      "expire_date": "2030-04-30"
    },
    {
      "name": "佐々木珈琲店",
      "name_kana": "",
      "business_type": "飲食店営業",
      "address": "小諸市荒町１－４－８",
      "lat": 36.328143,
      "lng": 138.42730700000004,
      "geocoding_level": 3,
      "phone": "",
      "license_no": "第01261601号",
      "license_date": "2022-09-09",
      "expire_date": "2029-04-30"
    },
    {
      "name": "地蔵ファーム",
      "name_kana": "",
      "business_type": "そうざい製造業",
      "address": "小諸市大字塩野字南ヶ原４０４１－１",
      "lat": 36.341934,
      "lng": 138.479951,
      "geocoding_level": 3,
      "phone": "",
      "license_no": "第01262023号",
      "license_date": "2022-09-30",
      "expire_date": "2028-11-30"
    },
    {
      "name": "デリカテッセン山吹",
      "name_kana": "",
      "business_type": "飲食店営業",
      "address": "小諸市荒町１－７－１２",
      "lat": 36.328143,
      "lng": 138.42730700000004,
      "geocoding_level": 3,
      "phone": "",
      "license_no": "第01261901号",
      "license_date": "2022-09-22",
      "expire_date": "2027-09-30"
    },
    {
      "name": "大塚酒造株式会社",
      "name_kana": "",
      "business_type": "飲食店営業",
      "address": "小諸市大手2-1-24",
      "lat": 36.328494,
      "lng": 138.423722,
      "geocoding_level": 3,
      "phone": "",
      "license_no": "第01262169号",
      "license_date": "2022-10-13",
      "expire_date": "2027-10-31"
    },
    {
      "name": "大塚酒造（株）",
      "name_kana": "",
      "business_type": "密封包装食品製造業",
      "address": "小諸市大手２－１－２４",
      "lat": 36.328494,
      "lng": 138.423722,
      "geocoding_level": 3,
      "phone": "",
      "license_no": "第01164166号",
      "license_date": "2023-10-31",
      "expire_date": "2028-11-30"
    },
    {
      "name": "こうじや商店",
      "name_kana": "",
      "business_type": "漬物製造業",
      "address": "小諸市御影新田１７７６－１",
      "lat": 36.304927161,
      "lng": 138.462818442,
      "geocoding_level": 8,
      "phone": "",
      "license_no": "第01262265号",
      "license_date": "2022-10-20",
      "expire_date": "2028-10-31"
    },
    {
      "name": "こうじや商店",
      "name_kana": "",
      "business_type": "飲食店営業",
      "address": "小諸市御影新田１７７６－１",
      "lat": 36.304927161,
      "lng": 138.462818442,
      "geocoding_level": 8,
      "phone": "",
      "license_no": "第01174331号",
      "license_date": "2022-10-31",
      "expire_date": "2028-10-31"
    },
    {
      "name": "こうじや商店",
      "name_kana": "",
      "business_type": "密封包装食品製造業",
      "address": "小諸市御影新田１７７６－１",
      "lat": 36.304927161,
      "lng": 138.462818442,
      "geocoding_level": 8,
      "phone": "",
      "license_no": "第01174324号",
      "license_date": "2022-10-31",
      "expire_date": "2028-10-31"
    },
    {
      "name": "こうじや商店",
      "name_kana": "",
      "business_type": "みそ又はしょうゆ製造業",
      "address": "小諸市御影新田１７７６－１",
      "lat": 36.304927161,
      "lng": 138.462818442,
      "geocoding_level": 8,
      "phone": "",
      "license_no": "第01174300号",
      "license_date": "2022-10-31",
      "expire_date": "2028-10-31"
    },
    {
      "name": "福聚山　海應院",
      "name_kana": "",
      "business_type": "飲食店営業",
      "address": "小諸市荒町１－６－５",
      "lat": 36.328143,
      "lng": 138.42730700000004,
      "geocoding_level": 3,
      "phone": "",
      "license_no": "第01262322号",
      "license_date": "2022-10-28",
      "expire_date": "2028-04-30"
    },
    {
      "name": "彩本堂",
      "name_kana": "",
      "business_type": "飲食店営業",
      "address": "小諸市荒町２丁目５番３号",
      "lat": 36.325819,
      "lng": 138.428628,
      "geocoding_level": 3,
      "phone": "",
      "license_no": "第01266356号",
      "license_date": "2023-08-14",
      "expire_date": "2030-04-30"
    },
    {
      "name": "株式会社高嶺商会",
      "name_kana": "",
      "business_type": "漬物製造業",
      "address": "小諸市和田５４７－２１",
      "lat": 36.287240319,
      "lng": 138.450958696,
      "geocoding_level": 8,
      "phone": "",
      "license_no": "第01262354号",
      "license_date": "2022-10-28",
      "expire_date": "2028-10-31"
    },
    {
      "name": "（株）高嶺商会",
      "name_kana": "",
      "business_type": "密封包装食品製造業",
      "address": "小諸市和田５４７－２１",
      "lat": 36.287240319,
      "lng": 138.450958696,
      "geocoding_level": 8,
      "phone": "",
      "license_no": "第01194161号",
      "license_date": "2022-10-31",
      "expire_date": "2028-10-31"
    },
    {
      "name": "（株）高嶺商会",
      "name_kana": "",
      "business_type": "密封包装食品製造業",
      "address": "小諸市和田５４７－２１",
      "lat": 36.287240319,
      "lng": 138.450958696,
      "geocoding_level": 8,
      "phone": "",
      "license_no": "第02119449号",
      "license_date": "2022-10-31",
      "expire_date": "2028-10-31"
    },
    {
      "name": "（株）高嶺商会",
      "name_kana": "",
      "business_type": "そうざい製造業",
      "address": "小諸市和田５４７－２１",
      "lat": 36.287240319,
      "lng": 138.450958696,
      "geocoding_level": 8,
      "phone": "",
      "license_no": "第02119381号",
      "license_date": "2022-10-31",
      "expire_date": "2028-10-31"
    },
    {
      "name": "（株）高嶺商会",
      "name_kana": "",
      "business_type": "清涼飲料水製造業",
      "address": "小諸市和田５４７－２１",
      "lat": 36.287240319,
      "lng": 138.450958696,
      "geocoding_level": 8,
      "phone": "",
      "license_no": "第02146631号",
      "license_date": "2023-04-28",
      "expire_date": "2029-04-30"
    },
    {
      "name": "(株) 高嶺商会",
      "name_kana": "",
      "business_type": "乳製品製造業",
      "address": "小諸市大字和田５４７番地２１",
      "lat": 36.287240319,
      "lng": 138.450958696,
      "geocoding_level": 8,
      "phone": "",
      "license_no": "第01243717号",
      "license_date": "2024-10-31",
      "expire_date": "2030-11-30"
    },
    {
      "name": "nine　nine　wine",
      "name_kana": "",
      "business_type": "飲食店営業",
      "address": "小諸市市４９２",
      "lat": 36.285792154,
      "lng": 138.443204506,
      "geocoding_level": 8,
      "phone": "",
      "license_no": "第01262482号",
      "license_date": "2022-11-14",
      "expire_date": "2027-11-30"
    },
    {
      "name": "さくら　クレープ店",
      "name_kana": "",
      "business_type": "菓子製造業",
      "address": "小諸市諸３０３ マツヤ　小諸インター店内",
      "lat": 36.337605376,
      "lng": 138.415857339,
      "geocoding_level": 8,
      "phone": "",
      "license_no": "第01169399号",
      "license_date": "2022-10-31",
      "expire_date": "2028-10-31"
    },
    {
      "name": "有限会社　柳沢醸造食品",
      "name_kana": "",
      "business_type": "漬物製造業",
      "address": "小諸市大字大久保１９２",
      "lat": 36.330442,
      "lng": 138.401486,
      "geocoding_level": 3,
      "phone": "",
      "license_no": "第01271168号",
      "license_date": "2024-08-02",
      "expire_date": "2029-11-30"
    },
    {
      "name": "（有）柳沢醸造食品",
      "name_kana": "",
      "business_type": "みそ又はしょうゆ製造業",
      "address": "小諸市大久保１９２",
      "lat": 36.330442,
      "lng": 138.401486,
      "geocoding_level": 3,
      "phone": "",
      "license_no": "第02016811号",
      "license_date": "2025-10-31",
      "expire_date": "2030-11-30"
    },