{
  "meta": {
    "updated": 1783906731,
    "sources": [
      {
        "source": "奈良県食品営業許可施設一覧（奈良市を除く）",
        "license": "奈良県（出典明示・利用規約に従う）"
      },
      {
        "source": "厚生労働省 食品衛生申請等システム（オープンデータ）",
        "license": "公共データ利用規約（第1.0版, PDL1.0）"
      }
    ]
  },
  "data": [
    {
      "name": "すこ。",
      "name_kana": "",
      "business_type": "飲食店営業",
      "address": "高市郡高取町下土佐　３４１",
      "lat": 34.446435,
      "lng": 135.797802,
      "geocoding_level": 3,
      "phone": "",
      "license_no": "第0819559号",
      "license_date": "2020-02-10",
      "expire_date": "2026-11-30"
    },
    {
      "name": "たい焼やまちゃん",
      "name_kana": "",
      "business_type": "自動車菓子製造業",
      "address": "高市郡高取町他県内一円（奈良市を除く）",
      "lat": 34.449468,
      "lng": 135.793168,
      "geocoding_level": 2,
      "phone": "",
      "license_no": "第0820399号",
      "license_date": "2020-10-06",
      "expire_date": "2026-09-30"
    },
    {
      "name": "土佐屋",
      "name_kana": "",
      "business_type": "豆腐製造業",
      "address": "高市郡高取町上土佐　１０",
      "lat": 34.444605,
      "lng": 135.800935,
      "geocoding_level": 3,
      "phone": "0744-52-3106",
      "license_no": "第0301409号",
      "license_date": "2020-11-16",
      "expire_date": "2026-11-30"
    },
    {
      "name": "デリカ　秀",
      "name_kana": "",
      "business_type": "飲食店営業",
      "address": "高市郡高取町越智　７－３",
      "lat": 34.462506,
      "lng": 135.767174,
      "geocoding_level": 3,
      "phone": "0745-62-9338",
      "license_no": "第0307282号",
      "license_date": "2020-11-16",
      "expire_date": "2026-11-30"
    },
    {
      "name": "カフェ・井上",
      "name_kana": "",
      "business_type": "飲食店営業",
      "address": "高市郡高取町観覚寺　２５－１",
      "lat": 34.454037,
      "lng": 135.796827,
      "geocoding_level": 3,
      "phone": "0744-55-4165",
      "license_no": "第0820559号",
      "license_date": "2021-01-22",
      "expire_date": "2027-11-30"
    },
    {
      "name": "森本　喜代子",
      "name_kana": "",
      "business_type": "漬物製造業",
      "address": "高市郡高取町観覚寺　１４１５",
      "lat": 34.454037,
      "lng": 135.796827,
      "geocoding_level": 3,
      "phone": "0744-52-3144",
      "license_no": "第0821392号",
      "license_date": "2021-08-30",
      "expire_date": "2027-11-30"
    },
    {
      "name": "麗香庵",
      "name_kana": "",
      "business_type": "飲食店営業",
      "address": "高市郡高取町清水谷　１００６",
      "lat": 34.437848,
      "lng": 135.799211,
      "geocoding_level": 3,
      "phone": "",
      "license_no": "第0821628号",
      "license_date": "2021-11-17",
      "expire_date": "2027-11-30"
    },
    {
      "name": "万松（ばんしょう）",
      "name_kana": "",
      "business_type": "飲食店営業",
      "address": "高市郡高取町上子島　１８",
      "lat": 34.440205,
      "lng": 135.81005,
      "geocoding_level": 3,
      "phone": "0744-52-2288",
      "license_no": "第0821680号",
      "license_date": "2021-11-17",
      "expire_date": "2027-11-30"
    },
    {
      "name": "ファミリーマート高取町店",
      "name_kana": "",
      "business_type": "飲食店営業",
      "address": "高市郡高取町兵庫　３０－１",
      "lat": 34.451444,
      "lng": 135.773989,
      "geocoding_level": 3,
      "phone": "0744-52-9002",
      "license_no": "第0821733号",
      "license_date": "2021-11-17",
      "expire_date": "2028-11-30"
    },
    {
      "name": "手打ちうどん　にしかわ",
      "name_kana": "",
      "business_type": "飲食店営業",
      "address": "高市郡高取町下土佐　４０９－６",
      "lat": 34.446435,
      "lng": 135.797802,
      "geocoding_level": 3,
      "phone": "0744-52-4332",
      "license_no": "第0821643号",
      "license_date": "2021-11-17",
      "expire_date": "2027-11-30"
    },
    {
      "name": "双葉食堂",
      "name_kana": "",
      "business_type": "飲食店営業",
      "address": "高市郡高取町観覚寺　８８０－４",
      "lat": 34.454037,
      "lng": 135.796827,
      "geocoding_level": 3,
      "phone": "0744-52-2238",
      "license_no": "第0821743号",
      "license_date": "2021-11-17",
      "expire_date": "2027-11-30"
    },
    {
      "name": "つぼさか茶屋",
      "name_kana": "",
      "business_type": "飲食店営業",
      "address": "高市郡高取町壺阪　３",
      "lat": 34.425461,
      "lng": 135.808271,
      "geocoding_level": 3,
      "phone": "0744-52-4426",
      "license_no": "第0821763号",
      "license_date": "2021-11-17",
      "expire_date": "2027-11-30"
    },
    {
      "name": "養護盲老人ホーム　慈母園",
      "name_kana": "",
      "business_type": "飲食店営業",
      "address": "高市郡高取町壺阪　３",
      "lat": 34.425461,
      "lng": 135.808271,
      "geocoding_level": 3,
      "phone": "0744-52-2350",
      "license_no": "第0821764号",
      "license_date": "2021-11-17",
      "expire_date": "2027-11-30"
    },
    {
      "name": "森山食品",
      "name_kana": "",
      "business_type": "飲食店営業",
      "address": "高市郡高取町兵庫　２００",
      "lat": 34.451444,
      "lng": 135.773989,
      "geocoding_level": 3,
      "phone": "0744-52-3064",
      "license_no": "第0821611号",
      "license_date": "2021-11-17",
      "expire_date": "2027-11-30"
    },
    {
      "name": "森山食品",
      "name_kana": "",
      "business_type": "魚介類販売業",
      "address": "高市郡高取町兵庫　２００",
      "lat": 34.451444,
      "lng": 135.773989,
      "geocoding_level": 3,
      "phone": "0744-52-3064",
      "license_no": "第0821612号",
      "license_date": "2021-11-17",
      "expire_date": "2027-11-30"
    },
    {
      "name": "あけみどり",
      "name_kana": "",
      "business_type": "飲食店営業",
      "address": "高市郡高取町市尾　１０７０",
      "lat": 34.438686,
      "lng": 135.772117,
      "geocoding_level": 3,
      "phone": "0744-52-3575",
      "license_no": "第0819142号",
      "license_date": "2019-06-17",
      "expire_date": "2026-11-30"
    },
    {
      "name": "もみじとぼたん",
      "name_kana": "",
      "business_type": "食肉処理業",
      "address": "高市郡高取町谷田　１７１",
      "lat": 34.432845,
      "lng": 135.768519,
      "geocoding_level": 3,
      "phone": "",
      "license_no": "第0821922号",
      "license_date": "2022-02-01",
      "expire_date": "2028-11-30"
    },
    {
      "name": "高取町ふれあい加工部",
      "name_kana": "",
      "business_type": "露店飲食店営業",
      "address": "高市郡高取町他県内一円（奈良市を除く）",
      "lat": 34.449468,
      "lng": 135.793168,
      "geocoding_level": 2,
      "phone": "",
      "license_no": "第0821940号",
      "license_date": "2022-02-16",
      "expire_date": "2027-02-28"
    },
    {
      "name": "高取町商工会青年部",
      "name_kana": "",
      "business_type": "露店飲食店営業",
      "address": "高市郡高取町他県内一円（奈良市を除く）",
      "lat": 34.449468,
      "lng": 135.793168,
      "geocoding_level": 2,
      "phone": "",
      "license_no": "第0821960号",
      "license_date": "2022-02-16",
      "expire_date": "2027-02-28"
    },
    {
      "name": "おくだ屋",
      "name_kana": "",
      "business_type": "露店飲食店営業",
      "address": "高市郡高取町　他県内一円（奈良市を除く）",
      "lat": 34.449468,
      "lng": 135.793168,
      "geocoding_level": 2,
      "phone": "",
      "license_no": "第0821941号",
      "license_date": "2022-02-16",
      "expire_date": "2027-02-28"
    },
    {
      "name": "夢創舘",
      "name_kana": "",
      "business_type": "露店飲食店営業",
      "address": "高市郡高取町他県内一円（奈良市を除く）",
      "lat": 34.449468,
      "lng": 135.793168,
      "geocoding_level": 2,
      "phone": "",
      "license_no": "第0821938号",
      "license_date": "2022-02-09",
      "expire_date": "2027-02-28"
    },
    {
      "name": "上子島老人会",
      "name_kana": "",
      "business_type": "露店飲食店営業",
      "address": "高市郡高取町他県内一円（奈良市を除く）",
      "lat": 34.449468,
      "lng": 135.793168,
      "geocoding_level": 2,
      "phone": "",
      "license_no": "第0821944号",
      "license_date": "2022-02-16",
      "expire_date": "2027-02-28"
    },
    {
      "name": "萩の里あすか内厨房",
      "name_kana": "",
      "business_type": "飲食店営業",
      "address": "高市郡高取町松山　６８５",
      "lat": 34.435145,
      "lng": 135.789332,
      "geocoding_level": 3,
      "phone": "0744-52-5120",
      "license_no": "第0821121号",
      "license_date": "2021-06-04",
      "expire_date": "2028-11-30"
    },
    {
      "name": "ＨＯＴＥＬ　Ｍ",
      "name_kana": "",
      "business_type": "飲食店営業",
      "address": "高市郡高取町清水谷　１１４７－１",
      "lat": 34.437848,
      "lng": 135.799211,
      "geocoding_level": 3,
      "phone": "0744-52-3135",
      "license_no": "第08220181号",
      "license_date": "2022-05-20",
      "expire_date": "2028-11-30"
    },
    {
      "name": "地域交流スペース「ゆいえ」",
      "name_kana": "",
      "business_type": "飲食店営業",
      "address": "高市郡高取町市尾　８７",
      "lat": 34.438686,
      "lng": 135.772117,
      "geocoding_level": 3,
      "phone": "0745-67-0104",
      "license_no": "第08220729号",
      "license_date": "2022-11-15",
      "expire_date": "2028-11-30"
    },
    {
      "name": "高取町農畜産物処理加工施設",
      "name_kana": "",
      "business_type": "みそ又はしょうゆ製造業",
      "address": "高市郡高取町市尾　３１０－３",
      "lat": 34.438686,
      "lng": 135.772117,
      "geocoding_level": 3,
      "phone": "0744-52-2000",
      "license_no": "第08220726号",
      "license_date": "2022-11-15",
      "expire_date": "2028-11-30"
    },
    {
      "name": "高取町農畜産物処理加工施設",
      "name_kana": "",
      "business_type": "そうざい製造業",
      "address": "高市郡高取町市尾　３１０－３",
      "lat": 34.438686,
      "lng": 135.772117,
      "geocoding_level": 3,
      "phone": "0744-52-2000",
      "license_no": "第08220727号",
      "license_date": "2022-11-15",
      "expire_date": "2028-11-30"
    },
    {
      "name": "みふく",
      "name_kana": "",
      "business_type": "飲食店営業",
      "address": "高市郡高取町丹生谷　１０３５－２",
      "lat": 34.428515,
      "lng": 135.766627,
      "geocoding_level": 3,
      "phone": "0745-67-1378",
      "license_no": "第08220736号",
      "license_date": "2022-11-15",
      "expire_date": "2028-11-30"
    },
    {
      "name": "ファミリーマート高取清水谷店",
      "name_kana": "",
      "business_type": "飲食店営業",
      "address": "高市郡高取町清水谷　７－１",
      "lat": 34.437848,
      "lng": 135.799211,
      "geocoding_level": 3,
      "phone": "0744-52-1107",
      "license_no": "第08220737号",
      "license_date": "2022-11-15",
      "expire_date": "2028-11-30"
    },
    {
      "name": "セブン－イレブン高取町越智店",
      "name_kana": "",
      "business_type": "飲食店営業",
      "address": "高市郡高取町越智　６０－１",
      "lat": 34.462506,
      "lng": 135.767174,
      "geocoding_level": 3,
      "phone": "0745-63-1565",
      "license_no": "第08220773号",
      "license_date": "2022-11-15",
      "expire_date": "2028-11-30"
    },
    {
      "name": "花大和",
      "name_kana": "",
      "business_type": "飲食店営業",
      "address": "高市郡高取町清水谷　５０５",
      "lat": 34.437848,
      "lng": 135.799211,
      "geocoding_level": 3,
      "phone": "0744-52-2289",
      "license_no": "第08220956号",
      "license_date": "2022-11-25",
      "expire_date": "2028-11-30"
    },
    {
      "name": "甘み処ゆすら梅",
      "name_kana": "",
      "business_type": "飲食店営業",
      "address": "高市郡高取町下土佐 ３２０",
      "lat": 34.446435,
      "lng": 135.797802,
      "geocoding_level": 3,
      "phone": "",
      "license_no": "第08230286号",
      "license_date": "2023-07-11",
      "expire_date": "2029-11-30"
    },
    {
      "name": "医療法人中川会 飛鳥病院",
      "name_kana": "",
      "business_type": "飲食店営業",
      "address": "高市郡高取町与楽　１１６０",
      "lat": 34.462134,
      "lng": 135.7784,
      "geocoding_level": 3,
      "phone": "0744-52-3888",
      "license_no": "第08230352号",
      "license_date": "2023-08-04",
      "expire_date": "2030-11-30"
    },
    {
      "name": "ゆいまーるキッチン",
      "name_kana": "",
      "business_type": "飲食店営業",
      "address": "高市郡高取町下土佐　３４８",
      "lat": 34.446435,
      "lng": 135.797802,
      "geocoding_level": 3,
      "phone": "",
      "license_no": "第08230446号",
      "license_date": "2023-09-13",
      "expire_date": "2029-11-30"
    },
    {
      "name": "魚国総本社・高市郡２７５０７",
      "name_kana": "",
      "business_type": "飲食店営業",
      "address": "高市郡高取町兵庫　１９６",
      "lat": 34.451444,
      "lng": 135.773989,
      "geocoding_level": 3,
      "phone": "0744-52-1500",
      "license_no": "第08230718号",
      "license_date": "2023-11-15",
      "expire_date": "2030-11-30"
    },
    {
      "name": "ＭＡ　ＭＡＩＳＯＮ　Ｎ゜８",
      "name_kana": "",
      "business_type": "飲食店営業",
      "address": "高市郡高取町上土佐　６２",
      "lat": 34.444605,
      "lng": 135.800935,
      "geocoding_level": 3,
      "phone": "",
      "license_no": "第08230823号",
      "license_date": "2024-01-10",
      "expire_date": "2030-11-30"
    },
    {
      "name": "フードショップ　ヒロ",
      "name_kana": "",
      "business_type": "露店飲食店営業",
      "address": "高市郡高取町他県内一円（奈良市を除く）",
      "lat": 34.449468,
      "lng": 135.793168,
      "geocoding_level": 2,
      "phone": "",
      "license_no": "第08240431号",
      "license_date": "2024-08-07",
      "expire_date": "2030-02-28"
    },
    {
      "name": "株式会社高取セムティゴルフクラブ　高取セムティゴルフクラブ",
      "name_kana": "",
      "business_type": "調理の機能を有する自動販売機",
      "address": "高市郡高取町越智　４５６",
      "lat": 34.462506,
      "lng": 135.767174,
      "geocoding_level": 3,
      "phone": "",
      "license_no": "第08240456号",
      "license_date": "2024-08-29",
      "expire_date": "2029-08-31"
    },
    {
      "name": "花水土香",
      "name_kana": "",
      "business_type": "飲食店営業",
      "address": "高市郡高取町下土佐　３３９－１",
      "lat": 34.446435,
      "lng": 135.797802,
      "geocoding_level": 3,
      "phone": "0744-47-4247",
      "license_no": "第08240792号",
      "license_date": "2024-11-15",
      "expire_date": "2030-11-30"
    },
    {
      "name": "花水土香",
      "name_kana": "",
      "business_type": "そうざい製造業",
      "address": "高市郡高取町下土佐　３３９－１",
      "lat": 34.446435,
      "lng": 135.797802,
      "geocoding_level": 3,
      "phone": "0744-47-4247",
      "license_no": "第08240793号",
      "license_date": "2024-11-15",
      "expire_date": "2030-11-30"
    },
    {
      "name": "雅乃郷内厨房",
      "name_kana": "",
      "business_type": "飲食店営業",
      "address": "高市郡高取町市尾　１０７５",
      "lat": 34.438686,
      "lng": 135.772117,
      "geocoding_level": 3,
      "phone": "0745-52-5560",
      "license_no": "第08240606号",
      "license_date": "2024-11-15",
      "expire_date": "2031-11-30"
    },
    {
      "name": "光明園",
      "name_kana": "",
      "business_type": "飲食店営業",
      "address": "高市郡高取町清水谷　１５０－５",
      "lat": 34.437848,
      "lng": 135.799211,
      "geocoding_level": 3,
      "phone": "0744-52-2960",
      "license_no": "第08230037号",
      "license_date": "2023-04-19",
      "expire_date": "2029-11-30"
    },
    {
      "name": "みんなの家",
      "name_kana": "",
      "business_type": "飲食店営業",
      "address": "高市郡高取町越智　１１０－２",
      "lat": 34.462506,
      "lng": 135.767174,
      "geocoding_level": 3,
      "phone": "0745-44-9399",
      "license_no": "第08230098号",
      "license_date": "2023-05-10",
      "expire_date": "2029-11-30"
    },
    {
      "name": "デリカ　秀",
      "name_kana": "",
      "business_type": "食肉販売業",
      "address": "高市郡高取町越智　７－３",
      "lat": 34.462506,
      "lng": 135.767174,
      "geocoding_level": 3,
      "phone": "0745-62-9338",
      "license_no": "第0307283号",
      "license_date": "2020-11-16",
      "expire_date": "2026-11-30"
    },
    {
      "name": "じいちゃん・ばあちゃんの館",
      "name_kana": "",
      "business_type": "露店飲食店営業",
      "address": "高市郡高取町他県内一円（奈良市を除く）",
      "lat": 34.449468,
      "lng": 135.793168,
      "geocoding_level": 2,
      "phone": "",
      "license_no": "第08240916号",
      "license_date": "2025-01-29",
      "expire_date": "2030-02-28"
    },
    {
      "name": "北海道ジンギスカン　伸",
      "name_kana": "",
      "business_type": "飲食店営業",
      "address": "高市郡高取町下土佐　４０９－６",
      "lat": 34.446435,
      "lng": 135.797802,
      "geocoding_level": 3,
      "phone": "0744-52-5345",
      "license_no": "第08250021号",
      "license_date": "2025-04-17",
      "expire_date": "2031-11-30"
    },
    {
      "name": "居酒屋　久の",
      "name_kana": "",
      "business_type": "飲食店営業",
      "address": "高市郡高取町市尾　９５９－４",
      "lat": 34.438686,
      "lng": 135.772117,
      "geocoding_level": 3,
      "phone": "",
      "license_no": "第08250252号",
      "license_date": "2025-07-04",
      "expire_date": "2031-11-30"
    },
    {
      "name": "田村薬品工業株式会社　開発・技術センター",
      "name_kana": "",
      "business_type": "清涼飲料水製造業",
      "address": "高市郡高取町下土佐　４９５－１",
      "lat": 34.446435,
      "lng": 135.797802,
      "geocoding_level": 3,
      "phone": "0744-52-4004",
      "license_no": "第08250367号",
      "license_date": "2025-08-19",
      "expire_date": "2032-11-30"
    },
    {
      "name": "鷹寿司",
      "name_kana": "",
      "business_type": "飲食店営業",
      "address": "高市郡高取町車木　４８０",
      "lat": 34.456292,
      "lng": 135.766485,
      "geocoding_level": 3,
      "phone": "0745-62-3988",
      "license_no": "第08250501号",
      "license_date": "2025-09-19",
      "expire_date": "2031-11-30"
    },
    {
      "name": "やまと　吉永",
      "name_kana": "",
      "business_type": "飲食店営業",
      "address": "高市郡高取町観覚寺　１４３３",
      "lat": 34.454037,
      "lng": 135.796827,
      "geocoding_level": 3,
      "phone": "0744-52-1008",
      "license_no": "第08250493号",
      "license_date": "2025-09-19",
      "expire_date": "2031-11-30"
    },
    {
      "name": "つぼさか茶屋",
      "name_kana": "",
      "business_type": "飲食店営業",
      "address": "高市郡高取町清水谷　３５８",
      "lat": 34.437848,
      "lng": 135.799211,
      "geocoding_level": 3,
      "phone": "0744-52-2968",
      "license_no": "第08250502号",
      "license_date": "2025-09-19",
      "expire_date": "2031-11-30"
    },
    {
      "name": "ｒｅｔｒｏ　ｃａｆｅ　Ｂｉｋｋｅ",
      "name_kana": "",
      "business_type": "飲食店営業",
      "address": "高市郡高取町観覚寺　１４３４－４",
      "lat": 34.454037,
      "lng": 135.796827,
      "geocoding_level": 3,
      "phone": "0744-33-9618",
      "license_no": "第08250484号",
      "license_date": "2025-09-18",
      "expire_date": "2031-11-30"
    },
    {
      "name": "町屋カフェのこのこ",
      "name_kana": "",
      "business_type": "飲食店営業",
      "address": "高市郡高取町上土佐　５７",
      "lat": 34.444605,
      "lng": 135.800935,
      "geocoding_level": 3,
      "phone": "0744-52-4771",
      "license_no": "第08250485号",
      "license_date": "2025-09-17",
      "expire_date": "2031-11-30"
    },
    {
      "name": "ＫＯＴＡＲＵ　Ｃａｆｅ",
      "name_kana": "",
      "business_type": "飲食店営業",
      "address": "高市郡高取町清水谷　１２３２",
      "lat": 34.437848,
      "lng": 135.799211,
      "geocoding_level": 3,
      "phone": "",
      "license_no": "第08250457号",
      "license_date": "2025-09-24",
      "expire_date": "2031-11-30"
    },
    {
      "name": "町屋のポニー",
      "name_kana": "",
      "business_type": "飲食店営業",
      "address": "高市郡高取町上土佐　４",
      "lat": 34.444605,
      "lng": 135.800935,
      "geocoding_level": 3,
      "phone": "0745-67-0104",
      "license_no": "第08250612号",
      "license_date": "2025-10-09",
      "expire_date": "2031-11-30"
    },
    {
      "name": "新生薬品工業株式会社高取工場",
      "name_kana": "",
      "business_type": "清涼飲料水製造業",
      "address": "高市郡高取町清水谷　３１３－１",
      "lat": 34.437848,
      "lng": 135.799211,
      "geocoding_level": 3,
      "phone": "0744-52-1260",
      "license_no": "第08250596号",
      "license_date": "2025-10-08",
      "expire_date": "2032-11-30"
    },
    {
      "name": "森山食品",
      "name_kana": "",
      "business_type": "食肉販売業",
      "address": "高市郡高取町兵庫　２００",
      "lat": 34.451444,
      "lng": 135.773989,
      "geocoding_level": 3,
      "phone": "0744-52-3064",
      "license_no": "第08250674号",
      "license_date": "2025-10-27",
      "expire_date": "2031-11-30"
    },
    {
      "name": "あをによし　高取　福智庵",
      "name_kana": "",
      "business_type": "飲食店営業",
      "address": "高市郡高取町市尾　９０５",
      "lat": 34.438686,
      "lng": 135.772117,
      "geocoding_level": 3,
      "phone": "",
      "license_no": "第08250855号",
      "license_date": "2025-12-25",
      "expire_date": "2032-11-30"
    },
    {
      "name": "オーベルジュ　Ｒａｒｅｔｅ",
      "name_kana": "",
      "business_type": "食肉処理業",
      "address": "高市郡高取町清水谷　９６０－１",
      "lat": 34.437848,
      "lng": 135.799211,
      "geocoding_level": 3,
      "phone": "",
      "license_no": "第08250945号",
      "license_date": "2026-02-18",
      "expire_date": "2032-11-30"
    },
    {
      "name": "すこ。",
      "name_kana": "",
      "business_type": "菓子製造業",
      "address": "高市郡高取町下土佐　３４１　１階",
      "lat": 34.446435,
      "lng": 135.797802,
      "geocoding_level": 3,
      "phone": "",
      "license_no": "第0819576号",
      "license_date": "2020-02-20",
      "expire_date": "2026-11-30"
    },
    {
      "name": "近畿医薬品製造株式会社",
      "name_kana": "",
      "business_type": "菓子製造業",
      "address": "高市郡高取町清水谷　７１４",
      "lat": 34.437848,
      "lng": 135.799211,
      "geocoding_level": 3,
      "phone": "0744-52-2022",
      "license_no": "第0821735号",
      "license_date": "2021-11-17",
      "expire_date": "2027-11-30"
    },
    {
      "name": "高取町農畜産物処理加工施設",
      "name_kana": "",
      "business_type": "菓子製造業",
      "address": "高市郡高取町市尾　３１０－３",
      "lat": 34.438686,
      "lng": 135.772117,
      "geocoding_level": 3,
      "phone": "0744-52-2000",
      "license_no": "第08220725号",
      "license_date": "2022-11-15",
      "expire_date": "2028-11-30"
    },
    {
      "name": "ＩＭＡＮＩＳＨＩ　ＦＡＲＭ",
      "name_kana": "",
      "business_type": "菓子製造業",
      "address": "高市郡高取町車木　２２６",
      "lat": 34.456292,
      "lng": 135.766485,
      "geocoding_level": 3,
      "phone": "",
      "license_no": "第08221080号",
      "license_date": "2023-02-20",
      "expire_date": "2029-11-30"
    },
    {
      "name": "花水土香",
      "name_kana": "",
      "business_type": "菓子製造業",
      "address": "高市郡高取町下土佐　３３９－１",
      "lat": 34.446435,
      "lng": 135.797802,
      "geocoding_level": 3,
      "phone": "0744-47-4247",
      "license_no": "第08240794号",
      "license_date": "2024-11-15",
      "expire_date": "2030-11-30"
    },
    {
      "name": "和菓子　多かまつ",
      "name_kana": "",
      "business_type": "菓子製造業",
      "address": "高市郡高取町清水谷　７３",
      "lat": 34.437848,
      "lng": 135.799211,
      "geocoding_level": 3,
      "phone": "0744-52-2309",
      "license_no": "第08240605号",
      "license_date": "2024-11-15",
      "expire_date": "2030-11-30"
    },
    {
      "name": "甘み処ゆすら梅",
      "name_kana": "",
      "business_type": "菓子製造業",
      "address": "高市郡高取町下土佐 ３２０",
      "lat": 34.446435,
      "lng": 135.797802,
      "geocoding_level": 3,
      "phone": "",
      "license_no": "第08240643号",
      "license_date": "2024-10-16",
      "expire_date": "2030-11-30"
    },
    {
      "name": "社会福祉法人朱鳥会　障害者支援施設あけみどり",
      "name_kana": "",
      "business_type": "菓子製造業",
      "address": "高市郡高取町市尾　１０７０",
      "lat": 34.438686,
      "lng": 135.772117,
      "geocoding_level": 3,
      "phone": "0744-52-9500",
      "license_no": "第08250469号",
      "license_date": "2025-09-19",
      "expire_date": "2031-11-30"
    },
    {
      "name": "関西薬品工業株式会社",
      "name_kana": "",
      "business_type": "菓子製造業",
      "address": "高市郡高取町清水谷　４４０",
      "lat": 34.437848,
      "lng": 135.799211,
      "geocoding_level": 3,
      "phone": "0744-52-2106",
      "license_no": "第08250564号",
      "license_date": "2025-10-07",
      "expire_date": "2031-11-30"
    },
    {
      "name": "ダイヤ製薬　奈良工場",
      "name_kana": "",
      "business_type": "菓子製造業",
      "address": "高市郡高取町越智　１２９－２",
      "lat": 34.462506,
      "lng": 135.767174,
      "geocoding_level": 3,
      "phone": "0745-65-6000",
      "license_no": "第08250565号",
      "license_date": "2025-10-14",
      "expire_date": "2031-11-30"
    },
    {
      "name": "クスリキリン堂　高取店",
      "name_kana": "クスリキリンドウ　タカトリテン",
      "business_type": "⑪ 百貨店、総合スーパー",
      "address": "奈良県高市郡高取町観覚寺736-1",
      "lat": 34.453797,
      "lng": 135.796706,
      "geocoding_level": null,
      "phone": "0744-52-9010",
      "license_no": "",
      "license_date": null,
      "expire_date": null
    },
    {
      "name": "関西薬品工業株式会社",
      "name_kana": "カンサイヤクヒンコウギョウ",
      "business_type": "⑮ いわゆる健康食品の製造・加工業",
      "address": "奈良県高市郡高取町清水谷４４０",
      "lat": 34.439245,
      "lng": 135.801766,
      "geocoding_level": null,
      "phone": "0744522106",
      "license_no": "",
      "license_date": null,
      "expire_date": null
    },
    {
      "name": "太陽堂製薬株式会社",
      "name_kana": "タイヨウドウセイヤクカブシキガイシャ",
      "business_type": "⑮ いわゆる健康食品の製造・加工業",
      "address": "奈良県高市郡高取町下土佐578",
      "lat": 34.446619,
      "lng": 135.795837,
      "geocoding_level": null,
      "phone": "0744-52-2174",
      "license_no": "",
      "license_date": null,
      "expire_date": null
    },
    {
      "name": "プレミオ高取",
      "name_kana": "プレミオタカトリ",
      "business_type": "⑤ コップ式自動販売機（自動洗浄・屋内設置）",
      "address": "奈良県高市郡高取町越智48番地1",
      "lat": 34.462685,
      "lng": 135.763983,
      "geocoding_level": null,
      "phone": "0475641071",
      "license_no": "",
      "license_date": null,
      "expire_date": null
    },
    {
      "name": "岡村印刷工業",
      "name_kana": "オカムラインサツコウギョウ",
      "business_type": "③ 乳類販売業",
      "address": "奈良県高市郡高取町車木２１５番地",
      "lat": 34.457751,
      "lng": 135.764928,
      "geocoding_level": null,
      "phone": "",
      "license_no": "",
      "license_date": null,
      "expire_date": null
    }
  ]
}
