{
  "meta": {
    "updated": 1783906731,
    "sources": [
      {
        "source": "兵庫県食品関係営業施設リスト（許可）",
        "license": "要確認"
      },
      {
        "source": "厚生労働省 食品衛生申請等システム（オープンデータ）",
        "license": "公共データ利用規約（第1.0版, PDL1.0）"
      }
    ]
  },
  "data": [
    {
      "name": "マスカレード",
      "name_kana": "",
      "business_type": "飲食店営業(4)その他",
      "address": "多可郡多可町中区牧野425-90",
      "lat": 35.07894673,
      "lng": 134.930646612,
      "geocoding_level": 8,
      "phone": "0795323233",
      "license_no": "北播(加健)第312-88",
      "license_date": null,
      "expire_date": null
    },
    {
      "name": "お食事処ニュー高砂",
      "name_kana": "",
      "business_type": "飲食店営業(1)一般食堂・レストラン等",
      "address": "多可郡多可町中区牧野698-2",
      "lat": 35.071919909,
      "lng": 134.926887798,
      "geocoding_level": 8,
      "phone": "0795323512",
      "license_no": "北播(加健)第312-252",
      "license_date": null,
      "expire_date": null
    },
    {
      "name": "吉田製パン所",
      "name_kana": "",
      "business_type": "菓子製造業",
      "address": "多可郡多可町中区田野口298",
      "lat": 35.074957,
      "lng": 134.921788,
      "geocoding_level": 3,
      "phone": "0795320368",
      "license_no": "北播(加健)第312-87",
      "license_date": null,
      "expire_date": null
    },
    {
      "name": "鳥まさ",
      "name_kana": "",
      "business_type": "飲食店営業(1)一般食堂・レストラン等",
      "address": "多可郡多可町中区高岸23-2",
      "lat": 35.06175,
      "lng": 134.909381,
      "geocoding_level": 3,
      "phone": "0795323870",
      "license_no": "北播(加健)第312-40",
      "license_date": null,
      "expire_date": null
    },
    {
      "name": "創作料理金高",
      "name_kana": "",
      "business_type": "飲食店営業(1)一般食堂・レストラン等",
      "address": "多可郡多可町加美区豊部224-3",
      "lat": 35.100954378,
      "lng": 134.89982905,
      "geocoding_level": 8,
      "phone": "0795351065",
      "license_no": "北播(加健)第312-120",
      "license_date": null,
      "expire_date": null
    },
    {
      "name": "古時計",
      "name_kana": "",
      "business_type": "飲食店営業(1)一般食堂・レストラン等",
      "address": "多可郡多可町加美区寺内129-1",
      "lat": 35.086941136,
      "lng": 134.891847413,
      "geocoding_level": 8,
      "phone": "0795350077",
      "license_no": "北播(加健)第312-3",
      "license_date": null,
      "expire_date": null
    },
    {
      "name": "みそもち会館",
      "name_kana": "",
      "business_type": "菓子製造業",
      "address": "多可郡多可町加美区寺内137-1",
      "lat": 35.087593629,
      "lng": 134.891061134,
      "geocoding_level": 8,
      "phone": "0795350181",
      "license_no": "北播(加健)第312-2",
      "license_date": null,
      "expire_date": null
    },
    {
      "name": "みそもち会館",
      "name_kana": "",
      "business_type": "みそ又はしょうゆ製造業",
      "address": "多可郡多可町加美区寺内137-1",
      "lat": 35.087593629,
      "lng": 134.891061134,
      "geocoding_level": 8,
      "phone": "0795350181",
      "license_no": "北播(加健)第312-3",
      "license_date": null,
      "expire_date": null
    },
    {
      "name": "みのり農協　養鶏事業所",
      "name_kana": "",
      "business_type": "飲食店営業(4)その他",
      "address": "多可郡多可町加美区寺内90-1",
      "lat": 35.084354823,
      "lng": 134.891331393,
      "geocoding_level": 8,
      "phone": "0795351026",
      "license_no": "北播(加健)第312-90",
      "license_date": null,
      "expire_date": null
    },
    {
      "name": "喫茶吟画亭",
      "name_kana": "",
      "business_type": "飲食店営業(4)その他",
      "address": "多可郡多可町加美区寺内425-1",
      "lat": 35.08044576,
      "lng": 134.88702981,
      "geocoding_level": 8,
      "phone": "0795351411",
      "license_no": "北播(加健)第312-81",
      "license_date": null,
      "expire_date": null
    },
    {
      "name": "料理旅館月花楼",
      "name_kana": "",
      "business_type": "飲食店営業(3)旅館",
      "address": "多可郡多可町加美区西脇135-11",
      "lat": 35.078829307,
      "lng": 134.892785063,
      "geocoding_level": 8,
      "phone": "0795350019",
      "license_no": "北播(加健)第312-108",
      "license_date": null,
      "expire_date": null
    },
    {
      "name": "みのり農協　養鶏事業所",
      "name_kana": "",
      "business_type": "食肉処理業",
      "address": "多可郡多可町加美区山野部161-1",
      "lat": 35.072960367,
      "lng": 134.896809986,
      "geocoding_level": 8,
      "phone": "0795351026",
      "license_no": "北播(加健)第312-12",
      "license_date": null,
      "expire_date": null
    },
    {
      "name": "杉原川",
      "name_kana": "",
      "business_type": "飲食店営業(1)一般食堂・レストラン等",
      "address": "多可郡多可町加美区豊部1048-1",
      "lat": 35.110371122,
      "lng": 134.909519191,
      "geocoding_level": 8,
      "phone": "",
      "license_no": "北播(加健)第312-25",
      "license_date": null,
      "expire_date": null
    },
    {
      "name": "三福",
      "name_kana": "",
      "business_type": "飲食店営業(1)一般食堂・レストラン等",
      "address": "多可郡多可町加美区大袋27-4",
      "lat": 35.134123977,
      "lng": 134.921637072,
      "geocoding_level": 8,
      "phone": "0795361117",
      "license_no": "北播(加健)第312-235",
      "license_date": null,
      "expire_date": null
    },
    {
      "name": "（株）かみ物産センター",
      "name_kana": "",
      "business_type": "飲食店営業(1)一般食堂・レストラン等",
      "address": "多可郡多可町加美区鳥羽733-1",
      "lat": 35.188952636,
      "lng": 134.930067229,
      "geocoding_level": 8,
      "phone": "0795361919",
      "license_no": "北播(加健)第312-130",
      "license_date": null,
      "expire_date": null
    },
    {
      "name": "本庄泰盛堂",
      "name_kana": "",
      "business_type": "菓子製造業",
      "address": "多可郡多可町加美区三谷128-5",
      "lat": 35.12977553300001,
      "lng": 134.923609052,
      "geocoding_level": 8,
      "phone": "0795360052",
      "license_no": "北播(加健)第312-26",
      "license_date": null,
      "expire_date": null
    },
    {
      "name": "そらまめ農場菓子工房",
      "name_kana": "",
      "business_type": "菓子製造業",
      "address": "多可郡多可町加美区西山55",
      "lat": 35.145421613,
      "lng": 134.925249154,
      "geocoding_level": 8,
      "phone": "0795361336",
      "license_no": "北播(加健)第312-79",
      "license_date": null,
      "expire_date": null
    },
    {
      "name": "有限会社アリノベ　八千代工場",
      "name_kana": "",
      "business_type": "食肉処理業",
      "address": "多可郡多可町八千代区中野間458",
      "lat": 35.004662,
      "lng": 134.904804,
      "geocoding_level": 3,
      "phone": "0795370347",
      "license_no": "北播(加健)第312-88",
      "license_date": null,
      "expire_date": null
    },
    {
      "name": "エーデルささゆり",
      "name_kana": "",
      "business_type": "飲食店営業(3)旅館",
      "address": "多可郡多可町八千代区中野間363-13",
      "lat": 35.004662,
      "lng": 134.904804,
      "geocoding_level": 3,
      "phone": "0795371200",
      "license_no": "北播(加健)第312-37",
      "license_date": null,
      "expire_date": null
    },
    {
      "name": "喫茶やすらぎ",
      "name_kana": "",
      "business_type": "飲食店営業(1)一般食堂・レストラン等",
      "address": "多可郡多可町八千代区中野間668-1",
      "lat": 35.004662,
      "lng": 134.904804,
      "geocoding_level": 3,
      "phone": "0795371317",
      "license_no": "北播(加健)第312-89",
      "license_date": null,
      "expire_date": null
    },
    {
      "name": "池田さんちの納豆",
      "name_kana": "",
      "business_type": "納豆製造業",
      "address": "多可郡多可町八千代区大屋469",
      "lat": 35.062688,
      "lng": 134.858641,
      "geocoding_level": 3,
      "phone": "0795371619",
      "license_no": "北播(加健)第312-17",
      "license_date": null,
      "expire_date": null
    },
    {
      "name": "特産物加工体験施設エアレーベン八千代",
      "name_kana": "",
      "business_type": "飲食店営業(1)一般食堂・レストラン等",
      "address": "多可郡多可町八千代区中野間363-14",
      "lat": 35.004662,
      "lng": 134.904804,
      "geocoding_level": 3,
      "phone": "0795372211",
      "license_no": "北播(加健)第312-29",
      "license_date": null,
      "expire_date": null
    },
    {
      "name": "美喜屋",
      "name_kana": "",
      "business_type": "飲食店営業(1)一般食堂・レストラン等",
      "address": "多可郡多可町中区中村町下川原301-1",
      "lat": 35.048733,
      "lng": 134.924635,
      "geocoding_level": 3,
      "phone": "0795320152",
      "license_no": "北播(加健)第312-34",
      "license_date": null,
      "expire_date": null
    },
    {
      "name": "（有）石塚商店ひょうたんや",
      "name_kana": "",
      "business_type": "そうざい製造業",
      "address": "多可郡多可町中区中村町95-3",
      "lat": 35.048733,
      "lng": 134.924635,
      "geocoding_level": 3,
      "phone": "0795322260",
      "license_no": "北播(加健)第312-41",
      "license_date": null,
      "expire_date": null
    },
    {
      "name": "スナック由利",
      "name_kana": "",
      "business_type": "飲食店営業(4)その他",
      "address": "多可郡多可町中区中村町30-1",
      "lat": 35.048733,
      "lng": 134.924635,
      "geocoding_level": 3,
      "phone": "0795320275",
      "license_no": "北播(加健)第312-166",
      "license_date": null,
      "expire_date": null
    },
    {
      "name": "ニューミキヤ",
      "name_kana": "",
      "business_type": "飲食店営業(4)その他",
      "address": "多可郡多可町中区中村町字下川原303-2",
      "lat": 35.048733,
      "lng": 134.924635,
      "geocoding_level": 3,
      "phone": "0795323010",
      "license_no": "北播(加健)第312-134",
      "license_date": null,
      "expire_date": null
    },
    {
      "name": "焼肉鼓煌",
      "name_kana": "",
      "business_type": "飲食店営業(1)一般食堂・レストラン等",
      "address": "多可郡多可町中区鍛冶屋153-5",
      "lat": 35.063229214,
      "lng": 134.924240513,
      "geocoding_level": 8,
      "phone": "",
      "license_no": "北播(加健)第312-91",
      "license_date": null,
      "expire_date": null
    },
    {
      "name": "クワムラ食品株式会社",
      "name_kana": "",
      "business_type": "食肉販売業",
      "address": "多可郡多可町中区曽我井893",
      "lat": 35.025001,
      "lng": 134.938333,
      "geocoding_level": 3,
      "phone": "0795322003",
      "license_no": "北播(加健)第312-104",
      "license_date": null,
      "expire_date": null
    },
    {
      "name": "クワムラ食品株式会社",
      "name_kana": "",
      "business_type": "冷凍食品製造業",
      "address": "多可郡多可町中区曽我井893",
      "lat": 35.025001,
      "lng": 134.938333,
      "geocoding_level": 3,
      "phone": "0795322003",
      "license_no": "北播(加健)第312-25",
      "license_date": null,
      "expire_date": null
    },
    {
      "name": "クワムラ食品株式会社",
      "name_kana": "",
      "business_type": "水産製品製造業",
      "address": "多可郡多可町中区曽我井893",
      "lat": 35.025001,
      "lng": 134.938333,
      "geocoding_level": 3,
      "phone": "0795322003",
      "license_no": "北播(加健)第312-130",
      "license_date": null,
      "expire_date": null
    },
    {
      "name": "クワムラ食品株式会社",
      "name_kana": "",
      "business_type": "食肉製品製造業",
      "address": "多可郡多可町中区曽我井893",
      "lat": 35.025001,
      "lng": 134.938333,
      "geocoding_level": 3,
      "phone": "0795322003",
      "license_no": "北播(加健)第312-270",
      "license_date": null,
      "expire_date": null
    },
    {
      "name": "ひょうたんや",
      "name_kana": "",
      "business_type": "飲食店営業(4)その他",
      "address": "多可郡多可町中区森本字上嶋原196",
      "lat": 35.046095,
      "lng": 134.934583,
      "geocoding_level": 3,
      "phone": "0795324000",
      "license_no": "北播(加健)第312-85",
      "license_date": null,
      "expire_date": null
    },
    {
      "name": "ひょうたんや",
      "name_kana": "",
      "business_type": "魚介類販売業",
      "address": "多可郡多可町中区森本字上嶋原196",
      "lat": 35.046095,
      "lng": 134.934583,
      "geocoding_level": 3,
      "phone": "0795324000",
      "license_no": "北播(加健)第312-87",
      "license_date": null,
      "expire_date": null
    },
    {
      "name": "ひょうたんや",
      "name_kana": "",
      "business_type": "食肉販売業",
      "address": "多可郡多可町中区森本字上嶋原196",
      "lat": 35.046095,
      "lng": 134.934583,
      "geocoding_level": 3,
      "phone": "0795324000",
      "license_no": "北播(加健)第312-86",
      "license_date": null,
      "expire_date": null
    },
    {
      "name": "畑やんラーメン",
      "name_kana": "",
      "business_type": "飲食店営業(1)一般食堂・レストラン等",
      "address": "多可郡多可町中区森本805-10",
      "lat": 35.046095,
      "lng": 134.934583,
      "geocoding_level": 3,
      "phone": "0795322981",
      "license_no": "北播(加健)第312-83",
      "license_date": null,
      "expire_date": null
    },
    {
      "name": "ポプラ",
      "name_kana": "",
      "business_type": "飲食店営業(4)その他",
      "address": "多可郡多可町中区安坂522-40",
      "lat": 35.037625,
      "lng": 134.91774,
      "geocoding_level": 3,
      "phone": "0795323432",
      "license_no": "北播(加健)第312-67",
      "license_date": null,
      "expire_date": null
    },
    {
      "name": "(有)アリノベ",
      "name_kana": "",
      "business_type": "食肉販売業",
      "address": "多可郡多可町中区茂利207-1",
      "lat": 35.040613,
      "lng": 134.905877,
      "geocoding_level": 3,
      "phone": "0795323009",
      "license_no": "北播(加健)第312-233",
      "license_date": null,
      "expire_date": null
    },
    {
      "name": "(有)アリノベ",
      "name_kana": "",
      "business_type": "食肉処理業",
      "address": "多可郡多可町中区茂利207-1",
      "lat": 35.040613,
      "lng": 134.905877,
      "geocoding_level": 3,
      "phone": "0795323009",
      "license_no": "北播(加健)第312-10",
      "license_date": null,
      "expire_date": null
    },
    {
      "name": "アヴォンリーハウス",
      "name_kana": "",
      "business_type": "飲食店営業(1)一般食堂・レストラン等",
      "address": "多可郡多可町中区茂利74",
      "lat": 35.040613,
      "lng": 134.905877,
      "geocoding_level": 3,
      "phone": "0795323838",
      "license_no": "北播(加健)第312-2",
      "license_date": null,
      "expire_date": null
    },
    {
      "name": "琴紅",
      "name_kana": "",
      "business_type": "飲食店営業(1)一般食堂・レストラン等",
      "address": "多可郡多可町中区岸上281-169",
      "lat": 35.057653287,
      "lng": 134.918690724,
      "geocoding_level": 8,
      "phone": "0795323702",
      "license_no": "北播(加健)第312-144",
      "license_date": null,
      "expire_date": null
    },
    {
      "name": "ＶＩＰ",
      "name_kana": "",
      "business_type": "飲食店営業(4)その他",
      "address": "多可郡多可町中区高岸五反田22",
      "lat": 35.06175,
      "lng": 134.909381,
      "geocoding_level": 3,
      "phone": "0795324184",
      "license_no": "北播(加健)第312-25",
      "license_date": null,
      "expire_date": null
    },
    {
      "name": "中町ふうしゃ",
      "name_kana": "",
      "business_type": "飲食店営業(4)その他",
      "address": "多可郡多可町中区安坂字北山田385",
      "lat": 35.037625,
      "lng": 134.91774,
      "geocoding_level": 3,
      "phone": "0795321383",
      "license_no": "北播(加健)第312-83",
      "license_date": null,
      "expire_date": null
    },
    {
      "name": "中町ふうしゃ",
      "name_kana": "",
      "business_type": "魚介類販売業",
      "address": "多可郡多可町中区安坂字北山田385",
      "lat": 35.037625,
      "lng": 134.91774,
      "geocoding_level": 3,
      "phone": "0795321383",
      "license_no": "北播(加健)第312-84",
      "license_date": null,
      "expire_date": null
    },
    {
      "name": "ふるさと工房　夢蔵",
      "name_kana": "",
      "business_type": "そうざい製造業",
      "address": "多可郡多可町中区曽我井613-1グリーンプラザ",
      "lat": 35.025001,
      "lng": 134.938333,
      "geocoding_level": 3,
      "phone": "0795325013",
      "license_no": "北播(加健)第312-19",
      "license_date": null,
      "expire_date": null
    },
    {
      "name": "多可町特産品開発センターみつばグループ",
      "name_kana": "",
      "business_type": "飲食店営業(2)仕出し屋・弁当屋",
      "address": "多可郡多可町加美区寺内251",
      "lat": 35.083061234,
      "lng": 134.890015276,
      "geocoding_level": 8,
      "phone": "0795201263",
      "license_no": "北播(加健)第312-115",
      "license_date": null,
      "expire_date": null
    },
    {
      "name": "フレッシュバザール中店",
      "name_kana": "",
      "business_type": "食肉販売業",
      "address": "多可郡多可町中区茂利22-1",
      "lat": 35.040613,
      "lng": 134.905877,
      "geocoding_level": 3,
      "phone": "0795323370",
      "license_no": "北播(加健)第312-199",
      "license_date": null,
      "expire_date": null
    },
    {
      "name": "フレッシュバザール中店",
      "name_kana": "",
      "business_type": "飲食店営業(4)その他",
      "address": "多可郡多可町中区茂利22-1",
      "lat": 35.040613,
      "lng": 134.905877,
      "geocoding_level": 3,
      "phone": "0795323370",
      "license_no": "北播(加健)第312-200",
      "license_date": null,
      "expire_date": null
    },
    {
      "name": "クワムラ食品株式会社",
      "name_kana": "",
      "business_type": "そうざい製造業",
      "address": "多可郡多可町中区曽我井893",
      "lat": 35.025001,
      "lng": 134.938333,
      "geocoding_level": 3,
      "phone": "0795322003",
      "license_no": "北播(加健)第312-271",
      "license_date": null,
      "expire_date": null
    },
    {
      "name": "クワムラ食品株式会社",
      "name_kana": "",
      "business_type": "食品の冷凍又は冷蔵業",
      "address": "多可郡多可町中区曽我井893",
      "lat": 35.025001,
      "lng": 134.938333,
      "geocoding_level": 3,
      "phone": "0795322003",
      "license_no": "北播(加健)第312-272",
      "license_date": null,
      "expire_date": null
    },
    {
      "name": "校内食堂　アンズ",
      "name_kana": "",
      "business_type": "飲食店営業(3)旅館",
      "address": "多可郡多可町中区牧野143-11",
      "lat": 35.071530222,
      "lng": 134.930542116,
      "geocoding_level": 8,
      "phone": "0795300002",
      "license_no": "北播(加健)第312-84",
      "license_date": null,
      "expire_date": null
    },
    {
      "name": "かみ高地　かみの福",
      "name_kana": "",
      "business_type": "菓子製造業",
      "address": "多可郡多可町加美区鳥羽733-1",
      "lat": 35.188952636,
      "lng": 134.930067229,
      "geocoding_level": 8,
      "phone": "0795361919",
      "license_no": "北播(加健)第312-78",
      "license_date": null,
      "expire_date": null
    },
    {
      "name": "喫茶　このみ",
      "name_kana": "",
      "business_type": "飲食店営業(1)一般食堂・レストラン等",
      "address": "多可郡多可町中区天田47-3",
      "lat": 35.062604,
      "lng": 134.921324,
      "geocoding_level": 3,
      "phone": "0795321069",
      "license_no": "北播(加健)第312-175",
      "license_date": null,
      "expire_date": null
    },
    {
      "name": "ゆりの荘",
      "name_kana": "",
      "business_type": "飲食店営業(4)その他",
      "address": "多可郡多可町八千代区俵田111-27",
      "lat": 35.021754,
      "lng": 134.898359,
      "geocoding_level": 3,
      "phone": "0795370174",
      "license_no": "北播(加健)第312-77",
      "license_date": null,
      "expire_date": null
    },
    {
      "name": "そばんち一力",
      "name_kana": "",
      "business_type": "飲食店営業(1)一般食堂・レストラン等",
      "address": "多可郡多可町八千代区門田15",
      "lat": 35.024284269,
      "lng": 134.887396765,
      "geocoding_level": 8,
      "phone": "0795372285",
      "license_no": "北播(加健)第312-136",
      "license_date": null,
      "expire_date": null
    },
    {
      "name": "多可町特産品開発センターみつばグループ",
      "name_kana": "",
      "business_type": "そうざい製造業",
      "address": "多可郡多可町加美区寺内251",
      "lat": 35.083061234,
      "lng": 134.890015276,
      "geocoding_level": 8,
      "phone": "0795201263",
      "license_no": "北播(加健)第312-135",
      "license_date": null,
      "expire_date": null
    },
    {
      "name": "成実",
      "name_kana": "",
      "business_type": "飲食店営業(1)一般食堂・レストラン等",
      "address": "多可郡多可町中区奥中605-1",
      "lat": 35.052875113,
      "lng": 134.918138337,
      "geocoding_level": 8,
      "phone": "0795320575",
      "license_no": "北播(加健)第312-42",
      "license_date": null,
      "expire_date": null
    },
    {
      "name": "からおけ喫茶ヤマト",
      "name_kana": "",
      "business_type": "飲食店営業(4)その他",
      "address": "多可郡多可町八千代区大和1354",
      "lat": 35.013995,
      "lng": 134.863021,
      "geocoding_level": 3,
      "phone": "0795380337",
      "license_no": "北播(加健)第312-41",
      "license_date": null,
      "expire_date": null
    },
    {
      "name": "Ａコープかみ店",
      "name_kana": "",
      "business_type": "飲食店営業(2)仕出し屋・弁当屋",
      "address": "多可郡多可町加美区寺内90-1",
      "lat": 35.084354823,
      "lng": 134.891331393,
      "geocoding_level": 8,
      "phone": "0795350185",
      "license_no": "北播(加健)第312-26",
      "license_date": null,
      "expire_date": null
    },
    {
      "name": "Ａコープかみ店",
      "name_kana": "",
      "business_type": "食肉販売業",
      "address": "多可郡多可町加美区寺内90-1",
      "lat": 35.084354823,
      "lng": 134.891331393,
      "geocoding_level": 8,
      "phone": "0795350185",
      "license_no": "北播(加健)第312-27",
      "license_date": null,
      "expire_date": null
    },
    {
      "name": "Ａコープかみ店",
      "name_kana": "",
      "business_type": "魚介類販売業",
      "address": "多可郡多可町加美区寺内90-1",
      "lat": 35.084354823,
      "lng": 134.891331393,
      "geocoding_level": 8,
      "phone": "0795350185",
      "license_no": "北播(加健)第312-28",
      "license_date": null,
      "expire_date": null
    },
    {
      "name": "松栄軒",
      "name_kana": "",
      "business_type": "菓子製造業",
      "address": "多可郡多可町八千代区下野間1-18",
      "lat": 34.993921,
      "lng": 134.91795,
      "geocoding_level": 3,
      "phone": "0795371700",
      "license_no": "北播(加健)第312-53",
      "license_date": null,
      "expire_date": null
    },
    {
      "name": "ＴＲＥＦＬＥ",
      "name_kana": "",
      "business_type": "飲食店営業(1)一般食堂・レストラン等",
      "address": "多可郡多可町中区中村町119-2",
      "lat": 35.048733,
      "lng": 134.924635,
      "geocoding_level": 3,
      "phone": "0795300222",
      "license_no": "北播(加健)第312-82",
      "license_date": null,
      "expire_date": null
    },
    {
      "name": "ヘルシービラ加美",
      "name_kana": "",
      "business_type": "飲食店営業(1)一般食堂・レストラン等",
      "address": "多可郡多可町加美区多田430-10",
      "lat": 35.107909894,
      "lng": 134.884224504,
      "geocoding_level": 8,
      "phone": "0795350777",
      "license_no": "北播(加健)第312-115",
      "license_date": null,
      "expire_date": null
    },
    {
      "name": "わさびグループ",
      "name_kana": "",
      "business_type": "菓子製造業",
      "address": "多可郡多可町加美区寺内251",
      "lat": 35.083061234,
      "lng": 134.890015276,
      "geocoding_level": 8,
      "phone": "0795201263",
      "license_no": "北播(加健)第312-138",
      "license_date": null,
      "expire_date": null
    },
    {
      "name": "旬彩 たまだ",
      "name_kana": "",
      "business_type": "飲食店営業(1)一般食堂・レストラン等",
      "address": "多可郡多可町中区安坂59-3",
      "lat": 35.037625,
      "lng": 134.91774,
      "geocoding_level": 3,
      "phone": "0795321373",
      "license_no": "北播(加健)第312-13",
      "license_date": null,
      "expire_date": null
    },
    {
      "name": "Ａコープかみ店",
      "name_kana": "",
      "business_type": "飲食店営業(4)その他",
      "address": "多可郡多可町加美区寺内90-1",
      "lat": 35.084354823,
      "lng": 134.891331393,
      "geocoding_level": 8,
      "phone": "0795350185",
      "license_no": "北播(加健)第312-59",
      "license_date": null,
      "expire_date": null
    },
    {
      "name": "株式会社小倉製菓西丹波工場",
      "name_kana": "",
      "business_type": "菓子製造業",
      "address": "多可郡多可町中区安楽田964-1",
      "lat": 35.072954748,
      "lng": 134.899131775,
      "geocoding_level": 8,
      "phone": "0795302820",
      "license_no": "北播(加健)第312-105",
      "license_date": null,
      "expire_date": null
    },
    {
      "name": "天然酵母パン はるこむぎ",
      "name_kana": "",
      "business_type": "菓子製造業",
      "address": "多可郡多可町八千代区中野間872",
      "lat": 35.004662,
      "lng": 134.904804,
      "geocoding_level": 3,
      "phone": "0795371501",
      "license_no": "北播(加健)第312-103",
      "license_date": null,
      "expire_date": null
    },
    {
      "name": "スナックなぎさ",
      "name_kana": "",
      "business_type": "飲食店営業(4)その他",
      "address": "多可郡多可町中区高岸11-1",
      "lat": 35.06809615900001,
      "lng": 134.919031775,
      "geocoding_level": 8,
      "phone": "0795324516",
      "license_no": "北播(加健)第312-155",
      "license_date": null,
      "expire_date": null
    },
    {
      "name": "のぎく",
      "name_kana": "",
      "business_type": "飲食店営業(1)一般食堂・レストラン等",
      "address": "多可郡多可町中区牧野字国木谷183-1",
      "lat": 35.089292,
      "lng": 134.928419,
      "geocoding_level": 3,
      "phone": "0795323246",
      "license_no": "北播(加健)第312-27",
      "license_date": null,
      "expire_date": null
    },
    {
      "name": "ｓｗｅｅｔｓ　ｍａｎｕｆａｔｔｏ",
      "name_kana": "",
      "business_type": "菓子製造業",
      "address": "多可郡多可町中区田野口311",
      "lat": 35.071249888,
      "lng": 134.920893477,
      "geocoding_level": 8,
      "phone": "",
      "license_no": "北播(加健)第312-66",
      "license_date": null,
      "expire_date": null
    },
    {
      "name": "妙見富士カントリークラブ  コース売店アウト",
      "name_kana": "",
      "business_type": "飲食店営業(4)その他",
      "address": "多可郡多可町中区牧野817-1",
      "lat": 35.089292,
      "lng": 134.928419,
      "geocoding_level": 3,
      "phone": "0795321144",
      "license_no": "北播(加健)第312-56",
      "license_date": null,
      "expire_date": null
    },
    {
      "name": "妙見富士カントリークラブ  コース売店イン",
      "name_kana": "",
      "business_type": "飲食店営業(4)その他",
      "address": "多可郡多可町中区牧野817-1",
      "lat": 35.089292,
      "lng": 134.928419,
      "geocoding_level": 3,
      "phone": "0795321144",
      "license_no": "北播(加健)第312-57",
      "license_date": null,
      "expire_date": null
    },
    {
      "name": "グリーンヴィラ妙見内　地域交流スペース",
      "name_kana": "",
      "business_type": "飲食店営業（5）簡易な営業",
      "address": "多可郡多可町中区牧野字国木谷166-25",
      "lat": 35.089292,
      "lng": 134.928419,
      "geocoding_level": 3,
      "phone": "0795300870",
      "license_no": "北播(加健)第312-82",
      "license_date": null,
      "expire_date": null
    },
    {
      "name": "喫茶ラベンダー",
      "name_kana": "",
      "business_type": "飲食店営業(4)その他",
      "address": "多可郡多可町加美区轟799-127",
      "lat": 35.154283283,
      "lng": 134.931477675,
      "geocoding_level": 8,
      "phone": "0795361616",
      "license_no": "北播(加健)第312-22",
      "license_date": null,
      "expire_date": null
    },
    {
      "name": "株式会社　I.S.T　加美　社員食堂",
      "name_kana": "",
      "business_type": "飲食店営業(1)一般食堂・レストラン等",
      "address": "多可郡多可町加美区大袋34",
      "lat": 35.132637,
      "lng": 134.927665,
      "geocoding_level": 3,
      "phone": "0795360222",
      "license_no": "北播(加健)第312-121",
      "license_date": null,
      "expire_date": null
    },
    {
      "name": "株式会社　IST　加美　寮食堂",
      "name_kana": "",
      "business_type": "飲食店営業(1)一般食堂・レストラン等",
      "address": "多可郡多可町加美区三谷181",
      "lat": 35.134045864,
      "lng": 134.915167114,
      "geocoding_level": 8,
      "phone": "0795360404",
      "license_no": "北播(加健)第312-122",
      "license_date": null,
      "expire_date": null
    },
    {
      "name": "グリーンヴィラ妙見",
      "name_kana": "",
      "business_type": "飲食店営業(1)一般食堂・レストラン等",
      "address": "多可郡多可町中区牧野166-9-1",
      "lat": 35.089292,
      "lng": 134.928419,
      "geocoding_level": 3,
      "phone": "0795325667",
      "license_no": "北播(加健)第312-193",
      "license_date": null,
      "expire_date": null
    },
    {
      "name": "ふるさと工房　夢蔵",
      "name_kana": "",
      "business_type": "みそ製造業",
      "address": "多可郡多可町中区中安田509-2",
      "lat": 35.042624379,
      "lng": 134.953816307,
      "geocoding_level": 8,
      "phone": "0795322005",
      "license_no": "北播(加健)第312-28",
      "license_date": null,
      "expire_date": null
    },
    {
      "name": "鳥富",
      "name_kana": "",
      "business_type": "飲食店営業(1)一般食堂・レストラン等",
      "address": "多可郡多可町加美区豊部214-1",
      "lat": 35.100999703,
      "lng": 134.899148104,
      "geocoding_level": 8,
      "phone": "0795351511",
      "license_no": "北播(加健)第312-24",
      "license_date": null,
      "expire_date": null
    },
    {
      "name": "あすなろの郷",
      "name_kana": "",
      "business_type": "菓子製造業",
      "address": "多可郡多可町八千代区中野間131",
      "lat": 35.004662,
      "lng": 134.904804,
      "geocoding_level": 3,
      "phone": "0795371349",
      "license_no": "北播(加健)第312-29",
      "license_date": null,
      "expire_date": null
    },
    {
      "name": "寿しよし",
      "name_kana": "",
      "business_type": "飲食店営業(1)一般食堂・レストラン等",
      "address": "多可郡多可町加美区的場216-1",
      "lat": 35.08842317,
      "lng": 134.879787858,
      "geocoding_level": 8,
      "phone": "0795351300",
      "license_no": "北播(加健)第312-80",
      "license_date": null,
      "expire_date": null
    },
    {
      "name": "みどりの家",
      "name_kana": "",
      "business_type": "菓子製造業",
      "address": "多可郡多可町加美区市原40-1",
      "lat": 35.137026735,
      "lng": 134.922525758,
      "geocoding_level": 8,
      "phone": "0795361080",
      "license_no": "北播(加健)第312-82",
      "license_date": null,
      "expire_date": null
    },
    {
      "name": "マ・ドンナ",
      "name_kana": "",
      "business_type": "飲食店営業(1)一般食堂・レストラン等",
      "address": "多可郡多可町中区森本791-46",
      "lat": 35.046095,
      "lng": 134.934583,
      "geocoding_level": 3,
      "phone": "0795322787",
      "license_no": "北播(加健)第312-86",
      "license_date": null,
      "expire_date": null
    },
    {
      "name": "マ・ドンナ",
      "name_kana": "",
      "business_type": "菓子製造業",
      "address": "多可郡多可町中区森本791-46",
      "lat": 35.046095,
      "lng": 134.934583,
      "geocoding_level": 3,
      "phone": "0795322787",
      "license_no": "北播(加健)第312-87",
      "license_date": null,
      "expire_date": null
    },
    {
      "name": "デイサービスセンター　やすらぎ",
      "name_kana": "",
      "business_type": "飲食店営業(1)一般食堂・レストラン等",
      "address": "多可郡多可町加美区市原41",
      "lat": 35.136748032,
      "lng": 134.922441451,
      "geocoding_level": 8,
      "phone": "0795308151",
      "license_no": "北播(加健)第312-81",
      "license_date": null,
      "expire_date": null
    },
    {
      "name": "エーデルささゆり",
      "name_kana": "",
      "business_type": "菓子製造業",
      "address": "多可郡多可町八千代区中野間363-13",
      "lat": 35.004662,
      "lng": 134.904804,
      "geocoding_level": 3,
      "phone": "0795371200",
      "license_no": "北播(加健)第312-120",
      "license_date": null,
      "expire_date": null
    },
    {
      "name": "喫茶　ピエロ",
      "name_kana": "",
      "business_type": "飲食店営業(1)一般食堂・レストラン等",
      "address": "多可郡多可町中区高岸字上見11-1",
      "lat": 35.06175,
      "lng": 134.909381,
      "geocoding_level": 3,
      "phone": "",
      "license_no": "北播(加健)第312-109",
      "license_date": null,
      "expire_date": null
    },
    {
      "name": "Ｃａｆｅ　Ａｋｉｒａ　Ｍｉｅ",
      "name_kana": "",
      "business_type": "飲食店営業(1)一般食堂・レストラン等",
      "address": "多可郡多可町八千代区下野間165",
      "lat": 34.993921,
      "lng": 134.91795,
      "geocoding_level": 3,
      "phone": "0795370866",
      "license_no": "北播(加健)第312-119",
      "license_date": null,
      "expire_date": null
    },
    {
      "name": "株式会社アクティブフィールド",
      "name_kana": "",
      "business_type": "そうざい製造業",
      "address": "多可郡多可町八千代区仕出原697-15",
      "lat": 35.014502,
      "lng": 134.919149,
      "geocoding_level": 3,
      "phone": "0795371177",
      "license_no": "北播(加健)第312-162",
      "license_date": null,
      "expire_date": null
    },
    {
      "name": "華むらさき",
      "name_kana": "",
      "business_type": "そうざい製造業",
      "address": "多可郡多可町加美区棚釜168-1",
      "lat": 35.11626699,
      "lng": 134.886184452,
      "geocoding_level": 8,
      "phone": "0795351303",
      "license_no": "北播(加健)第312-164",
      "license_date": null,
      "expire_date": null
    },
    {
      "name": "華むらさき",
      "name_kana": "",
      "business_type": "菓子製造業",
      "address": "多可郡多可町加美区棚釜168-1",
      "lat": 35.11626699,
      "lng": 134.886184452,
      "geocoding_level": 8,
      "phone": "0795351303",
      "license_no": "北播(加健)第312-165",
      "license_date": null,
      "expire_date": null
    },
    {
      "name": "きく水",
      "name_kana": "",
      "business_type": "飲食店営業(1)一般食堂・レストラン等",
      "address": "多可郡多可町中区安坂107-4",
      "lat": 35.037625,
      "lng": 134.91774,
      "geocoding_level": 3,
      "phone": "0795323256",
      "license_no": "北播(加健)第312-33",
      "license_date": null,
      "expire_date": null
    },
    {
      "name": "Ｂｏｒａｇｅ",
      "name_kana": "",
      "business_type": "飲食店営業(1)一般食堂・レストラン等",
      "address": "多可郡多可町加美区寺内289-6",
      "lat": 35.080659843,
      "lng": 134.890369893,
      "geocoding_level": 8,
      "phone": "0795307557",
      "license_no": "北播(加健)第312-82",
      "license_date": null,
      "expire_date": null
    },
    {
      "name": "千ケ峰ＴＡｉＹＡＫｉ宮崎",
      "name_kana": "",
      "business_type": "菓子製造業",
      "address": "多可郡多可町中区東安田564",
      "lat": 35.042534,
      "lng": 134.962213,
      "geocoding_level": 3,
      "phone": "0795321532",
      "license_no": "北播(加健)第312-63",
      "license_date": null,
      "expire_date": null
    },
    {
      "name": "キッチン流れ星",
      "name_kana": "",
      "business_type": "飲食店営業(1)一般食堂・レストラン等",
      "address": "多可郡多可町加美区多田454-27",
      "lat": 35.106915112,
      "lng": 134.883395444,
      "geocoding_level": 8,
      "phone": "0795351887",
      "license_no": "北播(加健)第312-19",
      "license_date": null,
      "expire_date": null
    },
    {
      "name": "あすなろの郷",
      "name_kana": "",
      "business_type": "飲食店営業(1)一般食堂・レストラン等",
      "address": "多可郡多可町八千代区中野間131",
      "lat": 35.004662,
      "lng": 134.904804,
      "geocoding_level": 3,
      "phone": "0795371349",
      "license_no": "北播(加健)第312-92",
      "license_date": null,
      "expire_date": null
    },
    {
      "name": "足立醸造醤油・味噌蔵",
      "name_kana": "",
      "business_type": "みそ又はしょうゆ製造業",
      "address": "多可郡多可町加美区西脇100-1",
      "lat": 35.079605018,
      "lng": 134.8907401,
      "geocoding_level": 8,
      "phone": "0795350031",
      "license_no": "北播(加健)第312-38",
      "license_date": null,
      "expire_date": null
    },
    {
      "name": "（株）かみ物産センター",
      "name_kana": "",
      "business_type": "飲食店営業(4)その他",
      "address": "多可郡多可町加美区鳥羽733-1",
      "lat": 35.188952636,
      "lng": 134.930067229,
      "geocoding_level": 8,
      "phone": "0795361919",
      "license_no": "北播(加健)第312-22",
      "license_date": null,
      "expire_date": null
    },
    {
      "name": "ローソン多可郡中町南店",
      "name_kana": "",
      "business_type": "飲食店営業(2)仕出し屋・弁当屋",
      "address": "多可郡多可町中区坂本124-1",
      "lat": 35.030372,
      "lng": 134.92841800000002,
      "geocoding_level": 3,
      "phone": "0795323744",
      "license_no": "北播(加健)第312-91",
      "license_date": null,
      "expire_date": null
    },
    {
      "name": "喫茶　ラベンダー",
      "name_kana": "",
      "business_type": "菓子製造業",
      "address": "多可郡多可町加美区轟799-127",
      "lat": 35.154283283,
      "lng": 134.931477675,
      "geocoding_level": 8,
      "phone": "0795361616",
      "license_no": "北播(加健)第312-60",
      "license_date": null,
      "expire_date": null
    },
    {
      "name": "ハワイアンカフェ Ririha",
      "name_kana": "",
      "business_type": "飲食店営業(1)一般食堂・レストラン等",
      "address": "多可郡多可町中区天田50-1",
      "lat": 35.059576078,
      "lng": 134.924734917,
      "geocoding_level": 8,
      "phone": "0795325508",
      "license_no": "北播(加健)第312-130",
      "license_date": null,
      "expire_date": null
    },
    {
      "name": "ハワイアンカフェ Ririha",
      "name_kana": "",
      "business_type": "菓子製造業",
      "address": "多可郡多可町中区天田50-1",
      "lat": 35.059576078,
      "lng": 134.924734917,
      "geocoding_level": 8,
      "phone": "0795325508",
      "license_no": "北播(加健)第312-131",
      "license_date": null,
      "expire_date": null
    },
    {
      "name": "ふるさと工房夢蔵",
      "name_kana": "",
      "business_type": "飲食店営業(4)その他",
      "address": "多可郡多可町中区天田340-1",
      "lat": 35.059371392,
      "lng": 134.918481139,
      "geocoding_level": 8,
      "phone": "0795324477",
      "license_no": "北播(加健)第312-20",
      "license_date": null,
      "expire_date": null
    },
    {
      "name": "ふるさと工房夢蔵",
      "name_kana": "",
      "business_type": "菓子製造業",
      "address": "多可郡多可町中区天田340-1",
      "lat": 35.059371392,
      "lng": 134.918481139,
      "geocoding_level": 8,
      "phone": "0795324477",
      "license_no": "北播(加健)第312-21",
      "license_date": null,
      "expire_date": null
    },
    {
      "name": "ココロン那珂　ｃｈａｔｔａｎａの森",
      "name_kana": "",
      "business_type": "飲食店営業(3)旅館",
      "address": "多可郡多可町中区牧野817-41",
      "lat": 35.077429169,
      "lng": 134.924937659,
      "geocoding_level": 8,
      "phone": "0795324111",
      "license_no": "北播(加健)第312-15",
      "license_date": null,
      "expire_date": null
    },
    {
      "name": "秀水",
      "name_kana": "",
      "business_type": "飲食店営業(1)一般食堂・レストラン等",
      "address": "多可郡多可町中区中村町16-12",
      "lat": 35.048733,
      "lng": 134.924635,
      "geocoding_level": 3,
      "phone": "0795320032",
      "license_no": "北播(加健)第312-95",
      "license_date": null,
      "expire_date": null
    },
    {
      "name": "あすなろの郷",
      "name_kana": "",
      "business_type": "そうざい製造業",
      "address": "多可郡多可町八千代区中野間131",
      "lat": 35.004662,
      "lng": 134.904804,
      "geocoding_level": 3,
      "phone": "0795371349",
      "license_no": "北播(加健)第312-87",
      "license_date": null,
      "expire_date": null
    },
    {
      "name": "株式会社まちの駅・たか",
      "name_kana": "",
      "business_type": "菓子製造業",
      "address": "多可郡多可町中区牧野817-41",
      "lat": 35.077429169,
      "lng": 134.924937659,
      "geocoding_level": 8,
      "phone": "0795324111",
      "license_no": "北播(加健)第312-195",
      "license_date": null,
      "expire_date": null
    },
    {
      "name": "株式会社まちの駅・たか",
      "name_kana": "",
      "business_type": "飲食店営業(4)その他",
      "address": "多可郡多可町中区牧野817-41",
      "lat": 35.077429169,
      "lng": 134.924937659,
      "geocoding_level": 8,
      "phone": "0795324111",
      "license_no": "北播(加健)第302-74",
      "license_date": null,
      "expire_date": null
    },
    {
      "name": "志ら川",
      "name_kana": "",
      "business_type": "飲食店営業(4)その他",
      "address": "多可郡多可町中区牧野大平地437",
      "lat": 35.089292,
      "lng": 134.928419,
      "geocoding_level": 3,
      "phone": "",
      "license_no": "北播(加健)第312-133",
      "license_date": null,
      "expire_date": null
    },
    {
      "name": "手打ち蕎麦　なこじ",
      "name_kana": "",
      "business_type": "飲食店営業(1)一般食堂・レストラン等",
      "address": "多可郡多可町八千代区大和1915",
      "lat": 35.028504025,
      "lng": 134.858436612,
      "geocoding_level": 8,
      "phone": "0795380361",
      "license_no": "北播(加健)第312-251",
      "license_date": null,
      "expire_date": null
    },
    {
      "name": "フレッシュバザール中店",
      "name_kana": "",
      "business_type": "飲食店営業(2)仕出し屋・弁当屋",
      "address": "多可郡多可町中区茂利22-1",
      "lat": 35.040613,
      "lng": 134.905877,
      "geocoding_level": 3,
      "phone": "0795323370",
      "license_no": "北播(加健)第312-145",
      "license_date": null,
      "expire_date": null
    },
    {
      "name": "フレッシュバザール中店",
      "name_kana": "",
      "business_type": "魚介類販売業",
      "address": "多可郡多可町中区茂利22-1",
      "lat": 35.040613,
      "lng": 134.905877,
      "geocoding_level": 3,
      "phone": "0795323370",
      "license_no": "北播(加健)第312-146",
      "license_date": null,
      "expire_date": null
    },
    {
      "name": "フレッシュバザール中店",
      "name_kana": "",
      "business_type": "菓子製造業",
      "address": "多可郡多可町中区茂利22-1",
      "lat": 35.040613,
      "lng": 134.905877,
      "geocoding_level": 3,
      "phone": "0795323370",
      "license_no": "北播(加健)第312-268",
      "license_date": null,
      "expire_date": null
    },
    {
      "name": "フレッシュバザール中店",
      "name_kana": "",
      "business_type": "喫茶店営業",
      "address": "多可郡多可町中区茂利22-1",
      "lat": 35.040613,
      "lng": 134.905877,
      "geocoding_level": 3,
      "phone": "0795323370",
      "license_no": "北播(加健)第312-269",
      "license_date": null,
      "expire_date": null
    },
    {
      "name": "㈲アリノベ",
      "name_kana": "",
      "business_type": "食品の冷凍又は冷蔵業",
      "address": "多可郡多可町中区茂利207-1",
      "lat": 35.040613,
      "lng": 134.905877,
      "geocoding_level": 3,
      "phone": "0795323009",
      "license_no": "北播(加健)第312-27",
      "license_date": null,
      "expire_date": null
    },
    {
      "name": "wacca",
      "name_kana": "",
      "business_type": "アイスクリーム類製造業",
      "address": "多可郡多可町加美区門村546-4",
      "lat": 35.128643981,
      "lng": 134.92274717,
      "geocoding_level": 8,
      "phone": "0795208528",
      "license_no": "北播(加健)第312-36",
      "license_date": null,
      "expire_date": null
    },
    {
      "name": "ローソン　多可町八千代店",
      "name_kana": "",
      "business_type": "飲食店営業(4)その他",
      "address": "多可郡多可町八千代区下野間294",
      "lat": 34.993921,
      "lng": 134.91795,
      "geocoding_level": 3,
      "phone": "0795371000",
      "license_no": "北播(加健)第312-24",
      "license_date": null,
      "expire_date": null
    },
    {
      "name": "マイスター工房八千代",
      "name_kana": "",
      "business_type": "みそ又はしょうゆ製造業",
      "address": "多可郡多可町八千代区中村46-1",
      "lat": 35.043348,
      "lng": 134.867493,
      "geocoding_level": 3,
      "phone": "0795305516",
      "license_no": "北播(加健)第312-30",
      "license_date": null,
      "expire_date": null
    },
    {
      "name": "滝野カントリー倶楽部　八千代コース  レストラン",
      "name_kana": "",
      "business_type": "飲食店営業(1)一般食堂・レストラン等",
      "address": "多可郡多可町加美区寺内字入相山618",
      "lat": 35.080753,
      "lng": 134.854967,
      "geocoding_level": 3,
      "phone": "0795350885",
      "license_no": "北播(加健)第312-99",
      "license_date": null,
      "expire_date": null
    },
    {
      "name": "スオミ　ガーデンズ",
      "name_kana": "",
      "business_type": "飲食店営業(1)一般食堂・レストラン等",
      "address": "多可郡多可町中区安楽田980-45",
      "lat": 35.07741645,
      "lng": 134.903501454,
      "geocoding_level": 8,
      "phone": "0795324113",
      "license_no": "北播(加健)第312-110",
      "license_date": null,
      "expire_date": null
    },
    {
      "name": "たかみ",
      "name_kana": "",
      "business_type": "飲食店営業(2)仕出し屋・弁当屋",
      "address": "多可郡多可町八千代区中野間1028",
      "lat": 35.004662,
      "lng": 134.904804,
      "geocoding_level": 3,
      "phone": "0795371181",
      "license_no": "北播(加健)第312-127",
      "license_date": null,
      "expire_date": null
    },
    {
      "name": "たかみ",
      "name_kana": "",
      "business_type": "魚介類販売業",
      "address": "多可郡多可町八千代区中野間1028",
      "lat": 35.004662,
      "lng": 134.904804,
      "geocoding_level": 3,
      "phone": "0795371181",
      "license_no": "北播(加健)第312-128",
      "license_date": null,
      "expire_date": null
    },
    {
      "name": "マイスター工房八千代",
      "name_kana": "",
      "business_type": "そうざい製造業",
      "address": "多可郡多可町八千代区中村46-1",
      "lat": 35.043348,
      "lng": 134.867493,
      "geocoding_level": 3,
      "phone": "0795305516",
      "license_no": "北播(加健)第312-177",
      "license_date": null,
      "expire_date": null
    },
    {
      "name": "マイスター工房八千代",
      "name_kana": "",
      "business_type": "菓子製造業",
      "address": "多可郡多可町八千代区中村46-1",
      "lat": 35.043348,
      "lng": 134.867493,
      "geocoding_level": 3,
      "phone": "0795305516",
      "license_no": "北播(加健)第312-178",
      "license_date": null,
      "expire_date": null
    },
    {
      "name": "古時計",
      "name_kana": "",
      "business_type": "菓子製造業",
      "address": "多可郡多可町加美区寺内129-1",
      "lat": 35.086941136,
      "lng": 134.891847413,
      "geocoding_level": 8,
      "phone": "0795350077",
      "license_no": "北播(加健)第312-163",
      "license_date": null,
      "expire_date": null
    },
    {
      "name": "ごはん亭",
      "name_kana": "",
      "business_type": "飲食店営業(1)一般食堂・レストラン等",
      "address": "多可郡多可町加美区轟799-127",
      "lat": 35.154283283,
      "lng": 134.931477675,
      "geocoding_level": 8,
      "phone": "0795361616",
      "license_no": "北播(加健)第312-32",
      "license_date": null,
      "expire_date": null
    },
    {
      "name": "成実",
      "name_kana": "",
      "business_type": "菓子製造業",
      "address": "多可郡多可町中区奥中605-1",
      "lat": 35.052875113,
      "lng": 134.918138337,
      "geocoding_level": 8,
      "phone": "0795320575",
      "license_no": "北播(加健)第312-83",
      "license_date": null,
      "expire_date": null
    },
    {
      "name": "小規模多機能ホーム清爽の里  「ささゆり絆カフェ」",
      "name_kana": "",
      "business_type": "飲食店営業(1)一般食堂・レストラン等",
      "address": "多可郡多可町中区中村町377-1",
      "lat": 35.048733,
      "lng": 134.924635,
      "geocoding_level": 3,
      "phone": "0795300555",
      "license_no": "北播(加健)第312-79",
      "license_date": null,
      "expire_date": null
    },
    {
      "name": "(有)アリノベ",
      "name_kana": "",
      "business_type": "食肉製品製造業",
      "address": "多可郡多可町中区茂利207-1",
      "lat": 35.040613,
      "lng": 134.905877,
      "geocoding_level": 3,
      "phone": "0795323009",
      "license_no": "北播(加健)第312-55",
      "license_date": null,
      "expire_date": null
    },
    {
      "name": "多可赤十字老人保健施設",
      "name_kana": "",
      "business_type": "飲食店営業(1)一般食堂・レストラン等",
      "address": "多可郡多可町中区岸上280-19",
      "lat": 35.053528786,
      "lng": 134.923553591,
      "geocoding_level": 8,
      "phone": "0795321265",
      "license_no": "北播(加健)第312-112",
      "license_date": null,
      "expire_date": null
    },
    {
      "name": "多可赤十字病院",
      "name_kana": "",
      "business_type": "飲食店営業(1)一般食堂・レストラン等",
      "address": "多可郡多可町中区岸上280",
      "lat": 35.057675,
      "lng": 134.922154,
      "geocoding_level": 3,
      "phone": "0795321223",
      "license_no": "北播(加健)第312-111",
      "license_date": null,
      "expire_date": null
    },
    {
      "name": "キッチン流れ星",
      "name_kana": "",
      "business_type": "菓子製造業",
      "address": "多可郡多可町加美区多田454-27",
      "lat": 35.106915112,
      "lng": 134.883395444,
      "geocoding_level": 8,
      "phone": "0795351887",
      "license_no": "北播(加健)第312-18",
      "license_date": null,
      "expire_date": null
    },
    {
      "name": "多可町学校給食センター",
      "name_kana": "",
      "business_type": "飲食店営業(1)一般食堂・レストラン等",
      "address": "多可郡多可町中区岸上220",
      "lat": 35.05895652,
      "lng": 134.920438306,
      "geocoding_level": 8,
      "phone": "0795387592",
      "license_no": "北播(加健)第312-6",
      "license_date": null,
      "expire_date": null
    },
    {
      "name": "たかみ",
      "name_kana": "",
      "business_type": "飲食店営業(1)一般食堂・レストラン等",
      "address": "多可郡多可町八千代区中野間1028-1",
      "lat": 35.004662,
      "lng": 134.904804,
      "geocoding_level": 3,
      "phone": "0795371181",
      "license_no": "北播(加健)第312-33",
      "license_date": null,
      "expire_date": null
    },
    {
      "name": "Ｗｏｏ",
      "name_kana": "",
      "business_type": "飲食店営業(1)一般食堂・レストラン等",
      "address": "多可郡多可町中区糀屋100-1",
      "lat": 35.030906,
      "lng": 134.915597,
      "geocoding_level": 3,
      "phone": "",
      "license_no": "北播(加健)第312-81",
      "license_date": null,
      "expire_date": null
    },
    {
      "name": "レストラン瀬戸",
      "name_kana": "",
      "business_type": "飲食店営業(1)一般食堂・レストラン等",
      "address": "多可郡多可町八千代区下野間661-17",
      "lat": 34.993921,
      "lng": 134.91795,
      "geocoding_level": 3,
      "phone": "0795371105",
      "license_no": "北播(加健)第312-121",
      "license_date": null,
      "expire_date": null
    },
    {
      "name": "瀬戸",
      "name_kana": "",
      "business_type": "飲食店営業(2)仕出し屋・弁当屋",
      "address": "多可郡多可町八千代区下野間661-17",
      "lat": 34.993921,
      "lng": 134.91795,
      "geocoding_level": 3,
      "phone": "0795371105",
      "license_no": "北播(加健)第312-122",
      "license_date": null,
      "expire_date": null
    },
    {
      "name": "八千代地域活性化センター",
      "name_kana": "",
      "business_type": "そうざい製造業",
      "address": "多可郡多可町八千代区中村215",
      "lat": 35.043348,
      "lng": 134.867493,
      "geocoding_level": 3,
      "phone": "",
      "license_no": "北播(加健)第312-147",
      "license_date": null,
      "expire_date": null
    },
    {
      "name": "ファミリーマート中町森本店",
      "name_kana": "",
      "business_type": "飲食店営業（5）簡易な営業",
      "address": "多可郡多可町中区森本215-1",
      "lat": 35.046095,
      "lng": 134.934583,
      "geocoding_level": 3,
      "phone": "0795300611",
      "license_no": "北播(加健)第312-129",
      "license_date": null,
      "expire_date": null
    },
    {
      "name": "レストラン　メイプル",
      "name_kana": "",
      "business_type": "飲食店営業(3)旅館",
      "address": "多可郡多可町加美区豊部1840-53",
      "lat": 35.101031972,
      "lng": 134.905529906,
      "geocoding_level": 8,
      "phone": "0795351572",
      "license_no": "北播(加健)第312-2",
      "license_date": null,
      "expire_date": null
    },
    {
      "name": "ミーキばあば",
      "name_kana": "",
      "business_type": "飲食店営業(2)仕出し屋・弁当屋",
      "address": "多可郡多可町加美区岩座神558",
      "lat": 35.124434703,
      "lng": 134.886887714,
      "geocoding_level": 8,
      "phone": "",
      "license_no": "北播(加健)第312-14",
      "license_date": null,
      "expire_date": null
    },
    {
      "name": "足立醸造味噌熟成庫",
      "name_kana": "",
      "business_type": "みそ又はしょうゆ製造業",
      "address": "多可郡多可町加美区寺内10-7",
      "lat": 35.080646386,
      "lng": 134.892817053,
      "geocoding_level": 8,
      "phone": "",
      "license_no": "北播(加健)第312-39",
      "license_date": null,
      "expire_date": null
    },
    {
      "name": "おしゃれ生活館 えびすや 多可町本店",
      "name_kana": "",
      "business_type": "飲食店営業(4)その他",
      "address": "多可郡多可町中区中村町159",
      "lat": 35.050848786,
      "lng": 134.919337632,
      "geocoding_level": 8,
      "phone": "0795324439",
      "license_no": "北播(加健)第312-66",
      "license_date": null,
      "expire_date": null
    },
    {
      "name": "wacca",
      "name_kana": "",
      "business_type": "乳製品製造業",
      "address": "多可郡多可町加美区門村546-4",
      "lat": 35.128643981,
      "lng": 134.92274717,
      "geocoding_level": 8,
      "phone": "0795208528",
      "license_no": "北播(加健)第302-73",
      "license_date": null,
      "expire_date": null
    },
    {
      "name": "おそうざいバル＆カフェ法利",
      "name_kana": "",
      "business_type": "飲食店営業(1)一般食堂・レストラン等",
      "address": "多可郡多可町加美区大袋120-4",
      "lat": 35.136450794,
      "lng": 134.922624434,
      "geocoding_level": 8,
      "phone": "0795204141",
      "license_no": "北播(加健)第312-110",
      "license_date": null,
      "expire_date": null
    },
    {
      "name": "VERO　cafe",
      "name_kana": "",
      "business_type": "飲食店営業(1)一般食堂・レストラン等",
      "address": "多可郡多可町加美区大袋110",
      "lat": 35.132637,
      "lng": 134.927665,
      "geocoding_level": 3,
      "phone": "",
      "license_no": "北播(加健)第312-137",
      "license_date": null,
      "expire_date": null
    },
    {
      "name": "VERO　cafe",
      "name_kana": "",
      "business_type": "菓子製造業",
      "address": "多可郡多可町加美区大袋110",
      "lat": 35.132637,
      "lng": 134.927665,
      "geocoding_level": 3,
      "phone": "",
      "license_no": "北播(加健)第312-138",
      "license_date": null,
      "expire_date": null
    },
    {
      "name": "古民家空間kotonoha",
      "name_kana": "",
      "business_type": "飲食店営業(1)一般食堂・レストラン等",
      "address": "多可郡多可町加美区三谷255",
      "lat": 35.133768383,
      "lng": 134.912381904,
      "geocoding_level": 8,
      "phone": "0795208253",
      "license_no": "北播(加健)第312-5",
      "license_date": null,
      "expire_date": null
    },
    {
      "name": "パン工房　kiki",
      "name_kana": "",
      "business_type": "菓子製造業",
      "address": "多可郡多可町加美区清水706-2",
      "lat": 35.171036522,
      "lng": 134.930390605,
      "geocoding_level": 8,
      "phone": "08053480403",
      "license_no": "北播(加健)第312-15",
      "license_date": null,
      "expire_date": null
    },
    {
      "name": "株式会社アクティブフィールド",
      "name_kana": "",
      "business_type": "水産製品製造業",
      "address": "多可郡多可町八千代区仕出原697-15",
      "lat": 35.014502,
      "lng": 134.919149,
      "geocoding_level": 3,
      "phone": "0795371177",
      "license_no": "北播(加健)第312-16",
      "license_date": null,
      "expire_date": null
    },
    {
      "name": "食品センター第１",
      "name_kana": "",
      "business_type": "菓子製造業",
      "address": "多可郡多可町中区森本189-1",
      "lat": 35.046095,
      "lng": 134.934583,
      "geocoding_level": 3,
      "phone": "0795300111",
      "license_no": "北播(加健)第312-3",
      "license_date": null,
      "expire_date": null
    },
    {
      "name": "食品センター第２",
      "name_kana": "",
      "business_type": "菓子製造業",
      "address": "多可郡多可町中区中村町415-1",
      "lat": 35.048733,
      "lng": 134.924635,
      "geocoding_level": 3,
      "phone": "0795322226",
      "license_no": "北播(加健)第312-4",
      "license_date": null,
      "expire_date": null
    },
    {
      "name": "株式会社アクティブフィールド",
      "name_kana": "",
      "business_type": "菓子製造業",
      "address": "多可郡多可町八千代区仕出原697-15",
      "lat": 35.014502,
      "lng": 134.919149,
      "geocoding_level": 3,
      "phone": "0795371177",
      "license_no": "北播(加健)第312-64",
      "license_date": null,
      "expire_date": null
    },
    {
      "name": "株式会社アクティブフィールド",
      "name_kana": "",
      "business_type": "食用油脂製造業",
      "address": "多可郡多可町八千代区仕出原697-15",
      "lat": 35.014502,
      "lng": 134.919149,
      "geocoding_level": 3,
      "phone": "0795371177",
      "license_no": "北播(加健)第312-65",
      "license_date": null,
      "expire_date": null
    },
    {
      "name": "社会福祉法人楽久園会",
      "name_kana": "",
      "business_type": "飲食店営業(2)仕出し屋・弁当屋",
      "address": "多可郡多可町八千代区俵田111-27",
      "lat": 35.021754,
      "lng": 134.898359,
      "geocoding_level": 3,
      "phone": "0795370174",
      "license_no": "北播(加健)第312-92",
      "license_date": null,
      "expire_date": null
    },
    {
      "name": "パン工房　conana.",
      "name_kana": "",
      "business_type": "菓子製造業",
      "address": "多可郡多可町加美区寺内140-3",
      "lat": 35.087399923,
      "lng": 134.890533855,
      "geocoding_level": 8,
      "phone": "0795351206",
      "license_no": "北播(加健)第312-103",
      "license_date": null,
      "expire_date": null
    },
    {
      "name": "龍玄庵",
      "name_kana": "",
      "business_type": "飲食店営業(1)一般食堂・レストラン等",
      "address": "多可郡多可町加美区観音寺169",
      "lat": 35.110565,
      "lng": 134.924696,
      "geocoding_level": 3,
      "phone": "0795208582",
      "license_no": "北播(加健)第312-128",
      "license_date": null,
      "expire_date": null
    },
    {
      "name": "龍玄庵",
      "name_kana": "",
      "business_type": "麺類製造業",
      "address": "多可郡多可町加美区観音寺169",
      "lat": 35.110565,
      "lng": 134.924696,
      "geocoding_level": 3,
      "phone": "0795208582",
      "license_no": "北播(加健)第312-129",
      "license_date": null,
      "expire_date": null
    },
    {
      "name": "なごみの里山都",
      "name_kana": "",
      "business_type": "菓子製造業",
      "address": "多可郡多可町八千代区大和1520-1",
      "lat": 35.019131746,
      "lng": 134.867014026,
      "geocoding_level": 8,
      "phone": "0795380753",
      "license_no": "北播(加健)第312-123",
      "license_date": null,
      "expire_date": null
    },
    {
      "name": "なごみの里山都",
      "name_kana": "",
      "business_type": "飲食店営業(1)一般食堂・レストラン等",
      "address": "多可郡多可町八千代区大和1520-1",
      "lat": 35.019131746,
      "lng": 134.867014026,
      "geocoding_level": 8,
      "phone": "0795380753",
      "license_no": "北播(加健)第312-122",
      "license_date": null,
      "expire_date": null
    },
    {
      "name": "カラオケ　亜利",
      "name_kana": "",
      "business_type": "飲食店営業(4)その他",
      "address": "多可郡多可町加美区豊部217-2",
      "lat": 35.101616676,
      "lng": 134.899118011,
      "geocoding_level": 8,
      "phone": "0795206373",
      "license_no": "北播(加健)第312-43",
      "license_date": null,
      "expire_date": null
    },
    {
      "name": "お好み焼き　さんぽ",
      "name_kana": "",
      "business_type": "飲食店営業(4)その他",
      "address": "多可郡多可町中区鍛冶屋681-4",
      "lat": 35.064162674,
      "lng": 134.928280485,
      "geocoding_level": 8,
      "phone": "",
      "license_no": "北播(加健)第312-14",
      "license_date": null,
      "expire_date": null
    },
    {
      "name": "就労継続支援Ｂ型事業所　s-cube",
      "name_kana": "",
      "business_type": "菓子製造業",
      "address": "多可郡多可町中区安坂64",
      "lat": 35.037625,
      "lng": 134.91774,
      "geocoding_level": 3,
      "phone": "0795387681",
      "license_no": "北播(加健)第302-32",
      "license_date": null,
      "expire_date": null
    },
    {
      "name": "いこいの家　紫陽花",
      "name_kana": "",
      "business_type": "飲食店営業(1)一般食堂・レストラン等",
      "address": "多可郡多可町加美区的場510",
      "lat": 35.082643,
      "lng": 134.876279,
      "geocoding_level": 3,
      "phone": "",
      "license_no": "北播(加健)第302-70",
      "license_date": null,
      "expire_date": null
    },
    {
      "name": "TASHIKA",
      "name_kana": "",
      "business_type": "食肉処理業",
      "address": "多可郡多可町加美区豊部483",
      "lat": 35.102823545,
      "lng": 134.90178216200002,
      "geocoding_level": 8,
      "phone": "0795216271",
      "license_no": "北播(加健)第302-71",
      "license_date": null,
      "expire_date": null
    },
    {
      "name": "TASHIKA",
      "name_kana": "",
      "business_type": "食肉販売業",
      "address": "多可郡多可町加美区豊部483",
      "lat": 35.102823545,
      "lng": 134.90178216200002,
      "geocoding_level": 8,
      "phone": "0795216271",
      "license_no": "北播(加健)第302-72",
      "license_date": null,
      "expire_date": null
    },
    {
      "name": "みのる庵",
      "name_kana": "",
      "business_type": "飲食店営業(3)旅館",
      "address": "多可郡多可町加美区鳥羽619-1",
      "lat": 35.187292603,
      "lng": 134.929943687,
      "geocoding_level": 8,
      "phone": "0795201311",
      "license_no": "北播(加健)第302-84",
      "license_date": null,
      "expire_date": null
    },
    {
      "name": "株式会社アクティブフィールド",
      "name_kana": "",
      "business_type": "乳製品製造業",
      "address": "多可郡多可町八千代区仕出原697-15",
      "lat": 35.014502,
      "lng": 134.919149,
      "geocoding_level": 3,
      "phone": "0795371177",
      "license_no": "北播(加健)第302-89",
      "license_date": null,
      "expire_date": null
    },
    {
      "name": "Botan",
      "name_kana": "",
      "business_type": "飲食店営業(1)一般食堂・レストラン等",
      "address": "多可郡多可町八千代区横屋116",
      "lat": 35.033679,
      "lng": 134.871225,
      "geocoding_level": 3,
      "phone": "",
      "license_no": "北播(加健)第302-90",
      "license_date": null,
      "expire_date": null
    },
    {
      "name": "VERO　cafe",
      "name_kana": "",
      "business_type": "そうざい製造業",
      "address": "多可郡多可町加美区大袋110",
      "lat": 35.132637,
      "lng": 134.927665,
      "geocoding_level": 3,
      "phone": "0795206357",
      "license_no": "北播(加健)第302-100",
      "license_date": null,
      "expire_date": null
    },
    {
      "name": "VERO　cafe",
      "name_kana": "",
      "business_type": "食品の冷凍又は冷蔵業",
      "address": "多可郡多可町加美区大袋110",
      "lat": 35.132637,
      "lng": 134.927665,
      "geocoding_level": 3,
      "phone": "0795206357",
      "license_no": "北播(加健)第302-101",
      "license_date": null,
      "expire_date": null
    },
    {
      "name": "キッサ　カラオケ　ニャンにゃん",
      "name_kana": "",
      "business_type": "飲食店営業(4)その他",
      "address": "多可郡多可町中区森本805-10",
      "lat": 35.046095,
      "lng": 134.934583,
      "geocoding_level": 3,
      "phone": "0795322981",
      "license_no": "北播(加健)第302-110",
      "license_date": null,
      "expire_date": null
    },
    {
      "name": "ジビエのヒデキ",
      "name_kana": "",
      "business_type": "食肉処理業",
      "address": "多可郡多可町八千代区俵田143",
      "lat": 35.021754,
      "lng": 134.898359,
      "geocoding_level": 3,
      "phone": "",
      "license_no": "北播(加健)第302-9",
      "license_date": null,
      "expire_date": null
    },
    {
      "name": "ジビエのヒデキ",
      "name_kana": "",
      "business_type": "食肉販売業",
      "address": "多可郡多可町八千代区俵田143",
      "lat": 35.021754,
      "lng": 134.898359,
      "geocoding_level": 3,
      "phone": "",
      "license_no": "北播(加健)第302-10",
      "license_date": null,
      "expire_date": null
    },
    {
      "name": "（有）守食品店",
      "name_kana": "",
      "business_type": "飲食店営業(1)一般食堂・レストラン等",
      "address": "多可郡多可町八千代区中村１６－１",
      "lat": 35.043348,
      "lng": 134.867493,
      "geocoding_level": 3,
      "phone": "",
      "license_no": "北播(加健)第302-18",
      "license_date": null,
      "expire_date": null
    },
    {
      "name": "（有）守食品店",
      "name_kana": "",
      "business_type": "菓子製造業",
      "address": "多可郡多可町八千代区中村１６－１",
      "lat": 35.043348,
      "lng": 134.867493,
      "geocoding_level": 3,
      "phone": "",
      "license_no": "北播(加健)第302-19",
      "license_date": null,
      "expire_date": null
    },
    {
      "name": "（有）守食品店",
      "name_kana": "",
      "business_type": "豆腐製造業",
      "address": "多可郡多可町八千代区中村１６－１",
      "lat": 35.043348,
      "lng": 134.867493,
      "geocoding_level": 3,
      "phone": "",
      "license_no": "北播(加健)第302-20",
      "license_date": null,
      "expire_date": null
    },
    {
      "name": "カラオケ　セブン",
      "name_kana": "",
      "business_type": "飲食店営業(4)その他",
      "address": "多可郡多可町中区安坂81-5",
      "lat": 35.037625,
      "lng": 134.91774,
      "geocoding_level": 3,
      "phone": "",
      "license_no": "北播(加健)第302-30",
      "license_date": null,
      "expire_date": null
    },
    {
      "name": "焼肉鼓煌",
      "name_kana": "",
      "business_type": "食肉販売業",
      "address": "多可郡多可町中区鍛冶屋153-5",
      "lat": 35.063229214,
      "lng": 134.924240513,
      "geocoding_level": 8,
      "phone": "0795321232",
      "license_no": "北播(加健)第302-33",
      "license_date": null,
      "expire_date": null
    },
    {
      "name": "古民家ゲストハウス指月庵",
      "name_kana": "",
      "business_type": "飲食店営業(3)旅館",
      "address": "多可郡多可町加美区轟393-1",
      "lat": 35.153013868,
      "lng": 134.924572425,
      "geocoding_level": 8,
      "phone": "",
      "license_no": "北播(加健)第302-41",
      "license_date": null,
      "expire_date": null
    },
    {
      "name": "寿しよし",
      "name_kana": "",
      "business_type": "飲食店営業(1)一般食堂・レストラン等",
      "address": "多可郡多可町加美区的場216-1",
      "lat": 35.08842317,
      "lng": 134.879787858,
      "geocoding_level": 8,
      "phone": "0795351300",
      "license_no": "北播(加健)第302-51",
      "license_date": null,
      "expire_date": null
    },
    {
      "name": "スタジオ　カラオケ　グレース",
      "name_kana": "",
      "business_type": "飲食店営業(4)その他",
      "address": "多可郡多可町中区森本808-1",
      "lat": 35.046095,
      "lng": 134.934583,
      "geocoding_level": 3,
      "phone": "",
      "license_no": "北播(加健)第302-81",
      "license_date": null,
      "expire_date": null
    },
    {
      "name": "門前庵",
      "name_kana": "",
      "business_type": "飲食店営業(3)旅館",
      "address": "多可郡多可町中区門前243",
      "lat": 35.079054904,
      "lng": 134.898254102,
      "geocoding_level": 8,
      "phone": "",
      "license_no": "北播(加健)第302-94",
      "license_date": null,
      "expire_date": null
    },
    {
      "name": "Herbal Basket",
      "name_kana": "",
      "business_type": "飲食店営業(1)一般食堂・レストラン等",
      "address": "多可郡多可町中区門前242-3",
      "lat": 35.078917964,
      "lng": 134.89833666300004,
      "geocoding_level": 8,
      "phone": "0795207576",
      "license_no": "北播(加健)第302-95",
      "license_date": null,
      "expire_date": null
    },
    {
      "name": "株式会社アクティブフィールド",
      "name_kana": "",
      "business_type": "食肉販売業",
      "address": "多可郡多可町八千代区仕出原697-15",
      "lat": 35.014502,
      "lng": 134.919149,
      "geocoding_level": 3,
      "phone": "0795371177",
      "license_no": "北播(加健)第302-114",
      "license_date": null,
      "expire_date": null
    },
    {
      "name": "株式会社アクティブフィールド",
      "name_kana": "",
      "business_type": "密封包装食品製造業",
      "address": "多可郡多可町八千代区仕出原697-15",
      "lat": 35.014502,
      "lng": 134.919149,
      "geocoding_level": 3,
      "phone": "0795371177",
      "license_no": "北播(加健)第302-115",
      "license_date": null,
      "expire_date": null
    },
    {
      "name": "あじさいグループ",
      "name_kana": "",
      "business_type": "漬物製造業",
      "address": "多可郡多可町加美区寺内251",
      "lat": 35.083061234,
      "lng": 134.890015276,
      "geocoding_level": 8,
      "phone": "0795201263",
      "license_no": "北播(加健)第302-118",
      "license_date": null,
      "expire_date": null
    },
    {
      "name": "ＮＡＧＯＭＩ",
      "name_kana": "",
      "business_type": "飲食店営業(3)旅館",
      "address": "多可郡多可町加美区西脇532",
      "lat": 35.072856052,
      "lng": 134.892878394,
      "geocoding_level": 8,
      "phone": "0795218181",
      "license_no": "北播(加健)第302-119",
      "license_date": null,
      "expire_date": null
    },
    {
      "name": "マイスター工房八千代",
      "name_kana": "",
      "business_type": "そうざい製造業",
      "address": "多可郡多可町八千代区中村46-1",
      "lat": 35.043348,
      "lng": 134.867493,
      "geocoding_level": 3,
      "phone": "0795305516",
      "license_no": "北播(加健)第302-120",
      "license_date": null,
      "expire_date": null
    },
    {
      "name": "足立醸造第二工場",
      "name_kana": "",
      "business_type": "みそ又はしょうゆ製造業",
      "address": "多可郡多可町加美区西脇河原田86",
      "lat": 35.074668,
      "lng": 134.890108,
      "geocoding_level": 3,
      "phone": "0795350031",
      "license_no": "北播(加健)第302-127",
      "license_date": null,
      "expire_date": null
    },
    {
      "name": "Ｂｏｒａｇｅ　菓子工房　ｅｎｆｏｕｒｎｅｒ",
      "name_kana": "",
      "business_type": "菓子製造業",
      "address": "多可郡多可町加美区西脇112-13",
      "lat": 35.080380855,
      "lng": 134.891615597,
      "geocoding_level": 8,
      "phone": "",
      "license_no": "北播(加健)第302-131",
      "license_date": null,
      "expire_date": null
    },
    {
      "name": "成実",
      "name_kana": "",
      "business_type": "そうざい製造業",
      "address": "多可郡多可町中区奥中605-1",
      "lat": 35.052875113,
      "lng": 134.918138337,
      "geocoding_level": 8,
      "phone": "0795320575",
      "license_no": "北播(加健)第302-2",
      "license_date": null,
      "expire_date": null
    },
    {
      "name": "古民家空間kotonoha",
      "name_kana": "",
      "business_type": "菓子製造業",
      "address": "多可郡多可町加美区三谷255",
      "lat": 35.133768383,
      "lng": 134.912381904,
      "geocoding_level": 8,
      "phone": "0795208253",
      "license_no": "北播(加健)第302-29",
      "license_date": null,
      "expire_date": null
    },
    {
      "name": "楽",
      "name_kana": "",
      "business_type": "菓子製造業",
      "address": "多可郡多可町中区門前309-2",
      "lat": 35.079534617,
      "lng": 134.901128609,
      "geocoding_level": 8,
      "phone": "",
      "license_no": "北播(加健)第302-33",
      "license_date": null,
      "expire_date": null
    },
    {
      "name": "株式会社アクティブフィールド",
      "name_kana": "",
      "business_type": "冷凍食品製造業",
      "address": "多可郡多可町八千代区仕出原697-15",
      "lat": 35.014502,
      "lng": 134.919149,
      "geocoding_level": 3,
      "phone": "0795371177",
      "license_no": "北播(加健)第302-39",
      "license_date": null,
      "expire_date": null
    },
    {
      "name": "大八万楼",
      "name_kana": "",
      "business_type": "飲食店営業(1)一般食堂・レストラン等",
      "address": "多可郡多可町中区茂利78-1",
      "lat": 35.040613,
      "lng": 134.905877,
      "geocoding_level": 3,
      "phone": "0795320569",
      "license_no": "北播(加健)第302-40",
      "license_date": null,
      "expire_date": null
    },
    {
      "name": "大八万楼",
      "name_kana": "",
      "business_type": "菓子製造業",
      "address": "多可郡多可町中区茂利78-1",
      "lat": 35.040613,
      "lng": 134.905877,
      "geocoding_level": 3,
      "phone": "0795320569",
      "license_no": "北播(加健)第302-41",
      "license_date": null,
      "expire_date": null
    },
    {
      "name": "古民家公民館",
      "name_kana": "",
      "business_type": "飲食店営業(1)一般食堂・レストラン等",
      "address": "多可郡多可町加美区多田52-1",
      "lat": 35.09679749800001,
      "lng": 134.887890285,
      "geocoding_level": 8,
      "phone": "",
      "license_no": "北播(加健)第302-44",
      "license_date": null,
      "expire_date": null
    },
    {
      "name": "ローソン加美町役場前店",
      "name_kana": "",
      "business_type": "飲食店営業(2)仕出し屋・弁当屋",
      "address": "多可郡多可町加美区豊部字井杉229-1",
      "lat": 35.108413,
      "lng": 134.906018,
      "geocoding_level": 3,
      "phone": "0795351113",
      "license_no": "北播(加健)第302-43",
      "license_date": null,
      "expire_date": null
    },
    {
      "name": "753",
      "name_kana": "",
      "business_type": "飲食店営業(1)一般食堂・レストラン等",
      "address": "多可郡多可町加美区鳥羽245-2",
      "lat": 35.182153999,
      "lng": 134.934612628,
      "geocoding_level": 8,
      "phone": "",
      "license_no": "北播(加健)第302-47",
      "license_date": null,
      "expire_date": null
    },
    {
      "name": "ＴＯＲＩ　ＭＡＲＣＨＥ　ＴＡＫＡＣＨＯ",
      "name_kana": "",
      "business_type": "飲食店営業(1)一般食堂・レストラン等",
      "address": "多可郡多可町加美区的場145-6",
      "lat": 35.082110414,
      "lng": 134.885671638,
      "geocoding_level": 8,
      "phone": "0795351510",
      "license_no": "北播(加健)第302-48",
      "license_date": null,
      "expire_date": null
    },
    {
      "name": "ＴＯＲＩ　ＭＡＲＣＨＥ　ＴＡＫＡＣＨＯ",
      "name_kana": "",
      "business_type": "菓子製造業",
      "address": "多可郡多可町加美区的場145-6",
      "lat": 35.082110414,
      "lng": 134.885671638,
      "geocoding_level": 8,
      "phone": "0795351510",
      "license_no": "北播(加健)第302-49",
      "license_date": null,
      "expire_date": null
    },
    {
      "name": "ＴＯＲＩ　ＭＡＲＣＨＥ　ＴＡＫＡＣＨＯ",
      "name_kana": "",
      "business_type": "食肉販売業",
      "address": "多可郡多可町加美区的場145-6",
      "lat": 35.082110414,
      "lng": 134.885671638,
      "geocoding_level": 8,
      "phone": "0795351510",
      "license_no": "北播(加健)第302-50",
      "license_date": null,
      "expire_date": null
    },
    {
      "name": "臼井商店",
      "name_kana": "",
      "business_type": "菓子製造業",
      "address": "多可郡多可町加美区寺内7-2",
      "lat": 35.080945462,
      "lng": 134.892116428,
      "geocoding_level": 8,
      "phone": "0795350035",
      "license_no": "北播(加健)第302-54",
      "license_date": null,
      "expire_date": null
    },
    {
      "name": "pata",
      "name_kana": "",
      "business_type": "飲食店営業(1)一般食堂・レストラン等",
      "address": "多可郡多可町中区森本163",
      "lat": 35.046095,
      "lng": 134.934583,
      "geocoding_level": 3,
      "phone": "",
      "license_no": "北播(加健)第302-55",
      "license_date": null,
      "expire_date": null
    },
    {
      "name": "多可だんご",
      "name_kana": "",
      "business_type": "菓子製造業",
      "address": "多可郡多可町加美区門村532",
      "lat": 35.125452,
      "lng": 134.914601,
      "geocoding_level": 3,
      "phone": "08030389015",
      "license_no": "北播(加健)第302-65",
      "license_date": null,
      "expire_date": null
    },
    {
      "name": "CORO－うつわと暮らしの雑貨－",
      "name_kana": "",
      "business_type": "飲食店営業(4)その他",
      "address": "多可郡多可町加美区鳥羽722-1",
      "lat": 35.188968845,
      "lng": 134.929600076,
      "geocoding_level": 8,
      "phone": "",
      "license_no": "北播(加健)第302-71",
      "license_date": null,
      "expire_date": null
    },
    {
      "name": "農園民宿　春名",
      "name_kana": "",
      "business_type": "飲食店営業(3)旅館",
      "address": "多可郡多可町加美区市原139-1",
      "lat": 35.139314849,
      "lng": 134.923438326,
      "geocoding_level": 8,
      "phone": "",
      "license_no": "北播(加健)第302-90",
      "license_date": null,
      "expire_date": null
    },
    {
      "name": "ｅｇａｏｎ！ｎａａａｒｅ",
      "name_kana": "",
      "business_type": "飲食店営業(1)一般食堂・レストラン等",
      "address": "多可郡多可町加美区鳥羽226",
      "lat": 35.181180358,
      "lng": 134.934308211,
      "geocoding_level": 8,
      "phone": "0795205434",
      "license_no": "北播(加健)第302-91",
      "license_date": null,
      "expire_date": null
    },
    {
      "name": "紡食堂 monzen",
      "name_kana": "",
      "business_type": "飲食店営業(1)一般食堂・レストラン等",
      "address": "多可郡多可町中区門前333-2",
      "lat": 35.078095826,
      "lng": 134.90158722,
      "geocoding_level": 8,
      "phone": "08087182240",
      "license_no": "北播(加健)第302-92",
      "license_date": null,
      "expire_date": null
    },
    {
      "name": "和子の梅干",
      "name_kana": "",
      "business_type": "漬物製造業",
      "address": "多可郡多可町中区東安田687",
      "lat": 35.042534,
      "lng": 134.962213,
      "geocoding_level": 3,
      "phone": "",
      "license_no": "北播(加健)第302-97",
      "license_date": null,
      "expire_date": null
    },
    {
      "name": "クワムラ食品株式会社",
      "name_kana": "",
      "business_type": "漬物製造業",
      "address": "多可郡多可町中区曽我井893",
      "lat": 35.025001,
      "lng": 134.938333,
      "geocoding_level": 3,
      "phone": "0795322003",
      "license_no": "北播(加健)第302-99",
      "license_date": null,
      "expire_date": null
    },
    {
      "name": "酒井精工株式会社　自販機コーナー　屋外",
      "name_kana": "",
      "business_type": "調理の機能を有する自動販売機により食品を調理し、調理された食品を販売する営業",
      "address": "多可郡多可町中区曽我井907-90",
      "lat": 35.025001,
      "lng": 134.938333,
      "geocoding_level": 3,
      "phone": "0795322251",
      "license_no": "北播(加健)第302-100",
      "license_date": null,
      "expire_date": null
    },
    {
      "name": "京もみじ",
      "name_kana": "",
      "business_type": "飲食店営業(2)仕出し屋・弁当屋",
      "address": "多可郡多可町加美区西脇135-16",
      "lat": 35.078366769000006,
      "lng": 134.892567292,
      "geocoding_level": 8,
      "phone": "",
      "license_no": "北播(加健)第302-110",
      "license_date": null,
      "expire_date": null
    },
    {
      "name": "どんぐり会",
      "name_kana": "",
      "business_type": "密封包装食品製造業",
      "address": "多可郡多可町中区曽我井613-1",
      "lat": 35.025001,
      "lng": 134.938333,
      "geocoding_level": 3,
      "phone": "",
      "license_no": "北播(加健)第302-118",
      "license_date": null,
      "expire_date": null
    },
    {
      "name": "ファインビバレッジ株式会社",
      "name_kana": "",
      "business_type": "酒類製造業",
      "address": "多可郡多可町中区安楽田505-4",
      "lat": 35.07148332,
      "lng": 134.901866483,
      "geocoding_level": 8,
      "phone": "0795388628",
      "license_no": "北播(加健)第302-120",
      "license_date": null,
      "expire_date": null
    },
    {
      "name": "Stay×TAKA「門前」",
      "name_kana": "",
      "business_type": "菓子製造業",
      "address": "多可郡多可町中区門前333-2",
      "lat": 35.078095826,
      "lng": 134.90158722,
      "geocoding_level": 8,
      "phone": "08087182240",
      "license_no": "北播(加健)第302-122",
      "license_date": null,
      "expire_date": null
    },
    {
      "name": "戎屋菓子店",
      "name_kana": "",
      "business_type": "菓子製造業",
      "address": "多可郡多可町中区中村町104",
      "lat": 35.048733,
      "lng": 134.924635,
      "geocoding_level": 3,
      "phone": "0795320261",
      "license_no": "北播(加健)第302-123",
      "license_date": null,
      "expire_date": null
    },
    {
      "name": "戎屋菓子店",
      "name_kana": "",
      "business_type": "飲食店営業(4)その他",
      "address": "多可郡多可町中区中村町104",
      "lat": 35.048733,
      "lng": 134.924635,
      "geocoding_level": 3,
      "phone": "0795320261",
      "license_no": "北播(加健)第302-124",
      "license_date": null,
      "expire_date": null
    },
    {
      "name": "セブンイレブン多可町中央公民館前店",
      "name_kana": "",
      "business_type": "飲食店営業（5）簡易な営業",
      "address": "多可郡多可町中区茂利28-3",
      "lat": 35.040613,
      "lng": 134.905877,
      "geocoding_level": 3,
      "phone": "0795302066",
      "license_no": "北播(加健)第302-125",
      "license_date": null,
      "expire_date": null
    },
    {
      "name": "よりみち",
      "name_kana": "",
      "business_type": "飲食店営業(1)一般食堂・レストラン等",
      "address": "多可郡多可町八千代区下野間904-1",
      "lat": 34.993921,
      "lng": 134.91795,
      "geocoding_level": 3,
      "phone": "0795372188",
      "license_no": "北播(加健)第302-136",
      "license_date": null,
      "expire_date": null
    },
    {
      "name": "株式会社長谷川養蜂園",
      "name_kana": "",
      "business_type": "飲食店営業(1)一般食堂・レストラン等",
      "address": "多可郡多可町中区森本175",
      "lat": 35.046095,
      "lng": 134.934583,
      "geocoding_level": 3,
      "phone": "0795325535",
      "license_no": "北播(加健)第302-144",
      "license_date": null,
      "expire_date": null
    },
    {
      "name": "エアレーベン八千代",
      "name_kana": "",
      "business_type": "飲食店営業(4)その他",
      "address": "多可郡多可町八千代区中野間363-14",
      "lat": 35.004662,
      "lng": 134.904804,
      "geocoding_level": 3,
      "phone": "0795372211",
      "license_no": "北播(加健)第302-153",
      "license_date": null,
      "expire_date": null
    },
    {
      "name": "とと",
      "name_kana": "",
      "business_type": "飲食店営業(1)一般食堂・レストラン等",
      "address": "多可郡多可町八千代区下村167",
      "lat": 35.030173,
      "lng": 134.880805,
      "geocoding_level": 3,
      "phone": "",
      "license_no": "北播(加健)第302-164",
      "license_date": null,
      "expire_date": null
    },
    {
      "name": "Kaji家",
      "name_kana": "",
      "business_type": "飲食店営業(1)一般食堂・レストラン等",
      "address": "多可郡多可町中区鍛冶屋477",
      "lat": 35.066500912,
      "lng": 134.925524803,
      "geocoding_level": 8,
      "phone": "0795370699",
      "license_no": "北播(加健)第302-163",
      "license_date": null,
      "expire_date": null
    },
    {
      "name": "気まぐれキッチン　ホッとてらす",
      "name_kana": "",
      "business_type": "飲食店営業(1)一般食堂・レストラン等",
      "address": "多可郡多可町八千代区中村64-6",
      "lat": 35.043348,
      "lng": 134.867493,
      "geocoding_level": 3,
      "phone": "09031633070",
      "license_no": "北播(加健)第302-4",
      "license_date": null,
      "expire_date": null
    },
    {
      "name": "マイスター工房八千代",
      "name_kana": "",
      "business_type": "漬物製造業",
      "address": "多可郡多可町八千代区中村46-1",
      "lat": 35.043348,
      "lng": 134.867493,
      "geocoding_level": 3,
      "phone": "0795305516",
      "license_no": "北播(加健)第302-5",
      "license_date": null,
      "expire_date": null
    },
    {
      "name": "まちの駅・たか",
      "name_kana": "",
      "business_type": "飲食店営業(4)その他",
      "address": "多可郡多可町中区岸上281-1",
      "lat": 35.059163671,
      "lng": 134.918410524,
      "geocoding_level": 8,
      "phone": "0795207087",
      "license_no": "北播(加健)第302-14",
      "license_date": null,
      "expire_date": null
    },
    {
      "name": "ゆいたば",
      "name_kana": "",
      "business_type": "飲食店営業(1)一般食堂・レストラン等",
      "address": "多可郡多可町加美区市原456",
      "lat": 35.142732535,
      "lng": 134.918991146,
      "geocoding_level": 8,
      "phone": "",
      "license_no": "北播(加健)第302-19",
      "license_date": null,
      "expire_date": null
    },
    {
      "name": "キタガキ",
      "name_kana": "",
      "business_type": "飲食店営業(4)その他",
      "address": "多可郡多可町中区安楽田961-7",
      "lat": 35.070596814,
      "lng": 134.900795946,
      "geocoding_level": 8,
      "phone": "",
      "license_no": "北播(加健)第302-55",
      "license_date": null,
      "expire_date": null
    },
    {
      "name": "まきの商店",
      "name_kana": "",
      "business_type": "飲食店営業(1)一般食堂・レストラン等",
      "address": "多可郡多可町中区牧野787-1",
      "lat": 35.076995999,
      "lng": 134.929172513,
      "geocoding_level": 8,
      "phone": "0795371177",
      "license_no": "北播(加健)第302-64",
      "license_date": null,
      "expire_date": null
    },
    {
      "name": "京もみじ",
      "name_kana": "",
      "business_type": "そうざい製造業",
      "address": "多可郡多可町加美区西脇135-16",
      "lat": 35.078366769000006,
      "lng": 134.892567292,
      "geocoding_level": 8,
      "phone": "",
      "license_no": "北播(加健)第302-73",
      "license_date": null,
      "expire_date": null
    },
    {
      "name": "ジビエのヒデキ",
      "name_kana": "",
      "business_type": "魚介類販売業",
      "address": "多可郡多可町八千代区俵田143",
      "lat": 35.021754,
      "lng": 134.898359,
      "geocoding_level": 3,
      "phone": "",
      "license_no": "北播(加健)第302-79",
      "license_date": null,
      "expire_date": null
    },
    {
      "name": "妙見富士カントリークラブ  レストラン",
      "name_kana": "",
      "business_type": "飲食店営業(1)一般食堂・レストラン等",
      "address": "多可郡多可町中区牧野817-1",
      "lat": 35.089292,
      "lng": 134.928419,
      "geocoding_level": 3,
      "phone": "0795321144",
      "license_no": "北播(加健)第302-95",
      "license_date": null,
      "expire_date": null
    },
    {
      "name": "中華食堂　四川飯店",
      "name_kana": "",
      "business_type": "飲食店営業(1)一般食堂・レストラン等",
      "address": "多可郡多可町中区茂利41",
      "lat": 35.048394013,
      "lng": 134.92058489,
      "geocoding_level": 8,
      "phone": "0795388886",
      "license_no": "北播(加健)第302-92",
      "license_date": null,
      "expire_date": null
    },
    {
      "name": "肉の直売　Ari　Meat",
      "name_kana": "",
      "business_type": "食肉販売業",
      "address": "多可郡多可町中区茂利40-2",
      "lat": 35.048675963,
      "lng": 134.920664261,
      "geocoding_level": 8,
      "phone": "0795388298",
      "license_no": "北播(加健)第302-93",
      "license_date": null,
      "expire_date": null
    },
    {
      "name": "肉の直売　Ari　Meat",
      "name_kana": "",
      "business_type": "飲食店営業(4)その他",
      "address": "多可郡多可町中区茂利40-2",
      "lat": 35.048675963,
      "lng": 134.920664261,
      "geocoding_level": 8,
      "phone": "0795388298",
      "license_no": "北播(加健)第302-94",
      "license_date": null,
      "expire_date": null
    },
    {
      "name": "Narsya○kriya",
      "name_kana": "",
      "business_type": "飲食店営業(2)仕出し屋・弁当屋",
      "address": "多可郡多可町加美区三谷126-7",
      "lat": 35.129831276,
      "lng": 134.923223635,
      "geocoding_level": 8,
      "phone": "",
      "license_no": "北播(加健)第302-124",
      "license_date": null,
      "expire_date": null
    },
    {
      "name": "Narsya○kriya",
      "name_kana": "",
      "business_type": "菓子製造業",
      "address": "多可郡多可町加美区三谷126-7",
      "lat": 35.129831276,
      "lng": 134.923223635,
      "geocoding_level": 8,
      "phone": "",
      "license_no": "北播(加健)第302-125",
      "license_date": null,
      "expire_date": null
    },
    {
      "name": "みすまる工房",
      "name_kana": "",
      "business_type": "菓子製造業",
      "address": "多可郡多可町加美区門村532",
      "lat": 35.125452,
      "lng": 134.914601,
      "geocoding_level": 3,
      "phone": "",
      "license_no": "北播(加健)第302-126",
      "license_date": null,
      "expire_date": null
    },
    {
      "name": "いちご工舎",
      "name_kana": "",
      "business_type": "菓子製造業",
      "address": "多可郡多可町八千代区中野間586-1",
      "lat": 35.004662,
      "lng": 134.904804,
      "geocoding_level": 3,
      "phone": "08092006928",
      "license_no": "北播(加健)第302-131",
      "license_date": null,
      "expire_date": null
    },
    {
      "name": "Hoshigarasu",
      "name_kana": "",
      "business_type": "そうざい製造業",
      "address": "多可郡多可町中区鍛冶屋325-3",
      "lat": 35.065711352,
      "lng": 134.921421954,
      "geocoding_level": 8,
      "phone": "",
      "license_no": "北播(加健)第302-132",
      "license_date": null,
      "expire_date": null
    },
    {
      "name": "アート 八千代",
      "name_kana": "",
      "business_type": "飲食店営業(3)旅館",
      "address": "多可郡多可町八千代区下三原234-2",
      "lat": 34.999789,
      "lng": 134.891456,
      "geocoding_level": 3,
      "phone": "",
      "license_no": "北播(加健)第302-133",
      "license_date": null,
      "expire_date": null
    },
    {
      "name": "楽",
      "name_kana": "",
      "business_type": "飲食店営業(1)一般食堂・レストラン等",
      "address": "多可郡多可町中区門前309-2",
      "lat": 35.079534617,
      "lng": 134.901128609,
      "geocoding_level": 8,
      "phone": "0795205164",
      "license_no": "北播(加健)第302-135",
      "license_date": null,
      "expire_date": null
    },
    {
      "name": "Ｋａｉｍａｎａ　ｆａｒｍ",
      "name_kana": "",
      "business_type": "飲食店営業(1)一般食堂・レストラン等",
      "address": "多可郡多可町中区牧野817-29",
      "lat": 35.089292,
      "lng": 134.928419,
      "geocoding_level": 3,
      "phone": "",
      "license_no": "北播(加健)第302-143",
      "license_date": null,
      "expire_date": null
    },
    {
      "name": "Ｋａｉｍａｎａ　ｆａｒｍ",
      "name_kana": "",
      "business_type": "菓子製造業",
      "address": "多可郡多可町中区牧野817-29",
      "lat": 35.089292,
      "lng": 134.928419,
      "geocoding_level": 3,
      "phone": "",
      "license_no": "北播(加健)第302-144",
      "license_date": null,
      "expire_date": null
    },
    {
      "name": "スパイス食堂みろく",
      "name_kana": "",
      "business_type": "飲食店営業(1)一般食堂・レストラン等",
      "address": "多可郡多可町八千代区下野間180-1",
      "lat": 34.993921,
      "lng": 134.91795,
      "geocoding_level": 3,
      "phone": "",
      "license_no": "北播(加健)第302-146",
      "license_date": null,
      "expire_date": null
    },
    {
      "name": "パン屋　ｃｏｒｏｎ",
      "name_kana": "",
      "business_type": "菓子製造業",
      "address": "多可郡多可町中区奥中566-1",
      "lat": 35.052505739,
      "lng": 134.918853871,
      "geocoding_level": 8,
      "phone": "0795387589",
      "license_no": "北播(加健)第302-153",
      "license_date": null,
      "expire_date": null
    },
    {
      "name": "Ｉｔｔｏｋｉ",
      "name_kana": "",
      "business_type": "飲食店営業(1)一般食堂・レストラン等",
      "address": "多可郡多可町加美区寺内2",
      "lat": 35.080753,
      "lng": 134.854967,
      "geocoding_level": 3,
      "phone": "0795350062",
      "license_no": "北播(加健)第302-151",
      "license_date": null,
      "expire_date": null
    },
    {
      "name": "パン屋　ｃｏｒｏｎ",
      "name_kana": "",
      "business_type": "飲食店営業(4)その他",
      "address": "多可郡多可町中区奥中566-1",
      "lat": 35.052505739,
      "lng": 134.918853871,
      "geocoding_level": 8,
      "phone": "",
      "license_no": "北播(加健)第302-4",
      "license_date": null,
      "expire_date": null
    },
    {
      "name": "華むらさき",
      "name_kana": "",
      "business_type": "みそ又はしょうゆ製造業",
      "address": "多可郡多可町加美区棚釜168-1",
      "lat": 35.11626699,
      "lng": 134.886184452,
      "geocoding_level": 8,
      "phone": "",
      "license_no": "北播(加健)第302-6",
      "license_date": null,
      "expire_date": null
    },
    {
      "name": "華むらさき",
      "name_kana": "",
      "business_type": "漬物製造業",
      "address": "多可郡多可町加美区棚釜168-1",
      "lat": 35.11626699,
      "lng": 134.886184452,
      "geocoding_level": 8,
      "phone": "",
      "license_no": "北播(加健)第302-7",
      "license_date": null,
      "expire_date": null
    },
    {
      "name": "華むらさき",
      "name_kana": "",
      "business_type": "密封包装食品製造業",
      "address": "多可郡多可町加美区棚釜168-1",
      "lat": 35.11626699,
      "lng": 134.886184452,
      "geocoding_level": 8,
      "phone": "",
      "license_no": "北播(加健)第302-8",
      "license_date": null,
      "expire_date": null
    },
    {
      "name": "いちご工舎",
      "name_kana": "",
      "business_type": "飲食店営業(4)その他",
      "address": "多可郡多可町八千代区中野間586-1",
      "lat": 35.004662,
      "lng": 134.904804,
      "geocoding_level": 3,
      "phone": "08092006928",
      "license_no": "北播(加健)第302-10",
      "license_date": null,
      "expire_date": null
    },
    {
      "name": "What's poppin",
      "name_kana": "",
      "business_type": "飲食店営業(1)一般食堂・レストラン等",
      "address": "多可郡多可町加美区門村546-4",
      "lat": 35.128643981,
      "lng": 134.92274717,
      "geocoding_level": 8,
      "phone": "0795208528",
      "license_no": "北播(加健)第302-19",
      "license_date": null,
      "expire_date": null
    },
    {
      "name": "takibi_cafe_takibiya",
      "name_kana": "",
      "business_type": "飲食店営業(4)その他",
      "address": "多可郡多可町中区牧野字上野508-1",
      "lat": 35.089292,
      "lng": 134.928419,
      "geocoding_level": 3,
      "phone": "",
      "license_no": "北播(加健)第302-18",
      "license_date": null,
      "expire_date": null
    },
    {
      "name": "ｇｏｊｉ",
      "name_kana": "",
      "business_type": "菓子製造業",
      "address": "多可郡多可町加美区熊野部457-1",
      "lat": 35.094020543,
      "lng": 134.890141501,
      "geocoding_level": 8,
      "phone": "",
      "license_no": "北播(加健)第302-20",
      "license_date": null,
      "expire_date": null
    },
    {
      "name": "てぃだの台所",
      "name_kana": "",
      "business_type": "そうざい製造業",
      "address": "多可郡多可町加美区奥荒田148-1",
      "lat": 35.100422,
      "lng": 134.863105,
      "geocoding_level": 3,
      "phone": "0795351138",
      "license_no": "北播(加健)第302-21",
      "license_date": null,
      "expire_date": null
    },
    {
      "name": "朝香の里",
      "name_kana": "",
      "business_type": "漬物製造業",
      "address": "多可郡多可町加美区寺内115-4",
      "lat": 35.080753,
      "lng": 134.854967,
      "geocoding_level": 3,
      "phone": "",
      "license_no": "北播(加健)第302-30",
      "license_date": null,
      "expire_date": null
    },
    {
      "name": "べーかりー こつぶ",
      "name_kana": "",
      "business_type": "菓子製造業",
      "address": "多可郡多可町中区安坂59-2",
      "lat": 35.037625,
      "lng": 134.91774,
      "geocoding_level": 3,
      "phone": "0795208847",
      "license_no": "北播(加健)第302-33",
      "license_date": null,
      "expire_date": null
    },
    {
      "name": "多可だんご",
      "name_kana": "",
      "business_type": "飲食店営業(4)その他",
      "address": "多可郡多可町加美区門村532-5",
      "lat": 35.127922687,
      "lng": 134.921501716,
      "geocoding_level": 8,
      "phone": "08030389015",
      "license_no": "北播(加健)第312-67",
      "license_date": null,
      "expire_date": null
    },
    {
      "name": "大八万楼",
      "name_kana": "",
      "business_type": "密封包装食品製造業",
      "address": "多可郡多可町中区茂利77",
      "lat": 35.040613,
      "lng": 134.905877,
      "geocoding_level": 3,
      "phone": "0795320569",
      "license_no": "北播(加健)第302-44",
      "license_date": null,
      "expire_date": null
    },
    {
      "name": "おうちごはん　ひろちゃん食堂",
      "name_kana": "",
      "business_type": "飲食店営業(1)一般食堂・レストラン等",
      "address": "多可郡多可町加美区大袋235-9",
      "lat": 35.138733982,
      "lng": 134.922982202,
      "geocoding_level": 8,
      "phone": "08029676765",
      "license_no": "北播(加健)第302-46",
      "license_date": null,
      "expire_date": null
    },
    {
      "name": "Ａｏｉｋａｂａ",
      "name_kana": "",
      "business_type": "飲食店営業(1)一般食堂・レストラン等",
      "address": "多可郡多可町加美区的場字中所281-2",
      "lat": 35.082643,
      "lng": 134.876279,
      "geocoding_level": 3,
      "phone": "",
      "license_no": "北播(加健)第302-59",
      "license_date": null,
      "expire_date": null
    },
    {
      "name": "Ａｏｉｋａｂａ",
      "name_kana": "",
      "business_type": "菓子製造業",
      "address": "多可郡多可町加美区的場字中所281-2",
      "lat": 35.082643,
      "lng": 134.876279,
      "geocoding_level": 3,
      "phone": "",
      "license_no": "北播(加健)第302-60",
      "license_date": null,
      "expire_date": null
    },
    {
      "name": "pata",
      "name_kana": "",
      "business_type": "食肉販売業",
      "address": "多可郡多可町中区森本163",
      "lat": 35.046095,
      "lng": 134.934583,
      "geocoding_level": 3,
      "phone": "",
      "license_no": "北播(加健)第302-85",
      "license_date": null,
      "expire_date": null
    },
    {
      "name": "農園若づる",
      "name_kana": "",
      "business_type": "菓子製造業",
      "address": "多可郡多可町中区東安田555",
      "lat": 35.042534,
      "lng": 134.962213,
      "geocoding_level": 3,
      "phone": "08038050598",
      "license_no": "北播(加健)第302-90",
      "license_date": null,
      "expire_date": null
    },
    {
      "name": "株式会社デザートプラン　第2工場",
      "name_kana": "",
      "business_type": "アイスクリーム類製造業",
      "address": "多可郡多可町八千代区仕出原697-15",
      "lat": 35.014502,
      "lng": 134.919149,
      "geocoding_level": 3,
      "phone": "0795371177",
      "license_no": "北播(加健)第302-93",
      "license_date": null,
      "expire_date": null
    },
    {
      "name": "多可町生涯学習まちづくりプラザ",
      "name_kana": "",
      "business_type": "飲食店営業(1)一般食堂・レストラン等",
      "address": "多可郡多可町中区岸上281-17",
      "lat": 35.056974129,
      "lng": 134.919962877,
      "geocoding_level": 8,
      "phone": "0795321250",
      "license_no": "北播(加健)第302-97",
      "license_date": null,
      "expire_date": null
    },
    {
      "name": "apple only",
      "name_kana": "",
      "business_type": "菓子製造業",
      "address": "多可郡多可町八千代区中野間312-1",
      "lat": 35.004662,
      "lng": 134.904804,
      "geocoding_level": 3,
      "phone": "",
      "license_no": "北播(加健)第302-5",
      "license_date": null,
      "expire_date": null
    },
    {
      "name": "お米スイーツ「米菓」",
      "name_kana": "",
      "business_type": "飲食店営業(1)一般食堂・レストラン等",
      "address": "多可郡多可町中区鍛冶屋118番地",
      "lat": 35.07025,
      "lng": 134.937996,
      "geocoding_level": 3,
      "phone": "0795323955",
      "license_no": "北播(加健)第302-6",
      "license_date": null,
      "expire_date": null
    },
    {
      "name": "お米スイーツ「米菓」",
      "name_kana": "",
      "business_type": "菓子製造業",
      "address": "多可郡多可町中区鍛冶屋118番地",
      "lat": 35.07025,
      "lng": 134.937996,
      "geocoding_level": 3,
      "phone": "0795323955",
      "license_no": "北播(加健)第302-7",
      "license_date": null,
      "expire_date": null
    },
    {
      "name": "お米スイーツ「米菓」",
      "name_kana": "",
      "business_type": "アイスクリーム類製造業",
      "address": "多可郡多可町中区鍛冶屋118番地",
      "lat": 35.07025,
      "lng": 134.937996,
      "geocoding_level": 3,
      "phone": "0795323955",
      "license_no": "北播(加健)第302-8",
      "license_date": null,
      "expire_date": null
    },
    {
      "name": "旬希",
      "name_kana": "",
      "business_type": "飲食店営業(1)一般食堂・レストラン等",
      "address": "多可郡多可町加美区大袋96-3",
      "lat": 35.136319401,
      "lng": 134.922139238,
      "geocoding_level": 8,
      "phone": "",
      "license_no": "北播(加健)第302-28",
      "license_date": null,
      "expire_date": null
    },
    {
      "name": "とういふぁーむF.C",
      "name_kana": "",
      "business_type": "菓子製造業",
      "address": "多可郡多可町加美区杉原181-1",
      "lat": 35.121070272,
      "lng": 134.919951766,
      "geocoding_level": 8,
      "phone": "",
      "license_no": "北播(加健)第302-30",
      "license_date": null,
      "expire_date": null
    },
    {
      "name": "Cafe Season",
      "name_kana": "",
      "business_type": "飲食店営業(1)一般食堂・レストラン等",
      "address": "多可郡多可町加美区三谷663-1",
      "lat": 35.133823107,
      "lng": 134.899898296,
      "geocoding_level": 8,
      "phone": "",
      "license_no": "北播(加健)第302-38",
      "license_date": null,
      "expire_date": null
    },
    {
      "name": "「幸ちゃんの家」",
      "name_kana": "",
      "business_type": "飲食店営業(1)一般食堂・レストラン等",
      "address": "多可郡多可町八千代区下三原161",
      "lat": 34.999789,
      "lng": 134.891456,
      "geocoding_level": 3,
      "phone": "",
      "license_no": "北播(加健)第302-45",
      "license_date": null,
      "expire_date": null
    },
    {
      "name": "THE CANYON FOREST CAMP",
      "name_kana": "",
      "business_type": "飲食店営業(3)旅館",
      "address": "多可郡多可町八千代区中野間363-13",
      "lat": 35.004662,
      "lng": 134.904804,
      "geocoding_level": 3,
      "phone": "0795205186",
      "license_no": "北播(加健)第302-54",
      "license_date": null,
      "expire_date": null
    },
    {
      "name": "お食事処　れもんの木",
      "name_kana": "",
      "business_type": "飲食店営業(1)一般食堂・レストラン等",
      "address": "多可郡多可町中区東山218-4",
      "lat": 35.072171982,
      "lng": 134.911811774,
      "geocoding_level": 8,
      "phone": "",
      "license_no": "北播(加健)第302-83",
      "license_date": null,
      "expire_date": null
    },
    {
      "name": "ｃａｆｅ　寛(HIRO)",
      "name_kana": "",
      "business_type": "飲食店営業(1)一般食堂・レストラン等",
      "address": "多可郡多可町中区岸上281-92",
      "lat": 35.058798293,
      "lng": 134.918736307,
      "geocoding_level": 8,
      "phone": "",
      "license_no": "北播(加健)第302-86",
      "license_date": null,
      "expire_date": null
    },
    {
      "name": "極楽寺",
      "name_kana": "",
      "business_type": "飲食店営業(1)一般食堂・レストラン等",
      "address": "多可郡多可町八千代区中野間210",
      "lat": 35.004662,
      "lng": 134.904804,
      "geocoding_level": 3,
      "phone": "",
      "license_no": "北播(加健)第302-90",
      "license_date": null,
      "expire_date": null
    },
    {
      "name": "Kaji家",
      "name_kana": "",
      "business_type": "菓子製造業",
      "address": "多可郡多可町中区鍛冶屋477",
      "lat": 35.066500912,
      "lng": 134.925524803,
      "geocoding_level": 8,
      "phone": "0795370699",
      "license_no": "北播(加健)第302-13",
      "license_date": null,
      "expire_date": null
    },
    {
      "name": "エー・エル・ピー株式会社",
      "name_kana": "エー・エル・ピーカブシキカイシャ",
      "business_type": "㉗ 器具、容器包装の製造・加工業（合成樹脂が使用された器具又は容器包装の製造、加工に限る。）",
      "address": "兵庫県多可郡多可町中区安楽田3番地の2",
      "lat": 35.075708,
      "lng": 134.896212,
      "geocoding_level": null,
      "phone": "0795324070",
      "license_no": "",
      "license_date": null,
      "expire_date": null
    },
    {
      "name": "茶穀米研究所",
      "name_kana": "チャコクマイケンキュウジョ",
      "business_type": "⑧ 米穀類販売業",
      "address": "兵庫県多可郡多可町加美区寺内2番地",
      "lat": 35.080629,
      "lng": 134.892112,
      "geocoding_level": null,
      "phone": "08045656249",
      "license_no": "",
      "license_date": null,
      "expire_date": null
    },
    {
      "name": "合同会社いっとき",
      "name_kana": "ゴウドウガイシャイットキ",
      "business_type": "⑧ 米穀類販売業",
      "address": "兵庫県多可郡多可町加美区寺内2",
      "lat": 35.080629,
      "lng": 134.892112,
      "geocoding_level": null,
      "phone": "080-4565-6249",
      "license_no": "",
      "license_date": null,
      "expire_date": null
    },
    {
      "name": "エアレーベン八千代",
      "name_kana": "エアレーベンヤチヨ",
      "business_type": "⑪ 百貨店、総合スーパー",
      "address": "兵庫県多可郡多可町八千代区中野間363-14",
      "lat": 35.012315,
      "lng": 134.908329,
      "geocoding_level": null,
      "phone": "0795372211",
      "license_no": "",
      "license_date": null,
      "expire_date": null
    },
    {
      "name": "ドラッグコスモス多可店",
      "name_kana": "ドラッグコスモスタカテン",
      "business_type": "⑪ 百貨店、総合スーパー",
      "address": "兵庫県多可郡多可町中区森本171-1",
      "lat": 35.043963,
      "lng": 134.927507,
      "geocoding_level": null,
      "phone": "0795-32-5051",
      "license_no": "",
      "license_date": null,
      "expire_date": null
    },
    {
      "name": "ナフコ　多可店",
      "name_kana": "ナフコ　タカテン",
      "business_type": "⑬ その他の食料・飲料販売業",
      "address": "兵庫県多可郡多可町中区糀屋５４番１",
      "lat": 35.036524,
      "lng": 134.928893,
      "geocoding_level": null,
      "phone": "0795-27-7091",
      "license_no": "",
      "license_date": null,
      "expire_date": null
    },
    {
      "name": "ケアハウス「しあわせ荘」",
      "name_kana": "ケアハウスシアワセソウ",
      "business_type": "㉖ 集団給食施設",
      "address": "兵庫県多可郡多可町中区鍛冶屋763番地の15",
      "lat": 35.070332,
      "lng": 134.931939,
      "geocoding_level": null,
      "phone": "0795323330",
      "license_no": "",
      "license_date": null,
      "expire_date": null
    },
    {
      "name": "平家茸",
      "name_kana": "ヘイケタケ",
      "business_type": "⑰ 農産保存食料品製造・加工業",
      "address": "兵庫県多可郡多可町八千代区中野間844",
      "lat": 35.001856,
      "lng": 134.913239,
      "geocoding_level": null,
      "phone": "0795305105",
      "license_no": "",
      "license_date": null,
      "expire_date": null
    },
    {
      "name": "パン工房kiki",
      "name_kana": "パンコウボウキキ",
      "business_type": "㉕ 行商",
      "address": "兵庫県多可郡多可町兵庫県　県下一円",
      "lat": 35.050215,
      "lng": 134.923424,
      "geocoding_level": null,
      "phone": "08053241108",
      "license_no": "",
      "license_date": null,
      "expire_date": null
    },
    {
      "name": "コメリハードアンドグリーン中町店",
      "name_kana": "コメリハードアンドグリーンナカチョウテン",
      "business_type": "⑧ 米穀類販売業",
      "address": "兵庫県多可郡多可町中区安坂きくま１９１",
      "lat": 35.038023,
      "lng": 134.917161,
      "geocoding_level": null,
      "phone": "0795-30-2186",
      "license_no": "",
      "license_date": null,
      "expire_date": null
    },
    {
      "name": "コメリハードアンドグリーン加美店",
      "name_kana": "コメリハードアンドグリーンカミテン",
      "business_type": "⑧ 米穀類販売業",
      "address": "兵庫県多可郡多可町加美区西脇７２番地１",
      "lat": 35.078159,
      "lng": 134.89102,
      "geocoding_level": null,
      "phone": "0795-30-7727",
      "license_no": "",
      "license_date": null,
      "expire_date": null
    },
    {
      "name": "株式会社en",
      "name_kana": "カブシキガイシャエン",
      "business_type": "⑬ その他の食料・飲料販売業",
      "address": "兵庫県多可郡多可町中区岸上１４番地1",
      "lat": 35.058944,
      "lng": 134.926227,
      "geocoding_level": null,
      "phone": "",
      "license_no": "",
      "license_date": null,
      "expire_date": null
    },