{
  "meta": {
    "updated": 1783906731,
    "sources": [
      {
        "source": "岐阜県食品営業許可施設情報",
        "license": "CC BY 2.0"
      },
      {
        "source": "厚生労働省 食品衛生申請等システム（オープンデータ）",
        "license": "公共データ利用規約（第1.0版, PDL1.0）"
      }
    ]
  },
  "data": [
    {
      "name": "鳥八",
      "name_kana": "",
      "business_type": "飲食店営業",
      "address": "岐阜県揖斐郡池田町青柳３９－２",
      "lat": 35.438732,
      "lng": 136.569528,
      "geocoding_level": 3,
      "phone": "",
      "license_no": "55000005",
      "license_date": "2021-06-15",
      "expire_date": "2026-11-30"
    },
    {
      "name": "鳥八",
      "name_kana": "",
      "business_type": "菓子製造業",
      "address": "岐阜県揖斐郡池田町青柳３９－２",
      "lat": 35.438732,
      "lng": 136.569528,
      "geocoding_level": 3,
      "phone": "",
      "license_no": "55000006",
      "license_date": "2021-06-15",
      "expire_date": "2026-11-30"
    },
    {
      "name": "ピッコロ　ガーデン",
      "name_kana": "",
      "business_type": "飲食店営業",
      "address": "岐阜県揖斐郡池田町萩原５５０－２",
      "lat": 35.451771,
      "lng": 136.575112,
      "geocoding_level": 3,
      "phone": "0585-45-5236",
      "license_no": "55000010",
      "license_date": "2021-06-24",
      "expire_date": "2026-11-30"
    },
    {
      "name": "ＳＨＡＲＥ＆ＣＯＭＭＵＮＩＴＹ　ＳＰＡＣＥ　Ｗａ",
      "name_kana": "",
      "business_type": "飲食店営業",
      "address": "岐阜県揖斐郡池田町田畑１８６－４",
      "lat": 35.432864,
      "lng": 136.565848,
      "geocoding_level": 3,
      "phone": "",
      "license_no": "55000012",
      "license_date": "2021-07-15",
      "expire_date": "2026-11-30"
    },
    {
      "name": "ほっともっと池田町店",
      "name_kana": "",
      "business_type": "飲食店営業",
      "address": "岐阜県揖斐郡池田町池野２０９－１",
      "lat": 35.437845,
      "lng": 136.577256,
      "geocoding_level": 3,
      "phone": "0585-44-0520",
      "license_no": "55000013",
      "license_date": "2021-07-21",
      "expire_date": "2026-11-30"
    },
    {
      "name": "株式会社キィポーション　八幡工場",
      "name_kana": "",
      "business_type": "食品の小分け業",
      "address": "岐阜県揖斐郡池田町八幡２６８－１",
      "lat": 35.426258,
      "lng": 136.577926,
      "geocoding_level": 3,
      "phone": "0585-35-8711",
      "license_no": "55000016",
      "license_date": "2021-07-28",
      "expire_date": "2026-11-30"
    },
    {
      "name": "鳥八ステーション",
      "name_kana": "",
      "business_type": "飲食店営業",
      "address": "岐阜県揖斐郡池田町青柳３９－２",
      "lat": 35.438732,
      "lng": 136.569528,
      "geocoding_level": 3,
      "phone": "",
      "license_no": "55000021",
      "license_date": "2021-08-04",
      "expire_date": "2026-11-30"
    },
    {
      "name": "ザ・ビッグエクストラ岐阜池田店",
      "name_kana": "",
      "business_type": "菓子製造業",
      "address": "岐阜県揖斐郡池田町八幡字東光田１９７２－１",
      "lat": 35.426258,
      "lng": 136.577926,
      "geocoding_level": 3,
      "phone": "0585-45-2021",
      "license_no": "55000062",
      "license_date": "2021-10-06",
      "expire_date": "2026-11-30"
    },
    {
      "name": "池田茶屋　とり沢",
      "name_kana": "",
      "business_type": "飲食店営業",
      "address": "岐阜県揖斐郡池田町片山１９５３－１",
      "lat": 35.419493283,
      "lng": 136.559657161,
      "geocoding_level": 8,
      "phone": "090-7308-7947",
      "license_no": "55000065",
      "license_date": "2021-11-25",
      "expire_date": "2026-11-30"
    },
    {
      "name": "雲水",
      "name_kana": "",
      "business_type": "飲食店営業",
      "address": "岐阜県揖斐郡池田町市橋１６３４－１",
      "lat": 35.409456,
      "lng": 136.575734,
      "geocoding_level": 3,
      "phone": "0584-71-1317",
      "license_no": "55000066",
      "license_date": "2021-11-25",
      "expire_date": "2026-11-30"
    },
    {
      "name": "ＤＡＮＲＡＮ　だんらん",
      "name_kana": "",
      "business_type": "飲食店営業",
      "address": "岐阜県揖斐郡池田町池野横町１８５－４",
      "lat": 35.437845,
      "lng": 136.577256,
      "geocoding_level": 3,
      "phone": "0585456688",
      "license_no": "55000068",
      "license_date": "2021-11-25",
      "expire_date": "2026-11-30"
    },
    {
      "name": "恵美飯店",
      "name_kana": "",
      "business_type": "飲食店営業",
      "address": "岐阜県揖斐郡池田町池野深池下５０４－１",
      "lat": 35.437845,
      "lng": 136.577256,
      "geocoding_level": 3,
      "phone": "0585452163",
      "license_no": "55000069",
      "license_date": "2021-11-25",
      "expire_date": "2026-11-30"
    },
    {
      "name": "おおくぼさんちのおやつ",
      "name_kana": "",
      "business_type": "菓子製造業",
      "address": "岐阜県揖斐郡池田町池野７－５",
      "lat": 35.437845,
      "lng": 136.577256,
      "geocoding_level": 3,
      "phone": "08036450082",
      "license_no": "55000071",
      "license_date": "2021-11-25",
      "expire_date": "2026-11-30"
    },
    {
      "name": "株式会社キィポーション　本社第二工場",
      "name_kana": "",
      "business_type": "菓子製造業",
      "address": "岐阜県揖斐郡池田町八幡６２２－４",
      "lat": 35.426258,
      "lng": 136.577926,
      "geocoding_level": 3,
      "phone": "0585-44-1900",
      "license_no": "55000072",
      "license_date": "2021-11-25",
      "expire_date": "2026-11-30"
    },
    {
      "name": "お茶の瑞草園",
      "name_kana": "",
      "business_type": "飲食店営業",
      "address": "岐阜県揖斐郡池田町片山１９５３－１",
      "lat": 35.419493283,
      "lng": 136.559657161,
      "geocoding_level": 8,
      "phone": "0585-45-8030",
      "license_no": "55000073",
      "license_date": "2021-11-25",
      "expire_date": "2026-11-30"
    },
    {
      "name": "中国家庭料理京味",
      "name_kana": "",
      "business_type": "飲食店営業",
      "address": "岐阜県揖斐郡池田町上田２７５－１",
      "lat": 35.452790181,
      "lng": 136.586885478,
      "geocoding_level": 8,
      "phone": "0585-52-9849",
      "license_no": "55000074",
      "license_date": "2021-11-25",
      "expire_date": "2026-11-30"
    },
    {
      "name": "洋風懐石料理　桜坂",
      "name_kana": "",
      "business_type": "飲食店営業",
      "address": "岐阜県揖斐郡池田町藤代鍋沖６６９－１",
      "lat": 35.430077,
      "lng": 136.549065,
      "geocoding_level": 3,
      "phone": "0585-45-3444",
      "license_no": "55000075",
      "license_date": "2021-11-25",
      "expire_date": "2026-11-30"
    },
    {
      "name": "道の駅池田温泉　ひまわり",
      "name_kana": "",
      "business_type": "飲食店営業",
      "address": "岐阜県揖斐郡池田町片山１９５３－１",
      "lat": 35.419493283,
      "lng": 136.559657161,
      "geocoding_level": 8,
      "phone": "090-6571-8059",
      "license_no": "55000076",
      "license_date": "2021-11-25",
      "expire_date": "2026-11-30"
    },
    {
      "name": "白鳥ファーム　池田温泉店",
      "name_kana": "",
      "business_type": "飲食店営業",
      "address": "岐阜県揖斐郡池田町片山１９５３－１",
      "lat": 35.419493283,
      "lng": 136.559657161,
      "geocoding_level": 8,
      "phone": "",
      "license_no": "55000077",
      "license_date": "2021-11-25",
      "expire_date": "2026-11-30"
    },
    {
      "name": "瑞草園",
      "name_kana": "",
      "business_type": "密封包装食品製造業",
      "address": "岐阜県揖斐郡池田町六之井６５９",
      "lat": 35.437465,
      "lng": 136.58421300000003,
      "geocoding_level": 3,
      "phone": "0585-45-2068",
      "license_no": "55000078",
      "license_date": "2021-11-25",
      "expire_date": "2026-11-30"
    },
    {
      "name": "オリーブ",
      "name_kana": "",
      "business_type": "飲食店営業",
      "address": "岐阜県揖斐郡池田町片山９６２－２",
      "lat": 35.423674,
      "lng": 136.546202,
      "geocoding_level": 3,
      "phone": "0585-45-7522",
      "license_no": "55000079",
      "license_date": "2021-11-25",
      "expire_date": "2026-11-30"
    },
    {
      "name": "焼肉しょうちゃん",
      "name_kana": "",
      "business_type": "飲食店営業",
      "address": "岐阜県揖斐郡池田町六之井１３７７",
      "lat": 35.437465,
      "lng": 136.58421300000003,
      "geocoding_level": 3,
      "phone": "0585-45-2596",
      "license_no": "55000080",
      "license_date": "2021-11-25",
      "expire_date": "2026-11-30"
    },
    {
      "name": "サンビレッジ新生苑",
      "name_kana": "",
      "business_type": "飲食店営業",
      "address": "岐阜県揖斐郡池田町本郷１５０１",
      "lat": 35.450397,
      "lng": 136.565023,
      "geocoding_level": 3,
      "phone": "0585-45-5545",
      "license_no": "55000081",
      "license_date": "2021-11-25",
      "expire_date": "2026-11-30"
    },
    {
      "name": "セレモニーホール池田",
      "name_kana": "",
      "business_type": "飲食店営業",
      "address": "岐阜県揖斐郡池田町山洞２３－１",
      "lat": 35.437682,
      "lng": 136.559367,
      "geocoding_level": 3,
      "phone": "0585-44-1168",
      "license_no": "55000083",
      "license_date": "2021-11-25",
      "expire_date": "2026-11-30"
    },
    {
      "name": "トミダヤ池田店",
      "name_kana": "",
      "business_type": "魚介類販売業",
      "address": "岐阜県揖斐郡池田町池野４１１－２",
      "lat": 35.437845,
      "lng": 136.577256,
      "geocoding_level": 3,
      "phone": "0585-45-7878",
      "license_no": "55000084",
      "license_date": "2021-11-25",
      "expire_date": "2026-11-30"
    },
    {
      "name": "日進医療食品株式会社　西美濃さくら苑",
      "name_kana": "",
      "business_type": "飲食店営業",
      "address": "岐阜県揖斐郡池田町田中５－１",
      "lat": 35.461192751000006,
      "lng": 136.559545189,
      "geocoding_level": 8,
      "phone": "0585-45-0268",
      "license_no": "55000085",
      "license_date": "2021-11-25",
      "expire_date": "2026-11-30"
    },
    {
      "name": "西美濃の里",
      "name_kana": "",
      "business_type": "飲食店営業",
      "address": "岐阜県揖斐郡池田町小牛３０７－１",
      "lat": 35.452330442,
      "lng": 136.562745339,
      "geocoding_level": 8,
      "phone": "0585-44-0177",
      "license_no": "55000086",
      "license_date": "2021-11-25",
      "expire_date": "2026-11-30"
    },
    {
      "name": "合同会社三藤",
      "name_kana": "",
      "business_type": "菓子製造業",
      "address": "岐阜県揖斐郡池田町下東野５５３－１２",
      "lat": 35.44230908,
      "lng": 136.584861739,
      "geocoding_level": 8,
      "phone": "09014145799",
      "license_no": "55000087",
      "license_date": "2021-11-25",
      "expire_date": "2026-11-30"
    },
    {
      "name": "ローソン池田本郷店",
      "name_kana": "",
      "business_type": "飲食店営業",
      "address": "岐阜県揖斐郡池田町本郷字柳樋６４１",
      "lat": 35.450397,
      "lng": 136.565023,
      "geocoding_level": 3,
      "phone": "0585-44-0121",
      "license_no": "55000088",
      "license_date": "2021-11-25",
      "expire_date": "2026-11-30"
    },
    {
      "name": "有限会社池田養鱒場",
      "name_kana": "",
      "business_type": "魚介類販売業",
      "address": "岐阜県揖斐郡池田町八幡１０６５－１",
      "lat": 35.426258,
      "lng": 136.577926,
      "geocoding_level": 3,
      "phone": "0585-45-2579",
      "license_no": "55000089",
      "license_date": "2021-11-25",
      "expire_date": "2026-11-30"
    },
    {
      "name": "新生病院",
      "name_kana": "",
      "business_type": "飲食店営業",
      "address": "岐阜県揖斐郡池田町本郷１５５１－１",
      "lat": 35.450397,
      "lng": 136.565023,
      "geocoding_level": 3,
      "phone": "0585-45-3161",
      "license_no": "55000096",
      "license_date": "2022-02-01",
      "expire_date": "2027-11-30"
    },
    {
      "name": "池まる餃子",
      "name_kana": "",
      "business_type": "そうざい製造業",
      "address": "岐阜県揖斐郡池田町片山１９５３－１　道の駅池田温泉",
      "lat": 35.419493283,
      "lng": 136.559657161,
      "geocoding_level": 8,
      "phone": "09042660141",
      "license_no": "55000117",
      "license_date": "2022-02-21",
      "expire_date": "2027-11-30"
    },
    {
      "name": "大津谷公園　キャンプ場　管理棟",
      "name_kana": "",
      "business_type": "飲食店営業",
      "address": "岐阜県揖斐郡池田町宮地１１０２－２",
      "lat": 35.453964279,
      "lng": 136.544838573,
      "geocoding_level": 8,
      "phone": "08045222048",
      "license_no": "55000118",
      "license_date": "2022-03-03",
      "expire_date": "2027-11-30"
    },
    {
      "name": "焼肉しょみん池田店",
      "name_kana": "",
      "business_type": "飲食店営業",
      "address": "岐阜県揖斐郡池田町八幡２４９８",
      "lat": 35.426258,
      "lng": 136.577926,
      "geocoding_level": 3,
      "phone": "0585-52-9035",
      "license_no": "55000123",
      "license_date": "2022-03-18",
      "expire_date": "2027-11-30"
    },
    {
      "name": "株式会社キィポーション揖斐工場",
      "name_kana": "",
      "business_type": "密封包装食品製造業",
      "address": "岐阜県揖斐郡池田町萩原字中畑６６５－２",
      "lat": 35.451771,
      "lng": 136.575112,
      "geocoding_level": 3,
      "phone": "0585456858",
      "license_no": "55000131",
      "license_date": "2022-03-29",
      "expire_date": "2027-11-30"
    },
    {
      "name": "Ｂｉｓｔｒｏ 赤坂",
      "name_kana": "",
      "business_type": "飲食店営業",
      "address": "岐阜県揖斐郡池田町池野４９２",
      "lat": 35.437845,
      "lng": 136.577256,
      "geocoding_level": 3,
      "phone": "09060831434",
      "license_no": "55000135",
      "license_date": "2022-04-25",
      "expire_date": "2027-11-30"
    },
    {
      "name": "株式会社キィポーション　本社第三工場",
      "name_kana": "",
      "business_type": "食品の小分け業",
      "address": "岐阜県揖斐郡池田町揖斐郡池田町八幡２８０３－１",
      "lat": 35.4423,
      "lng": 136.572851,
      "geocoding_level": 2,
      "phone": "0585455552",
      "license_no": "55000180",
      "license_date": "2022-07-27",
      "expire_date": "2027-11-30"
    },
    {
      "name": "株式会社キィポーション　八幡工場",
      "name_kana": "",
      "business_type": "密封包装食品製造業",
      "address": "岐阜県揖斐郡池田町八幡２６８－１",
      "lat": 35.426258,
      "lng": 136.577926,
      "geocoding_level": 3,
      "phone": "0585-35-8711",
      "license_no": "55000181",
      "license_date": "2022-07-27",
      "expire_date": "2027-11-30"
    },
    {
      "name": "乾杯",
      "name_kana": "",
      "business_type": "飲食店営業",
      "address": "岐阜県揖斐郡池田町池野２１３－２",
      "lat": 35.437845,
      "lng": 136.577256,
      "geocoding_level": 3,
      "phone": "08045351043",
      "license_no": "55000202",
      "license_date": "2022-09-16",
      "expire_date": "2027-11-30"
    },
    {
      "name": "ｃａｆｅ すず．",
      "name_kana": "",
      "business_type": "飲食店営業",
      "address": "岐阜県揖斐郡池田町本郷１３９２－１　スペースＮＯＢ店舗１階Ⅾ号室",
      "lat": 35.450397,
      "lng": 136.565023,
      "geocoding_level": 3,
      "phone": "",
      "license_no": "55000207",
      "license_date": "2022-10-14",
      "expire_date": "2027-11-30"
    },
    {
      "name": "カフェ　シフォン",
      "name_kana": "",
      "business_type": "菓子製造業",
      "address": "岐阜県揖斐郡池田町池野４５９－１４",
      "lat": 35.437845,
      "lng": 136.577256,
      "geocoding_level": 3,
      "phone": "08082566894",
      "license_no": "55000209",
      "license_date": "2022-10-21",
      "expire_date": "2027-11-30"
    },
    {
      "name": "カフェ　シフォン",
      "name_kana": "",
      "business_type": "飲食店営業",
      "address": "岐阜県揖斐郡池田町池野４５９－１４",
      "lat": 35.437845,
      "lng": 136.577256,
      "geocoding_level": 3,
      "phone": "08082566894",
      "license_no": "55000210",
      "license_date": "2022-10-21",
      "expire_date": "2027-11-30"
    },
    {
      "name": "大津谷売店",
      "name_kana": "",
      "business_type": "飲食店営業",
      "address": "岐阜県揖斐郡池田町願成寺３６０－９８　河川敷",
      "lat": 35.453033097,
      "lng": 136.544517196,
      "geocoding_level": 8,
      "phone": "",
      "license_no": "55000213",
      "license_date": "2022-11-07",
      "expire_date": "2027-11-30"
    },
    {
      "name": "ミニストップ池田町本郷店",
      "name_kana": "",
      "business_type": "飲食店営業",
      "address": "岐阜県揖斐郡池田町本郷９２５－１",
      "lat": 35.449385676,
      "lng": 136.564023063,
      "geocoding_level": 8,
      "phone": "0585-45-0352",
      "license_no": "55000215",
      "license_date": "2022-11-07",
      "expire_date": "2027-11-30"
    },
    {
      "name": "中部フーズ株式会社池田店",
      "name_kana": "",
      "business_type": "飲食店営業",
      "address": "岐阜県揖斐郡池田町本郷９１７－１",
      "lat": 35.448561921,
      "lng": 136.564020832,
      "geocoding_level": 8,
      "phone": "0585451166",
      "license_no": "55000216",
      "license_date": "2022-11-07",
      "expire_date": "2027-11-30"
    },
    {
      "name": "株式会社バロー池田店",
      "name_kana": "",
      "business_type": "食肉販売業",
      "address": "岐阜県揖斐郡池田町本郷９１７－１",
      "lat": 35.448561921,
      "lng": 136.564020832,
      "geocoding_level": 8,
      "phone": "0585451166",
      "license_no": "55000217",
      "license_date": "2022-11-07",
      "expire_date": "2027-11-30"
    },
    {
      "name": "株式会社バロー池田店",
      "name_kana": "",
      "business_type": "魚介類販売業",
      "address": "岐阜県揖斐郡池田町本郷９１７－１",
      "lat": 35.448561921,
      "lng": 136.564020832,
      "geocoding_level": 8,
      "phone": "0585451166",
      "license_no": "55000218",
      "license_date": "2022-11-07",
      "expire_date": "2027-11-30"
    },
    {
      "name": "株式会社キィポーション　本社第二工場",
      "name_kana": "",
      "business_type": "密封包装食品製造業",
      "address": "岐阜県揖斐郡池田町八幡６２２－４",
      "lat": 35.426258,
      "lng": 136.577926,
      "geocoding_level": 3,
      "phone": "0585-44-1900",
      "license_no": "55000219",
      "license_date": "2022-11-07",
      "expire_date": "2027-11-30"
    },
    {
      "name": "株式会社キィポーション　本社第一工場",
      "name_kana": "",
      "business_type": "菓子製造業",
      "address": "岐阜県揖斐郡池田町八幡６２１－７",
      "lat": 35.426258,
      "lng": 136.577926,
      "geocoding_level": 3,
      "phone": "0585455552",
      "license_no": "55000220",
      "license_date": "2022-11-07",
      "expire_date": "2027-11-30"
    },
    {
      "name": "株式会社キィポーション　本社第一工場",
      "name_kana": "",
      "business_type": "密封包装食品製造業",
      "address": "岐阜県揖斐郡池田町八幡６２１－７",
      "lat": 35.426258,
      "lng": 136.577926,
      "geocoding_level": 3,
      "phone": "0585455552",
      "license_no": "55000221",
      "license_date": "2022-11-07",
      "expire_date": "2027-11-30"
    },
    {
      "name": "ザ・ビッグエクストラ岐阜池田店",
      "name_kana": "",
      "business_type": "飲食店営業",
      "address": "岐阜県揖斐郡池田町八幡字東光田１９７２－１",
      "lat": 35.426258,
      "lng": 136.577926,
      "geocoding_level": 3,
      "phone": "0585-45-2021",
      "license_no": "55000222",
      "license_date": "2022-11-08",
      "expire_date": "2027-11-30"
    },
    {
      "name": "ザ・ビッグエクストラ岐阜池田店",
      "name_kana": "",
      "business_type": "飲食店営業",
      "address": "岐阜県揖斐郡池田町八幡字東光田１９７２－１",
      "lat": 35.426258,
      "lng": 136.577926,
      "geocoding_level": 3,
      "phone": "0585-45-2021",
      "license_no": "55000223",
      "license_date": "2022-11-08",
      "expire_date": "2027-11-30"
    },
    {
      "name": "ザ・ビッグエクストラ岐阜池田店",
      "name_kana": "",
      "business_type": "魚介類販売業",
      "address": "岐阜県揖斐郡池田町八幡字東光田１９７２－１",
      "lat": 35.426258,
      "lng": 136.577926,
      "geocoding_level": 3,
      "phone": "0585-45-2021",
      "license_no": "55000224",
      "license_date": "2022-11-08",
      "expire_date": "2027-11-30"
    },
    {
      "name": "ザ・ビッグエクストラ岐阜池田店",
      "name_kana": "",
      "business_type": "食肉販売業",
      "address": "岐阜県揖斐郡池田町八幡字東光田１９７２－１",
      "lat": 35.426258,
      "lng": 136.577926,
      "geocoding_level": 3,
      "phone": "0585-45-2021",
      "license_no": "55000225",
      "license_date": "2022-11-08",
      "expire_date": "2027-11-30"
    },
    {
      "name": "Ｂａｋｅ　ｓｈｏｐ　ＦＩＫＡ",
      "name_kana": "",
      "business_type": "菓子製造業",
      "address": "岐阜県揖斐郡池田町池野１１４－１",
      "lat": 35.437845,
      "lng": 136.577256,
      "geocoding_level": 3,
      "phone": "0585450933",
      "license_no": "55000227",
      "license_date": "2022-11-15",
      "expire_date": "2027-11-30"
    },
    {
      "name": "リハビリセンター白鳥",
      "name_kana": "",
      "business_type": "飲食店営業",
      "address": "岐阜県揖斐郡池田町白鳥３８６",
      "lat": 35.444704218,
      "lng": 136.590910251,
      "geocoding_level": 8,
      "phone": "0585453133",
      "license_no": "55000228",
      "license_date": "2022-11-15",
      "expire_date": "2027-11-30"
    },
    {
      "name": "リハビリセンター白鳥",
      "name_kana": "",
      "business_type": "菓子製造業",
      "address": "岐阜県揖斐郡池田町白鳥３８６",
      "lat": 35.444704218,
      "lng": 136.590910251,
      "geocoding_level": 8,
      "phone": "0585453133",
      "license_no": "55000229",
      "license_date": "2022-11-15",
      "expire_date": "2027-11-30"
    },
    {
      "name": "メフォス１０２５９号店",
      "name_kana": "",
      "business_type": "飲食店営業",
      "address": "岐阜県揖斐郡池田町粕ケ原２０３１－１",
      "lat": 35.460506215,
      "lng": 136.583033963,
      "geocoding_level": 8,
      "phone": "0585357733",
      "license_no": "55000230",
      "license_date": "2022-11-15",
      "expire_date": "2027-11-30"
    },
    {
      "name": "ラーメンハウスくねくね　池田Ｒ４１７店",
      "name_kana": "",
      "business_type": "飲食店営業",
      "address": "岐阜県揖斐郡池田町八幡字北出９４６－1",
      "lat": 35.426258,
      "lng": 136.577926,
      "geocoding_level": 3,
      "phone": "0585459990",
      "license_no": "55000235",
      "license_date": "2022-11-25",
      "expire_date": "2027-11-30"
    },
    {
      "name": "自由空間　ナマステ",
      "name_kana": "",
      "business_type": "飲食店営業",
      "address": "岐阜県揖斐郡池田町八幡２５７９－３",
      "lat": 35.426258,
      "lng": 136.577926,
      "geocoding_level": 3,
      "phone": "09088613188",
      "license_no": "55000239",
      "license_date": "2022-11-28",
      "expire_date": "2027-11-30"
    },
    {
      "name": "糸車",
      "name_kana": "",
      "business_type": "飲食店営業",
      "address": "岐阜県揖斐郡池田町八幡１５００－２",
      "lat": 35.426258,
      "lng": 136.577926,
      "geocoding_level": 3,
      "phone": "0585-45-8660",
      "license_no": "55000241",
      "license_date": "2022-11-28",
      "expire_date": "2027-11-30"
    },
    {
      "name": "白喜屋",
      "name_kana": "",
      "business_type": "菓子製造業",
      "address": "岐阜県揖斐郡池田町青柳８０－２３",
      "lat": 35.438732,
      "lng": 136.569528,
      "geocoding_level": 3,
      "phone": "0585452171",
      "license_no": "55000245",
      "license_date": "2022-12-20",
      "expire_date": "2028-11-30"
    },
    {
      "name": "白喜屋",
      "name_kana": "",
      "business_type": "そうざい製造業",
      "address": "岐阜県揖斐郡池田町青柳８０－２３",
      "lat": 35.438732,
      "lng": 136.569528,
      "geocoding_level": 3,
      "phone": "0585452171",
      "license_no": "55000246",
      "license_date": "2022-12-20",
      "expire_date": "2028-11-30"
    },
    {
      "name": "白喜屋",
      "name_kana": "",
      "business_type": "飲食店営業",
      "address": "岐阜県揖斐郡池田町青柳８０－２３",
      "lat": 35.438732,
      "lng": 136.569528,
      "geocoding_level": 3,
      "phone": "0585452171",
      "license_no": "55000247",
      "license_date": "2022-12-20",
      "expire_date": "2028-11-30"
    },
    {
      "name": "やすらぎ珈琲店池田店",
      "name_kana": "",
      "business_type": "飲食店営業",
      "address": "岐阜県揖斐郡池田町八幡８５１－７",
      "lat": 35.426258,
      "lng": 136.577926,
      "geocoding_level": 3,
      "phone": "0585450104",
      "license_no": "55000280",
      "license_date": "2023-03-28",
      "expire_date": "2028-11-30"
    },
    {
      "name": "ＴＨＥ　ＭＩＬＫ　ＳＨＯＰ",
      "name_kana": "",
      "business_type": "飲食店営業",
      "address": "岐阜県揖斐郡池田町池野４７０",
      "lat": 35.437845,
      "lng": 136.577256,
      "geocoding_level": 3,
      "phone": "",
      "license_no": "55000340",
      "license_date": "2023-08-24",
      "expire_date": "2028-11-30"
    },
    {
      "name": "ＴＨＥ　ＭＩＬＫ　ＳＨＯＰ",
      "name_kana": "",
      "business_type": "アイスクリーム類製造業",
      "address": "岐阜県揖斐郡池田町池野４７０",
      "lat": 35.437845,
      "lng": 136.577256,
      "geocoding_level": 3,
      "phone": "",
      "license_no": "55000341",
      "license_date": "2023-08-24",
      "expire_date": "2028-11-30"
    },
    {
      "name": "ＴＨＥ　ＭＩＬＫ　ＳＨＯＰ",
      "name_kana": "",
      "business_type": "菓子製造業",
      "address": "岐阜県揖斐郡池田町池野４７０",
      "lat": 35.437845,
      "lng": 136.577256,
      "geocoding_level": 3,
      "phone": "",
      "license_no": "55000342",
      "license_date": "2023-08-24",
      "expire_date": "2028-11-30"
    },
    {
      "name": "池田温泉　食事処　たち川　はなれ",
      "name_kana": "",
      "business_type": "飲食店営業",
      "address": "岐阜県揖斐郡池田町片山３０２１－１",
      "lat": 35.423674,
      "lng": 136.546202,
      "geocoding_level": 3,
      "phone": "0585355559",
      "license_no": "55000343",
      "license_date": "2023-08-24",
      "expire_date": "2028-11-30"
    },
    {
      "name": "寿司処　まえ川",
      "name_kana": "",
      "business_type": "飲食店営業",
      "address": "岐阜県揖斐郡池田町片山１１７３－３",
      "lat": 35.423674,
      "lng": 136.546202,
      "geocoding_level": 3,
      "phone": "0585-45-0554",
      "license_no": "55000350",
      "license_date": "2023-11-08",
      "expire_date": "2028-11-30"
    },
    {
      "name": "寿し八",
      "name_kana": "",
      "business_type": "飲食店営業",
      "address": "岐阜県揖斐郡池田町八幡１５６８",
      "lat": 35.426258,
      "lng": 136.577926,
      "geocoding_level": 3,
      "phone": "0585-45-5978",
      "license_no": "55000353",
      "license_date": "2023-11-17",
      "expire_date": "2028-11-30"
    },
    {
      "name": "サンローヤル",
      "name_kana": "",
      "business_type": "飲食店営業",
      "address": "岐阜県揖斐郡池田町本郷１３６８－４",
      "lat": 35.450397,
      "lng": 136.565023,
      "geocoding_level": 3,
      "phone": "0585-45-2876",
      "license_no": "55000354",
      "license_date": "2023-11-30",
      "expire_date": "2028-11-30"
    },
    {
      "name": "サンローヤル",
      "name_kana": "",
      "business_type": "菓子製造業",
      "address": "岐阜県揖斐郡池田町本郷１３６８－４",
      "lat": 35.450397,
      "lng": 136.565023,
      "geocoding_level": 3,
      "phone": "0585-45-2876",
      "license_no": "55000355",
      "license_date": "2023-11-30",
      "expire_date": "2028-11-30"
    },
    {
      "name": "湯華庵",
      "name_kana": "",
      "business_type": "飲食店営業",
      "address": "岐阜県揖斐郡池田町段７２１",
      "lat": 35.461607,
      "lng": 136.539796,
      "geocoding_level": 3,
      "phone": "0585-45-3804",
      "license_no": "55000356",
      "license_date": "2023-11-08",
      "expire_date": "2028-11-30"
    },
    {
      "name": "株式会社棚橋牧場",
      "name_kana": "",
      "business_type": "乳処理業",
      "address": "岐阜県揖斐郡池田町池野４７０",
      "lat": 35.437845,
      "lng": 136.577256,
      "geocoding_level": 3,
      "phone": "0585-45-2155",
      "license_no": "55000358",
      "license_date": "2023-11-30",
      "expire_date": "2028-11-30"
    },
    {
      "name": "回転すし　一休さん",
      "name_kana": "",
      "business_type": "飲食店営業",
      "address": "岐阜県揖斐郡池田町六之井１５５０－３",
      "lat": 35.437465,
      "lng": 136.58421300000003,
      "geocoding_level": 3,
      "phone": "0585-45-1930",
      "license_no": "55000359",
      "license_date": "2023-11-17",
      "expire_date": "2028-11-30"
    },
    {
      "name": "ダイニングカフェバード",
      "name_kana": "",
      "business_type": "飲食店営業",
      "address": "岐阜県揖斐郡池田町六之井１３９１－１",
      "lat": 35.437465,
      "lng": 136.58421300000003,
      "geocoding_level": 3,
      "phone": "0585-45-7601",
      "license_no": "55000361",
      "license_date": "2023-11-08",
      "expire_date": "2028-11-30"
    },
    {
      "name": "ローソン揖斐池田店",
      "name_kana": "",
      "business_type": "飲食店営業",
      "address": "岐阜県揖斐郡池田町八幡９７２－１",
      "lat": 35.426258,
      "lng": 136.577926,
      "geocoding_level": 3,
      "phone": "0585-44-1066",
      "license_no": "55000366",
      "license_date": "2023-11-08",
      "expire_date": "2028-11-30"
    },
    {
      "name": "岩富精肉店",
      "name_kana": "",
      "business_type": "食肉販売業",
      "address": "岐阜県揖斐郡池田町八幡２４９８",
      "lat": 35.426258,
      "lng": 136.577926,
      "geocoding_level": 3,
      "phone": "0585-45-3135",
      "license_no": "55000368",
      "license_date": "2023-11-30",
      "expire_date": "2028-11-30"
    },
    {
      "name": "韓国料理　タイキ",
      "name_kana": "",
      "business_type": "飲食店営業",
      "address": "岐阜県揖斐郡池田町粕ケ原６４５－１",
      "lat": 35.462988,
      "lng": 136.566054,
      "geocoding_level": 3,
      "phone": "0585-45-6420",
      "license_no": "55000369",
      "license_date": "2023-11-08",
      "expire_date": "2028-11-30"
    },
    {
      "name": "よってみーな池田",
      "name_kana": "",
      "business_type": "飲食店営業",
      "address": "岐阜県揖斐郡池田町上田１２９０",
      "lat": 35.453722,
      "lng": 136.58307,
      "geocoding_level": 3,
      "phone": "0585-45-0437",
      "license_no": "55000378",
      "license_date": "2023-11-30",
      "expire_date": "2028-11-30"
    },
    {
      "name": "よってみーな池田",
      "name_kana": "",
      "business_type": "そうざい製造業",
      "address": "岐阜県揖斐郡池田町上田１２９０",
      "lat": 35.453722,
      "lng": 136.58307,
      "geocoding_level": 3,
      "phone": "0585-45-0437",
      "license_no": "55000379",
      "license_date": "2023-11-30",
      "expire_date": "2028-11-30"
    },
    {
      "name": "医療法人社団橘会　新生病院",
      "name_kana": "",
      "business_type": "飲食店営業",
      "address": "岐阜県揖斐郡池田町本郷１５５１－１",
      "lat": 35.450397,
      "lng": 136.565023,
      "geocoding_level": 3,
      "phone": "0585453161",
      "license_no": "55000416",
      "license_date": "2024-02-28",
      "expire_date": "2029-11-30"
    },
    {
      "name": "Ｂｌｕｅｓ　Ｃａｆｅ’",
      "name_kana": "",
      "business_type": "飲食店営業",
      "address": "岐阜県揖斐郡池田町小寺５８３－１",
      "lat": 35.439061,
      "lng": 136.541425,
      "geocoding_level": 3,
      "phone": "0585451950",
      "license_no": "55000430",
      "license_date": "2024-03-28",
      "expire_date": "2029-11-30"
    },
    {
      "name": "ふる里いび",
      "name_kana": "",
      "business_type": "漬物製造業",
      "address": "岐阜県揖斐郡池田町小寺３６８－１",
      "lat": 35.439061,
      "lng": 136.541425,
      "geocoding_level": 3,
      "phone": "",
      "license_no": "55000434",
      "license_date": "2024-04-16",
      "expire_date": "2029-11-30"
    },
    {
      "name": "Ｂｌｕｅｓ　Ｃａｆｅ’",
      "name_kana": "",
      "business_type": "そうざい製造業",
      "address": "岐阜県揖斐郡池田町小寺５８３－１",
      "lat": 35.439061,
      "lng": 136.541425,
      "geocoding_level": 3,
      "phone": "0585451950",
      "license_no": "55000435",
      "license_date": "2024-03-28",
      "expire_date": "2029-11-30"
    },
    {
      "name": "Ｂｌｕｅｓ　Ｃａｆｅ’",
      "name_kana": "",
      "business_type": "菓子製造業",
      "address": "岐阜県揖斐郡池田町小寺５８３－１",
      "lat": 35.439061,
      "lng": 136.541425,
      "geocoding_level": 3,
      "phone": "0585451950",
      "license_no": "55000438",
      "license_date": "2024-04-17",
      "expire_date": "2029-11-30"
    },
    {
      "name": "野網漬物製造所",
      "name_kana": "",
      "business_type": "漬物製造業",
      "address": "岐阜県揖斐郡池田町片山２５３１－３",
      "lat": 35.423674,
      "lng": 136.546202,
      "geocoding_level": 3,
      "phone": "0585-45-3467",
      "license_no": "55000461",
      "license_date": "2024-05-31",
      "expire_date": "2029-11-30"
    },
    {
      "name": "カラオケ　縁",
      "name_kana": "",
      "business_type": "飲食店営業",
      "address": "岐阜県揖斐郡池田町八幡字中道１６８９－１２",
      "lat": 35.426258,
      "lng": 136.577926,
      "geocoding_level": 3,
      "phone": "0585-35-7166",
      "license_no": "55000490",
      "license_date": "2024-11-13",
      "expire_date": "2029-11-30"
    },
    {
      "name": "かず",
      "name_kana": "",
      "business_type": "飲食店営業",
      "address": "岐阜県揖斐郡池田町本郷出口６２１－１",
      "lat": 35.450397,
      "lng": 136.565023,
      "geocoding_level": 3,
      "phone": "0585-45-8272",
      "license_no": "55000491",
      "license_date": "2024-11-13",
      "expire_date": "2029-11-30"
    },
    {
      "name": "トミダヤ池田店",
      "name_kana": "",
      "business_type": "飲食店営業",
      "address": "岐阜県揖斐郡池田町池野４１１－２",
      "lat": 35.437845,
      "lng": 136.577256,
      "geocoding_level": 3,
      "phone": "0585-45-7878",
      "license_no": "55000492",
      "license_date": "2024-11-26",
      "expire_date": "2029-11-30"
    },
    {
      "name": "トミダヤ池田店",
      "name_kana": "",
      "business_type": "食肉処理業",
      "address": "岐阜県揖斐郡池田町池野４１１－２",
      "lat": 35.437845,
      "lng": 136.577256,
      "geocoding_level": 3,
      "phone": "0585-45-7878",
      "license_no": "55000493",
      "license_date": "2024-11-26",
      "expire_date": "2029-11-30"
    },
    {
      "name": "セブン－イレブン　池田町萩原店",
      "name_kana": "",
      "business_type": "飲食店営業",
      "address": "岐阜県揖斐郡池田町萩原５４－６",
      "lat": 35.451771,
      "lng": 136.575112,
      "geocoding_level": 3,
      "phone": "0585-45-4090",
      "license_no": "55000494",
      "license_date": "2024-11-06",
      "expire_date": "2029-11-30"
    },
    {
      "name": "たる萬　池田店",
      "name_kana": "",
      "business_type": "飲食店営業",
      "address": "岐阜県揖斐郡池田町八幡鳥居前２５２５－１",
      "lat": 35.426258,
      "lng": 136.577926,
      "geocoding_level": 3,
      "phone": "0585-45-9260",
      "license_no": "55000496",
      "license_date": "2024-11-28",
      "expire_date": "2029-11-30"
    },
    {
      "name": "ＣＯＦＦＥＥ　ＨＯＵＳＥ　ムクの木",
      "name_kana": "",
      "business_type": "飲食店営業",
      "address": "岐阜県揖斐郡池田町片山中島８６２－１",
      "lat": 35.423674,
      "lng": 136.546202,
      "geocoding_level": 3,
      "phone": "0585-45-6625",
      "license_no": "55000498",
      "license_date": "2024-11-13",
      "expire_date": "2029-11-30"
    },
    {
      "name": "池田温泉パン　たち川",
      "name_kana": "",
      "business_type": "菓子製造業",
      "address": "岐阜県揖斐郡池田町片山１９５３－１",
      "lat": 35.419493283,
      "lng": 136.559657161,
      "geocoding_level": 8,
      "phone": "0585-35-7711",
      "license_no": "55000499",
      "license_date": "2024-11-28",
      "expire_date": "2029-11-30"
    },
    {
      "name": "池田温泉　郷土料理　たち川",
      "name_kana": "",
      "business_type": "飲食店営業",
      "address": "岐阜県揖斐郡池田町片山１９７０－１",
      "lat": 35.419616949,
      "lng": 136.558509271,
      "geocoding_level": 8,
      "phone": "0585357711",
      "license_no": "55000502",
      "license_date": "2024-11-28",
      "expire_date": "2029-11-30"
    },
    {
      "name": "池田温泉　郷土料理　たち川",
      "name_kana": "",
      "business_type": "飲食店営業",
      "address": "岐阜県揖斐郡池田町片山１９７０－１",
      "lat": 35.419616949,
      "lng": 136.558509271,
      "geocoding_level": 8,
      "phone": "0585357711",
      "license_no": "55000503",
      "license_date": "2024-11-28",
      "expire_date": "2029-11-30"
    },
    {
      "name": "有限会社　ニュー池田",
      "name_kana": "",
      "business_type": "飲食店営業",
      "address": "岐阜県揖斐郡池田町池野２０１",
      "lat": 35.437845,
      "lng": 136.577256,
      "geocoding_level": 3,
      "phone": "0585-45-2377",
      "license_no": "55000507",
      "license_date": "2024-11-19",
      "expire_date": "2029-11-30"
    },
    {
      "name": "肉桂餅本舗　いげたや",
      "name_kana": "",
      "business_type": "菓子製造業",
      "address": "岐阜県揖斐郡池田町池野４９６",
      "lat": 35.437845,
      "lng": 136.577256,
      "geocoding_level": 3,
      "phone": "0585-45-2013",
      "license_no": "55000508",
      "license_date": "2024-11-07",
      "expire_date": "2029-11-30"
    },
    {
      "name": "ちとせ",
      "name_kana": "",
      "business_type": "飲食店営業",
      "address": "岐阜県揖斐郡池田町池野天神町４９２－１",
      "lat": 35.437845,
      "lng": 136.577256,
      "geocoding_level": 3,
      "phone": "0585-45-2137",
      "license_no": "55000509",
      "license_date": "2024-11-26",
      "expire_date": "2029-11-30"
    },
    {
      "name": "梅善",
      "name_kana": "",
      "business_type": "飲食店営業",
      "address": "岐阜県揖斐郡池田町六之井１６１５",
      "lat": 35.437465,
      "lng": 136.58421300000003,
      "geocoding_level": 3,
      "phone": "0585-45-2003",
      "license_no": "55000510",
      "license_date": "2024-11-26",
      "expire_date": "2029-11-30"
    },
    {
      "name": "株式会社バロー池田店",
      "name_kana": "",
      "business_type": "菓子製造業",
      "address": "岐阜県揖斐郡池田町本郷９１７－１",
      "lat": 35.448561921,
      "lng": 136.564020832,
      "geocoding_level": 8,
      "phone": "0585451166",
      "license_no": "55000511",
      "license_date": "2024-11-06",
      "expire_date": "2029-11-30"
    },
    {
      "name": "美里",
      "name_kana": "",
      "business_type": "飲食店営業",
      "address": "岐阜県揖斐郡池田町段６４２－３",
      "lat": 35.461744261,
      "lng": 136.543754664,
      "geocoding_level": 8,
      "phone": "0585-45-8400",
      "license_no": "55000512",
      "license_date": "2024-11-13",
      "expire_date": "2029-11-30"
    },
    {
      "name": "心牧園ココペリ池田店",
      "name_kana": "",
      "business_type": "飲食店営業",
      "address": "岐阜県揖斐郡池田町段６４４－３",
      "lat": 35.461607,
      "lng": 136.539796,
      "geocoding_level": 3,
      "phone": "0585-45-5585",
      "license_no": "55000513",
      "license_date": "2024-11-26",
      "expire_date": "2029-11-30"
    },
    {
      "name": "土川商店",
      "name_kana": "",
      "business_type": "飲食店営業",
      "address": "岐阜県揖斐郡池田町宮地９３０",
      "lat": 35.455901145,
      "lng": 136.553871305,
      "geocoding_level": 8,
      "phone": "0585452120",
      "license_no": "55000514",
      "license_date": "2024-11-11",
      "expire_date": "2029-11-30"
    },
    {
      "name": "株式会社谷田商店",
      "name_kana": "",
      "business_type": "菓子製造業",
      "address": "岐阜県揖斐郡池田町段字貝籠２３２",
      "lat": 35.461607,
      "lng": 136.539796,
      "geocoding_level": 3,
      "phone": "0585-45-1211",
      "license_no": "55000515",
      "license_date": "2024-11-11",
      "expire_date": "2029-11-30"
    },
    {
      "name": "たる萬　池田店",
      "name_kana": "",
      "business_type": "食肉販売業",
      "address": "岐阜県揖斐郡池田町八幡２５２５－１",
      "lat": 35.426258,
      "lng": 136.577926,
      "geocoding_level": 3,
      "phone": "0585459260",
      "license_no": "55000520",
      "license_date": "2024-11-26",
      "expire_date": "2029-11-30"
    },
    {
      "name": "喫茶　和",
      "name_kana": "",
      "business_type": "飲食店営業",
      "address": "岐阜県揖斐郡池田町六之井６９７",
      "lat": 35.437465,
      "lng": 136.58421300000003,
      "geocoding_level": 3,
      "phone": "0585-45-9103",
      "license_no": "55000521",
      "license_date": "2024-11-28",
      "expire_date": "2029-11-30"
    },
    {
      "name": "土川商店",
      "name_kana": "",
      "business_type": "食肉販売業",
      "address": "岐阜県揖斐郡池田町宮地南９３０",
      "lat": 35.457261,
      "lng": 136.555131,
      "geocoding_level": 3,
      "phone": "0585-45-2120",
      "license_no": "55004415",
      "license_date": "2020-11-04",
      "expire_date": "2025-11-30"
    },
    {
      "name": "大塚酒造株式会社",
      "name_kana": "",
      "business_type": "酒類製造業",
      "address": "岐阜県揖斐郡池田町池野本町４２２",
      "lat": 35.437845,
      "lng": 136.577256,
      "geocoding_level": 3,
      "phone": "0585-45-2057",
      "license_no": "55014274",
      "license_date": "2020-11-17",
      "expire_date": "2025-11-30"
    },
    {
      "name": "寿し処新栄",
      "name_kana": "",
      "business_type": "飲食店営業",
      "address": "岐阜県揖斐郡池田町池野天神町５０５",
      "lat": 35.437845,
      "lng": 136.577256,
      "geocoding_level": 3,
      "phone": "0585-45-6001",
      "license_no": "55023663",
      "license_date": "2020-11-04",
      "expire_date": "2025-11-30"
    },
    {
      "name": "土川商店",
      "name_kana": "",
      "business_type": "魚介類販売業",
      "address": "岐阜県揖斐郡池田町宮地南９３０",
      "lat": 35.457261,
      "lng": 136.555131,
      "geocoding_level": 3,
      "phone": "0585-45-2120",
      "license_no": "55026857",
      "license_date": "2020-11-04",
      "expire_date": "2025-11-30"
    },
    {
      "name": "茶山正　河村正男商店",
      "name_kana": "",
      "business_type": "缶詰又は瓶詰食品製造業",
      "address": "岐阜県揖斐郡池田町山洞１２４",
      "lat": 35.437682,
      "lng": 136.559367,
      "geocoding_level": 3,
      "phone": "0585-45-2388",
      "license_no": "55032890",
      "license_date": "2020-11-04",
      "expire_date": "2025-11-30"
    },
    {
      "name": "山三製茶　お茶のカワムラ",
      "name_kana": "",
      "business_type": "缶詰又は瓶詰食品製造業",
      "address": "岐阜県揖斐郡池田町山洞５１７－１",
      "lat": 35.437682,
      "lng": 136.559367,
      "geocoding_level": 3,
      "phone": "0585-45-3300",
      "license_no": "55036470",
      "license_date": "2019-10-31",
      "expire_date": "2024-11-30"
    },
    {
      "name": "サクラ",
      "name_kana": "",
      "business_type": "飲食店営業",
      "address": "岐阜県揖斐郡池田町六之井１４５５－１",
      "lat": 35.437465,
      "lng": 136.58421300000003,
      "geocoding_level": 3,
      "phone": "0585-45-7721",
      "license_no": "55040607",
      "license_date": "2020-11-04",
      "expire_date": "2025-11-30"
    },
    {
      "name": "浪花亭",
      "name_kana": "",
      "business_type": "飲食店営業",
      "address": "岐阜県揖斐郡池田町池野４９６",
      "lat": 35.437845,
      "lng": 136.577256,
      "geocoding_level": 3,
      "phone": "0585-45-2005",
      "license_no": "55040615",
      "license_date": "2020-11-04",
      "expire_date": "2025-11-30"
    },
    {
      "name": "株式会社　いび製茶",
      "name_kana": "",
      "business_type": "缶詰又は瓶詰食品製造業",
      "address": "岐阜県揖斐郡池田町段５１１",
      "lat": 35.461607,
      "lng": 136.539796,
      "geocoding_level": 3,
      "phone": "0585-45-3208",
      "license_no": "55044198",
      "license_date": "2019-11-06",
      "expire_date": "2024-11-30"
    },
    {
      "name": "空",
      "name_kana": "",
      "business_type": "飲食店営業",
      "address": "岐阜県揖斐郡池田町萩原８６２",
      "lat": 35.451188297,
      "lng": 136.577323876,
      "geocoding_level": 8,
      "phone": "0585-45-8200",
      "license_no": "55046849",
      "license_date": "2020-11-17",
      "expire_date": "2025-11-30"
    },
    {
      "name": "スナック　美英",
      "name_kana": "",
      "business_type": "飲食店営業",
      "address": "岐阜県揖斐郡池田町池野５８０－１",
      "lat": 36.091385199,
      "lng": 137.276434785,
      "geocoding_level": 8,
      "phone": "0585-45-7048",
      "license_no": "55047065",
      "license_date": "2020-11-30",
      "expire_date": "2025-11-30"
    },
    {
      "name": "上田屋",
      "name_kana": "",
      "business_type": "飲食店営業",
      "address": "岐阜県揖斐郡池田町池野４６９－２－２",
      "lat": 35.437845,
      "lng": 136.577256,
      "geocoding_level": 3,
      "phone": "0585-45-2018",
      "license_no": "55047780",
      "license_date": "2020-11-04",
      "expire_date": "2025-11-30"
    },
    {
      "name": "味の素冷凍食品株式会社　中部工場",
      "name_kana": "",
      "business_type": "食品の冷凍又は冷蔵業",
      "address": "岐阜県揖斐郡池田町粕ケ原字日吉１７６６－１",
      "lat": 35.462988,
      "lng": 136.566054,
      "geocoding_level": 3,
      "phone": "0585-45-6511",
      "license_no": "55059672",
      "license_date": "2020-11-04",
      "expire_date": "2025-11-30"
    },
    {
      "name": "味の素冷凍食品株式会社　中部工場",
      "name_kana": "",
      "business_type": "そうざい製造業",
      "address": "岐阜県揖斐郡池田町粕ケ原字日吉１７６６－１",
      "lat": 35.462988,
      "lng": 136.566054,
      "geocoding_level": 3,
      "phone": "0585-45-6511",
      "license_no": "55059680",
      "license_date": "2020-11-04",
      "expire_date": "2025-11-30"
    },
    {
      "name": "カフェ　ブロックハウス",
      "name_kana": "",
      "business_type": "飲食店営業",
      "address": "岐阜県揖斐郡池田町六之井１４２０－２",
      "lat": 35.437465,
      "lng": 136.58421300000003,
      "geocoding_level": 3,
      "phone": "0585-45-2911",
      "license_no": "55060940",
      "license_date": "2020-11-30",
      "expire_date": "2025-11-30"
    },
    {
      "name": "ＢＡＲ　ＢＡＬＩ－ＨＩＧＨ",
      "name_kana": "",
      "business_type": "飲食店営業",
      "address": "岐阜県揖斐郡池田町八幡９４８",
      "lat": 35.426258,
      "lng": 136.577926,
      "geocoding_level": 3,
      "phone": "0585-45-0830",
      "license_no": "55075636",
      "license_date": "2020-11-04",
      "expire_date": "2025-11-30"
    },
    {
      "name": "株式会社鈴龍",
      "name_kana": "",
      "business_type": "飲食店営業",
      "address": "岐阜県揖斐郡池田町池野５５８－３",
      "lat": 35.437845,
      "lng": 136.577256,
      "geocoding_level": 3,
      "phone": "0585-45-2139",
      "license_no": "55076462",
      "license_date": "2020-11-04",
      "expire_date": "2025-11-30"
    },
    {
      "name": "小料理　えりこ",
      "name_kana": "",
      "business_type": "飲食店営業",
      "address": "岐阜県揖斐郡池田町青柳６２－９",
      "lat": 35.438732,
      "lng": 136.569528,
      "geocoding_level": 3,
      "phone": "090-2689-4501",
      "license_no": "55080186",
      "license_date": "2020-11-04",
      "expire_date": "2025-11-30"
    },
    {
      "name": "にぎりの徳兵衛池田店",
      "name_kana": "",
      "business_type": "飲食店営業",
      "address": "岐阜県揖斐郡池田町八幡２３４９－１",
      "lat": 35.426258,
      "lng": 136.577926,
      "geocoding_level": 3,
      "phone": "0585-45-0567",
      "license_no": "55080306",
      "license_date": "2020-11-04",
      "expire_date": "2025-11-30"
    },
    {
      "name": "珈琲屋　木兎",
      "name_kana": "",
      "business_type": "飲食店営業",
      "address": "岐阜県揖斐郡池田町下東野４－１",
      "lat": 35.44530522,
      "lng": 136.577504619,
      "geocoding_level": 8,
      "phone": "0585-45-7406",
      "license_no": "55080364",
      "license_date": "2020-11-04",
      "expire_date": "2025-11-30"
    },
    {
      "name": "優友",
      "name_kana": "",
      "business_type": "飲食店営業",
      "address": "岐阜県揖斐郡池田町八幡中津２６８０－５",
      "lat": 35.426258,
      "lng": 136.577926,
      "geocoding_level": 3,
      "phone": "0585-45-6928",
      "license_no": "55080500",
      "license_date": "2020-11-04",
      "expire_date": "2025-11-30"
    },
    {
      "name": "しゃ楽",
      "name_kana": "",
      "business_type": "飲食店営業",
      "address": "岐阜県揖斐郡池田町六之井１７６１－１",
      "lat": 35.437465,
      "lng": 136.58421300000003,
      "geocoding_level": 3,
      "phone": "0585-45-8856",
      "license_no": "55084473",
      "license_date": "2020-11-04",
      "expire_date": "2025-11-30"
    },
    {
      "name": "味の素冷凍食品中部工場　食堂",
      "name_kana": "",
      "business_type": "飲食店営業",
      "address": "岐阜県揖斐郡池田町粕ケ原字日吉１７６６－１",
      "lat": 35.462988,
      "lng": 136.566054,
      "geocoding_level": 3,
      "phone": "",
      "license_no": "55084669",
      "license_date": "2020-11-04",
      "expire_date": "2025-11-30"
    },
    {
      "name": "伊吹堂",
      "name_kana": "",
      "business_type": "菓子製造業",
      "address": "岐阜県揖斐郡池田町八幡２５１１－５",
      "lat": 35.426258,
      "lng": 136.577926,
      "geocoding_level": 3,
      "phone": "0585-45-0890",
      "license_no": "55084677",
      "license_date": "2020-11-04",
      "expire_date": "2025-11-30"
    },
    {
      "name": "Ｓｏｎｒｉｓａ　－Ａｔｅｌｉｅｒ　ｄｅ　ｐａｓｔｅｌ－",
      "name_kana": "",
      "business_type": "飲食店営業",
      "address": "岐阜県揖斐郡池田町八幡１４６９－１",
      "lat": 35.426258,
      "lng": 136.577926,
      "geocoding_level": 3,
      "phone": "0585-45-2396",
      "license_no": "55087800",
      "license_date": "2020-11-04",
      "expire_date": "2025-11-30"
    },
    {
      "name": "Ｓｏｎｒｉｓａ　－Ａｔｅｌｉｅｒ　ｄｅ　ｐａｓｔｅｌ－",
      "name_kana": "",
      "business_type": "菓子製造業",
      "address": "岐阜県揖斐郡池田町八幡１４６９－１",
      "lat": 35.426258,
      "lng": 136.577926,
      "geocoding_level": 3,
      "phone": "0585-45-2396",
      "license_no": "55087801",
      "license_date": "2020-11-04",
      "expire_date": "2025-11-30"
    },
    {
      "name": "食事処　かず",
      "name_kana": "",
      "business_type": "飲食店営業",
      "address": "岐阜県揖斐郡池田町八幡２５０５－４",
      "lat": 35.426258,
      "lng": 136.577926,
      "geocoding_level": 3,
      "phone": "0585-45-6888",
      "license_no": "55087802",
      "license_date": "2020-11-04",
      "expire_date": "2025-11-30"
    },
    {
      "name": "ＣＯＯＫＩＥ　ＨＯＵＳＥ　ｙｕｍｙｕｍ",
      "name_kana": "",
      "business_type": "菓子製造業",
      "address": "岐阜県揖斐郡池田町六之井１８８３－８",
      "lat": 35.437465,
      "lng": 136.58421300000003,
      "geocoding_level": 3,
      "phone": "0585-45-2363",
      "license_no": "55087811",
      "license_date": "2020-11-04",
      "expire_date": "2025-11-30"
    },
    {
      "name": "宇宙食堂",
      "name_kana": "",
      "business_type": "飲食店営業",
      "address": "岐阜県揖斐郡池田町八幡２５７９－３　清水ビル１Ｆ",
      "lat": 35.426258,
      "lng": 136.577926,
      "geocoding_level": 3,
      "phone": "090-8861-3188",
      "license_no": "55087819",
      "license_date": "2020-11-04",
      "expire_date": "2025-11-30"
    },
    {
      "name": "ファミリーマート　池田下八幡店",
      "name_kana": "",
      "business_type": "飲食店営業",
      "address": "岐阜県揖斐郡池田町八幡１００２－１",
      "lat": 35.426258,
      "lng": 136.577926,
      "geocoding_level": 3,
      "phone": "0585-44-0801",
      "license_no": "55087824",
      "license_date": "2020-11-04",
      "expire_date": "2025-11-30"
    },
    {
      "name": "ファミリーマート　池田下八幡店",
      "name_kana": "",
      "business_type": "菓子製造業",
      "address": "岐阜県揖斐郡池田町八幡１００２－１",
      "lat": 35.426258,
      "lng": 136.577926,
      "geocoding_level": 3,
      "phone": "0585-44-0801",
      "license_no": "55087828",
      "license_date": "2020-11-04",
      "expire_date": "2025-11-30"
    },
    {
      "name": "カフェ古時計",
      "name_kana": "",
      "business_type": "飲食店営業",
      "address": "岐阜県揖斐郡池田町沓井４３９番地１",
      "lat": 35.468263618,
      "lng": 136.558053306,
      "geocoding_level": 8,
      "phone": "0585-35-7575",
      "license_no": "55088183",
      "license_date": "2019-12-02",
      "expire_date": "2025-11-30"
    },
    {
      "name": "株式会社キィポーション揖斐工場",
      "name_kana": "",
      "business_type": "菓子製造業",
      "address": "岐阜県揖斐郡池田町萩原字中畑６６５－２",
      "lat": 35.451771,
      "lng": 136.575112,
      "geocoding_level": 3,
      "phone": "0585-45-6858",
      "license_no": "55088185",
      "license_date": "2020-01-09",
      "expire_date": "2025-11-30"
    },
    {
      "name": "ミニストップ池田町八幡店",
      "name_kana": "",
      "business_type": "飲食店営業",
      "address": "岐阜県揖斐郡池田町八幡字土佐街道１３２２－１",
      "lat": 35.426258,
      "lng": 136.577926,
      "geocoding_level": 3,
      "phone": "0585-45-0886",
      "license_no": "55088186",
      "license_date": "2020-01-16",
      "expire_date": "2025-11-30"
    },
    {
      "name": "ミニストップ池田町八幡店",
      "name_kana": "",
      "business_type": "菓子製造業",
      "address": "岐阜県揖斐郡池田町八幡字土佐街道１３２２－１",
      "lat": 35.426258,
      "lng": 136.577926,
      "geocoding_level": 3,
      "phone": "0585-45-0886",
      "license_no": "55088187",
      "license_date": "2020-01-16",
      "expire_date": "2025-11-30"
    },
    {
      "name": "ミニストップ池田町八幡店",
      "name_kana": "",
      "business_type": "アイスクリーム類製造業",
      "address": "岐阜県揖斐郡池田町八幡字土佐街道１３２２－１",
      "lat": 35.426258,
      "lng": 136.577926,
      "geocoding_level": 3,
      "phone": "0585-45-0886",
      "license_no": "55088191",
      "license_date": "2020-01-16",
      "expire_date": "2025-11-30"
    },
    {
      "name": "１０１０マルシェ",
      "name_kana": "",
      "business_type": "飲食店営業",
      "address": "岐阜県揖斐郡池田町片山１９５３－１",
      "lat": 35.419493283,
      "lng": 136.559657161,
      "geocoding_level": 8,
      "phone": "0585-35-5213",
      "license_no": "55088202",
      "license_date": "2020-02-05",
      "expire_date": "2025-11-30"
    },
    {
      "name": "有限会社サポートいび　農産物加工所",
      "name_kana": "",
      "business_type": "菓子製造業",
      "address": "岐阜県揖斐郡池田町上田１３１８",
      "lat": 35.448373988,
      "lng": 136.588781907,
      "geocoding_level": 8,
      "phone": "0585-45-7025",
      "license_no": "55088204",
      "license_date": "2020-02-20",
      "expire_date": "2025-11-30"
    },
    {
      "name": "有限会社サポートいび　農産物加工所",
      "name_kana": "",
      "business_type": "そうざい製造業",
      "address": "岐阜県揖斐郡池田町上田１３１８",
      "lat": 35.448373988,
      "lng": 136.588781907,
      "geocoding_level": 8,
      "phone": "0585-45-7025",
      "license_no": "55088205",
      "license_date": "2020-02-20",
      "expire_date": "2025-11-30"
    },
    {
      "name": "有限会社サポートいび　農産物加工所",
      "name_kana": "",
      "business_type": "缶詰又は瓶詰食品製造業",
      "address": "岐阜県揖斐郡池田町上田１３１８",
      "lat": 35.448373988,
      "lng": 136.588781907,
      "geocoding_level": 8,
      "phone": "0585-45-7025",
      "license_no": "55088206",
      "license_date": "2020-02-20",
      "expire_date": "2025-11-30"
    },
    {
      "name": "台湾料理　興福順",
      "name_kana": "",
      "business_type": "飲食店営業",
      "address": "岐阜県揖斐郡池田町本郷１３９２－１",
      "lat": 35.450397,
      "lng": 136.565023,
      "geocoding_level": 3,
      "phone": "0585-45-7666",
      "license_no": "55088211",
      "license_date": "2020-03-04",
      "expire_date": "2025-11-30"
    },
    {
      "name": "オリーブ",
      "name_kana": "",
      "business_type": "菓子製造業",
      "address": "岐阜県揖斐郡池田町片山９６２－２",
      "lat": 35.423674,
      "lng": 136.546202,
      "geocoding_level": 3,
      "phone": "0585-45-7522",
      "license_no": "55088219",
      "license_date": "2020-04-08",
      "expire_date": "2025-11-30"
    },
    {
      "name": "ミニストップ池田町八幡店",
      "name_kana": "",
      "business_type": "飲食店営業",
      "address": "岐阜県揖斐郡池田町八幡１３２２－１",
      "lat": 35.426258,
      "lng": 136.577926,
      "geocoding_level": 3,
      "phone": "0586-45-0886",
      "license_no": "55088249",
      "license_date": "2020-09-25",
      "expire_date": "2025-11-30"
    },
    {
      "name": "ミニストップ池田町八幡店",
      "name_kana": "",
      "business_type": "菓子製造業",
      "address": "岐阜県揖斐郡池田町八幡１３２２－１",
      "lat": 35.426258,
      "lng": 136.577926,
      "geocoding_level": 3,
      "phone": "0586-45-0886",
      "license_no": "55088250",
      "license_date": "2020-09-25",
      "expire_date": "2025-11-30"
    },
    {
      "name": "ミニストップ池田町八幡店",
      "name_kana": "",
      "business_type": "アイスクリーム類製造業",
      "address": "岐阜県揖斐郡池田町八幡１３２２－１",
      "lat": 35.426258,
      "lng": 136.577926,
      "geocoding_level": 3,
      "phone": "0586-45-0886",
      "license_no": "55088254",
      "license_date": "2020-09-25",
      "expire_date": "2025-11-30"
    },
    {
      "name": "岐阜ジビエ工房",
      "name_kana": "",
      "business_type": "食肉処理業",
      "address": "岐阜県揖斐郡池田町本郷５４９－７",
      "lat": 35.450397,
      "lng": 136.565023,
      "geocoding_level": 3,
      "phone": "0585-45-3728",
      "license_no": "55088260",
      "license_date": "2020-11-19",
      "expire_date": "2025-11-30"
    },
    {
      "name": "Ｃａｆｅ　Ｒ４１７",
      "name_kana": "",
      "business_type": "飲食店営業",
      "address": "岐阜県揖斐郡池田町六之井１６０４－３",
      "lat": 35.437465,
      "lng": 136.58421300000003,
      "geocoding_level": 3,
      "phone": "0585-45-7980",
      "license_no": "55088268",
      "license_date": "2020-11-25",
      "expire_date": "2025-11-30"
    },
    {
      "name": "ほっともっと池田町店",
      "name_kana": "",
      "business_type": "飲食店営業",
      "address": "岐阜県揖斐郡池田町池野２０９－１",
      "lat": 35.437845,
      "lng": 136.577256,
      "geocoding_level": 3,
      "phone": "0585-44-0520",
      "license_no": "55088276",
      "license_date": "2021-01-21",
      "expire_date": "2026-11-30"
    },
    {
      "name": "焼肉もりもり　池田店",
      "name_kana": "",
      "business_type": "飲食店営業",
      "address": "岐阜県揖斐郡池田町八幡２３５０番地１",
      "lat": 35.426258,
      "lng": 136.577926,
      "geocoding_level": 3,
      "phone": "0585-44-3230",
      "license_no": "55088277",
      "license_date": "2021-01-21",
      "expire_date": "2026-11-30"
    },
    {
      "name": "日吉の森",
      "name_kana": "",
      "business_type": "菓子製造業",
      "address": "岐阜県揖斐郡池田町八幡１９７２－１",
      "lat": 35.426258,
      "lng": 136.577926,
      "geocoding_level": 3,
      "phone": "0585-35-9100",
      "license_no": "55088278",
      "license_date": "2021-01-25",
      "expire_date": "2026-11-30"
    },
    {
      "name": "株式会社 原商会　製造事業部",
      "name_kana": "",
      "business_type": "菓子製造業",
      "address": "岐阜県揖斐郡池田町六之井４１６",
      "lat": 35.437465,
      "lng": 136.58421300000003,
      "geocoding_level": 3,
      "phone": "0585-77-5099",
      "license_no": "55088286",
      "license_date": "2021-03-08",
      "expire_date": "2026-11-30"
    },
    {
      "name": "ケアハウスこころ",
      "name_kana": "",
      "business_type": "飲食店営業",
      "address": "岐阜県揖斐郡池田町草深９１８－１",
      "lat": 35.444231,
      "lng": 136.561289,
      "geocoding_level": 3,
      "phone": "0585-22-0185",
      "license_no": "55088295",
      "license_date": "2021-04-07",
      "expire_date": "2026-11-30"
    },
    {
      "name": "Ｖ・drug　池田店",
      "name_kana": "ブイ・ドラッグ　イケダテン",
      "business_type": "⑬ その他の食料・飲料販売業",
      "address": "岐阜県揖斐郡池田町本郷890番",
      "lat": 35.447376,
      "lng": 136.564716,
      "geocoding_level": null,
      "phone": "0585-44-0115",
      "license_no": "",
      "license_date": null,
      "expire_date": null
    },
    {
      "name": "清流の里みやじ",
      "name_kana": "セイリュウノサトミヤジ",
      "business_type": "① 飲食店営業",
      "address": "岐阜県揖斐郡池田町宮地大門南885-1",
      "lat": 35.37461,
      "lng": 136.609008,
      "geocoding_level": null,
      "phone": "",
      "license_no": "55000240",
      "license_date": "2022-11-28",
      "expire_date": "2027-11-30"
    },
    {
      "name": "フィットイージー池田",
      "name_kana": "フィットイージーイケダ",
      "business_type": "⑤ コップ式自動販売機（自動洗浄・屋内設置）",
      "address": "岐阜県揖斐郡池田町池野２２８−１",
      "lat": 35.436911,
      "lng": 136.576488,
      "geocoding_level": null,
      "phone": "0585-35-5560",
      "license_no": "",
      "license_date": null,
      "expire_date": null
    },
    {
      "name": "ダイソー　イオンタウン岐阜池田店",
      "name_kana": "ダイソー　イオンタウンギフイケダテン",
      "business_type": "⑬ その他の食料・飲料販売業",
      "address": "岐阜県揖斐郡池田町八幡字東光田１９７２－１",
      "lat": 35.422953,
      "lng": 136.578612,
      "geocoding_level": null,
      "phone": "",
      "license_no": "",
      "license_date": null,
      "expire_date": null
    },
    {
      "name": "バロー池田店",
      "name_kana": "バローイケダテン",
      "business_type": "⑪ 百貨店、総合スーパー",
      "address": "岐阜県揖斐郡池田町本郷917-1",
      "lat": 35.448724,
      "lng": 136.563914,
      "geocoding_level": null,
      "phone": "0585451166",
      "license_no": "",
      "license_date": null,
      "expire_date": null
    },
    {
      "name": "サシヒロ㈱",
      "name_kana": "サシヒロカブシキガイシャ",
      "business_type": "⑤ コップ式自動販売機（自動洗浄・屋内設置）",
      "address": "岐阜県揖斐郡池田町田畑612",
      "lat": 35.4303,
      "lng": 136.562923,
      "geocoding_level": null,
      "phone": "",
      "license_no": "",
      "license_date": null,
      "expire_date": null
    },
    {
      "name": "ｳｲﾝｸﾞ池田店　ﾎｰﾙ西",
      "name_kana": "ウイングイケダテン　ホールニシ",
      "business_type": "⑤ コップ式自動販売機（自動洗浄・屋内設置）",
      "address": "岐阜県揖斐郡池田町本郷621-1",
      "lat": 35.447964,
      "lng": 136.571272,
      "geocoding_level": null,
      "phone": "",
      "license_no": "",
      "license_date": null,
      "expire_date": null
    },
    {
      "name": "ｳｲﾝｸﾞ池田店　休憩ｺｰﾅｰ",
      "name_kana": "ウイングイケダテン　キュウケイコーナー",
      "business_type": "⑤ コップ式自動販売機（自動洗浄・屋内設置）",
      "address": "岐阜県揖斐郡池田町本郷621-1",
      "lat": 35.447964,
      "lng": 136.571272,
      "geocoding_level": null,
      "phone": "",
      "license_no": "",
      "license_date": null,
      "expire_date": null
    },
    {
      "name": "ｳｲﾝｸﾞ池田南店",
      "name_kana": "ウイングイケダミナミテン",
      "business_type": "⑤ コップ式自動販売機（自動洗浄・屋内設置）",
      "address": "岐阜県揖斐郡池田町八幡2504",
      "lat": 35.428948,
      "lng": 136.582414,
      "geocoding_level": null,
      "phone": "",
      "license_no": "",
      "license_date": null,
      "expire_date": null
    },
    {
      "name": "ＪＡいび川 セレモニーホール池田",
      "name_kana": "イビガワセレモニーホールイケダ",
      "business_type": "⑤ コップ式自動販売機（自動洗浄・屋内設置）",
      "address": "岐阜県揖斐郡池田町山洞２３−１",
      "lat": 35.436992,
      "lng": 136.563337,
      "geocoding_level": null,
      "phone": "",
      "license_no": "",
      "license_date": null,
      "expire_date": null
    },
    {
      "name": "アピ株式会社　池田工場",
      "name_kana": "アピカブシキカイシャイケダコウジョウ",
      "business_type": "⑤ コップ式自動販売機（自動洗浄・屋内設置）",
      "address": "岐阜県揖斐郡池田町小牛７４３－１",
      "lat": 35.450771,
      "lng": 136.554333,
      "geocoding_level": null,
      "phone": "",
      "license_no": "",
      "license_date": null,
      "expire_date": null
    },
    {
      "name": "（株）ウノウ電子",
      "name_kana": "カブシキカイシャウノウデンシ",
      "business_type": "⑤ コップ式自動販売機（自動洗浄・屋内設置）",
      "address": "岐阜県揖斐郡池田町上田４７２－１",
      "lat": 35.453453,
      "lng": 136.581684,
      "geocoding_level": null,
      "phone": "",
      "license_no": "",
      "license_date": null,
      "expire_date": null
    },
    {
      "name": "コダマ樹脂工業（株）池田工場",
      "name_kana": "コダマジュシコウギョウカブシキカイシャイケダコウジョウ",
      "business_type": "⑤ コップ式自動販売機（自動洗浄・屋内設置）",
      "address": "岐阜県揖斐郡池田町段字貝篭２１６－１",
      "lat": 35.462464,
      "lng": 136.541539,
      "geocoding_level": null,
      "phone": "",
      "license_no": "",
      "license_date": null,
      "expire_date": null
    },
    {
      "name": "西美濃さくら苑",
      "name_kana": "ニシミノサクラエン",
      "business_type": "⑤ コップ式自動販売機（自動洗浄・屋内設置）",
      "address": "岐阜県揖斐郡池田町田中５－１",
      "lat": 35.461125,
      "lng": 136.55964,
      "geocoding_level": null,
      "phone": "",
      "license_no": "",
      "license_date": null,
      "expire_date": null
    },
    {
      "name": "アピ株式会社　池田工場アピ２Ｆ",
      "name_kana": "アピカブシキカイシャイケダコウジョウ",
      "business_type": "⑤ コップ式自動販売機（自動洗浄・屋内設置）",
      "address": "岐阜県揖斐郡池田町小牛７４３－１",
      "lat": 35.450771,
      "lng": 136.554333,
      "geocoding_level": null,
      "phone": "",
      "license_no": "",
      "license_date": null,
      "expire_date": null
    },
    {
      "name": "ゲンキー池田店",
      "name_kana": "ゲンキーイケダテン",
      "business_type": "⑬ その他の食料・飲料販売業",
      "address": "岐阜県揖斐郡池田町本郷字出口581-1",
      "lat": 35.450368,
      "lng": 136.566829,
      "geocoding_level": null,
      "phone": "0585-44-1530",
      "license_no": "",
      "license_date": null,
      "expire_date": null
    },
    {
      "name": "ザ・ビッグエクストラ岐阜池田店",
      "name_kana": "ザ・ビッグエクストラギフイケダテン",
      "business_type": "① 飲食店営業",
      "address": "岐阜県揖斐郡池田町八幡字東光田1972-1",
      "lat": 35.427908,
      "lng": 136.576467,
      "geocoding_level": null,
      "phone": "",
      "license_no": "55000222",
      "license_date": "2022-11-08",
      "expire_date": "2027-11-30"
    },
    {
      "name": "ザ・ビッグエクストラ岐阜池田店",
      "name_kana": "ザ・ビッグエクストラギフイケダテン",
      "business_type": "⑪ 百貨店、総合スーパー",
      "address": "岐阜県揖斐郡池田町八幡字東光田1972-1",
      "lat": 35.427908,
      "lng": 136.576467,
      "geocoding_level": null,
      "phone": "",
      "license_no": "",
      "license_date": null,
      "expire_date": null
    },
    {
      "name": "ザ・ビッグエクストラ岐阜池田店",
      "name_kana": "ザ・ビッグエクストラギフイケダテン",
      "business_type": "① 飲食店営業",
      "address": "岐阜県揖斐郡池田町八幡字東光田1972-1",
      "lat": 35.427908,
      "lng": 136.576467,
      "geocoding_level": null,
      "phone": "0585-45-2021",
      "license_no": "55000223",
      "license_date": "2022-11-08",
      "expire_date": "2027-11-30"
    },
    {
      "name": "ザ・ビッグエクストラ岐阜池田店",
      "name_kana": "ザ・ビッグエクストラギフイケダテン",
      "business_type": "③ 食肉販売業",
      "address": "岐阜県揖斐郡池田町八幡字東光田1972-1",
      "lat": 35.427908,
      "lng": 136.576467,
      "geocoding_level": null,
      "phone": "0585-45-2021",
      "license_no": "55000225",
      "license_date": "2022-11-08",
      "expire_date": "2027-11-30"
    },
    {
      "name": "ザ・ビッグエクストラ岐阜池田店",
      "name_kana": "ザ・ビッグエクストラギフイケダテン",
      "business_type": "④ 魚介類販売業",
      "address": "岐阜県揖斐郡池田町八幡字東光田1972-1",
      "lat": 35.427908,
      "lng": 136.576467,
      "geocoding_level": null,
      "phone": "",
      "license_no": "55000224",
      "license_date": "2022-11-08",
      "expire_date": "2027-11-30"
    },
    {
      "name": "ザ・ビッグエクストラ岐阜池田店",
      "name_kana": "ザ・ビッグエクストラギフイケダテン",
      "business_type": "⑪ 菓子製造業",
      "address": "岐阜県揖斐郡池田町八幡字東光田1972-1",
      "lat": 35.427908,
      "lng": 136.576467,
      "geocoding_level": null,
      "phone": "",
      "license_no": "55000062",
      "license_date": "2021-10-06",
      "expire_date": "2026-11-30"
    },
    {
      "name": "クスリのアオキ池田店",
      "name_kana": "クスリノアオキイケダテン",
      "business_type": "⑪ 百貨店、総合スーパー",
      "address": "岐阜県揖斐郡池田町本郷1381番地4",
      "lat": 35.446177,
      "lng": 136.570199,
      "geocoding_level": null,
      "phone": "0585-35-5810",
      "license_no": "",
      "license_date": null,
      "expire_date": null
    },
    {
      "name": "株式会社キィポーション　八幡工場",
      "name_kana": "カブシキカイシャキィポーション　ヤワタコウジョウ",
      "business_type": "⑪ 菓子製造業",
      "address": "岐阜県揖斐郡池田町八幡268-1",
      "lat": 35.427455,
      "lng": 136.573833,
      "geocoding_level": null,
      "phone": "0585-35-8711",
      "license_no": "55000632",
      "license_date": "2025-09-24",
      "expire_date": "2030-11-30"
    },
    {
      "name": "株式会社キィポーション　八幡工場",
      "name_kana": "カブシキカイシャキィポーション　ヤワタコウジョウ",
      "business_type": "㉚ 密封包装食品製造業",
      "address": "岐阜県揖斐郡池田町八幡268-1",
      "lat": 35.427455,
      "lng": 136.573833,
      "geocoding_level": null,
      "phone": "0585-35-8711",
      "license_no": "55000181",
      "license_date": "2022-07-27",
      "expire_date": "2027-09-30"
    },
    {
      "name": "株式会社キィポーション　八幡工場",
      "name_kana": "カブシキカイシャキィポーション　ヤワタコウジョウ",
      "business_type": "㉛ 食品の小分け業",
      "address": "岐阜県揖斐郡池田町八幡268-1",
      "lat": 35.427455,
      "lng": 136.573833,
      "geocoding_level": null,
      "phone": "0585-35-8711",
      "license_no": "55000016",
      "license_date": "2021-07-28",
      "expire_date": "2026-11-30"
    },
    {
      "name": "株式会社キィポーション　本社第三工場",
      "name_kana": "カブシキカイシャキイポーション　ホンシャダイサンコウジョウ",
      "business_type": "㉛ 食品の小分け業",
      "address": "岐阜県揖斐郡池田町揖斐郡池田町八幡2803番地の1",
      "lat": 35.427908,
      "lng": 136.576467,
      "geocoding_level": null,
      "phone": "0585455552",
      "license_no": "55000180",
      "license_date": "2022-07-27",
      "expire_date": "2027-09-30"
    },
    {
      "name": "株式会社キィポーション　本社第三工場",
      "name_kana": "カブシキカイシャキイポーション　ホンシャダイサンコウジョウ",
      "business_type": "㉔ その他の食料品製造・加工業",
      "address": "岐阜県揖斐郡池田町揖斐郡池田町八幡2803番地の1",
      "lat": 35.427908,
      "lng": 136.576467,
      "geocoding_level": null,
      "phone": "0585455552",
      "license_no": "",
      "license_date": null,
      "expire_date": null
    },
    {
      "name": "株式会社キィポーション 本社第一工場",
      "name_kana": "カブシキカイシャキイポーション　ホンシャダイイチコウジョウ",
      "business_type": "⑪ 菓子製造業",
      "address": "岐阜県揖斐郡池田町八幡621-7",
      "lat": 35.424027,
      "lng": 136.571023,
      "geocoding_level": null,
      "phone": "0585455552",
      "license_no": "55000220",
      "license_date": "2022-11-07",
      "expire_date": "2027-11-30"
    },
    {
      "name": "株式会社キィポーション 本社第一工場",
      "name_kana": "カブシキカイシャキイポーション　ホンシャダイイチコウジョウ",
      "business_type": "㉚ 密封包装食品製造業",
      "address": "岐阜県揖斐郡池田町八幡621-7",
      "lat": 35.424027,
      "lng": 136.571023,
      "geocoding_level": null,
      "phone": "0585455552",
      "license_no": "55000221",
      "license_date": "2022-11-07",
      "expire_date": "2027-11-30"
    },
    {
      "name": "株式会社キィポーション　本社第一工場",
      "name_kana": "カブシキカイシャキイポーション　ホンシャダイイチコウジョウ",
      "business_type": "⑯ コーヒー製造・加工業（飲料の製造を除く。）",
      "address": "岐阜県揖斐郡池田町八幡621-7",
      "lat": 35.424027,
      "lng": 136.571023,
      "geocoding_level": null,
      "phone": "0585455552",
      "license_no": "",
      "license_date": null,
      "expire_date": null
    },
    {
      "name": "株式会社キィポーション　本社第一工場",
      "name_kana": "カブシキカイシャキイポーション　ホンシャダイイチコウジョウ",
      "business_type": "㉒ 海藻製造・加工業",
      "address": "岐阜県揖斐郡池田町八幡621-7",
      "lat": 35.424027,
      "lng": 136.571023,
      "geocoding_level": null,
      "phone": "0585455552",
      "license_no": "",
      "license_date": null,
      "expire_date": null
    },
    {
      "name": "株式会社キィポーション　本社第一工場",
      "name_kana": "カブシキカイシャキイポーション　ホンシャダイイチコウジョウ",
      "business_type": "㉔ その他の食料品製造・加工業",
      "address": "岐阜県揖斐郡池田町八幡621-7",
      "lat": 35.424027,
      "lng": 136.571023,
      "geocoding_level": null,
      "phone": "0585455552",
      "license_no": "",
      "license_date": null,
      "expire_date": null
    },
    {
      "name": "株式会社キィポーション　本社第ニ工場",
      "name_kana": "キィポーションホンシャダイニコウジョウ",
      "business_type": "⑪ 菓子製造業",
      "address": "岐阜県揖斐郡池田町八幡622-4",
      "lat": 35.427908,
      "lng": 136.576467,
      "geocoding_level": null,
      "phone": "0585441900",
      "license_no": "55000072",
      "license_date": "2021-11-25",
      "expire_date": "2026-11-30"
    },
    {
      "name": "株式会社キィポーション　本社第ニ工場",
      "name_kana": "キィポーションホンシャダイニコウジョウ",
      "business_type": "㉚ 密封包装食品製造業",
      "address": "岐阜県揖斐郡池田町八幡622-4",
      "lat": 35.427908,
      "lng": 136.576467,
      "geocoding_level": null,
      "phone": "0585441900",
      "license_no": "55000219",
      "license_date": "2022-11-07",
      "expire_date": "2027-11-30"
    },
    {
      "name": "株式会社キィポーション　本社東工場",
      "name_kana": "カブシキカイシャキィポーション　ホンシャヒガシコウジョウ",
      "business_type": "⑪ 菓子製造業",
      "address": "岐阜県揖斐郡池田町八幡1041番地",
      "lat": 35.426204,
      "lng": 136.576923,
      "geocoding_level": null,
      "phone": "0585-35-8711",
      "license_no": "55000718",
      "license_date": "2026-03-19",
      "expire_date": "2031-11-30"
    },
    {
      "name": "株式会社キィポーション　本社東工場",
      "name_kana": "カブシキカイシャキィポーション　ホンシャヒガシコウジョウ",
      "business_type": "㉚ 密封包装食品製造業",
      "address": "岐阜県揖斐郡池田町八幡1041番地",
      "lat": 35.426204,
      "lng": 136.576923,
      "geocoding_level": null,
      "phone": "0585-35-8711",
      "license_no": "55000719",
      "license_date": "2026-03-19",
      "expire_date": "2031-11-30"
    },
    {
      "name": "鳥八ステーション",
      "name_kana": "トリハチステーション",
      "business_type": "① 飲食店営業",
      "address": "岐阜県揖斐郡池田町青柳39-2",
      "lat": 35.442108,
      "lng": 136.568505,
      "geocoding_level": null,
      "phone": "",
      "license_no": "55000021",
      "license_date": "2021-08-04",
      "expire_date": "2026-11-30"
    },
    {
      "name": "五十川養蜂園",
      "name_kana": "イカガワヨウホウエン",
      "business_type": "㉔ その他の食料品製造・加工業",
      "address": "岐阜県揖斐郡池田町六之井652-1",
      "lat": 35.438717,
      "lng": 136.584301,
      "geocoding_level": null,
      "phone": "0585452257",
      "license_no": "",
      "license_date": null,
      "expire_date": null
    },
    {
      "name": "サン池田店",
      "name_kana": "サンイケダテン",
      "business_type": "⑫ 自動販売機による販売業（コップ式自動販売機（自動洗浄・屋内設置）及び営業許可の対象となる自動販売機を除く）",
      "address": "岐阜県揖斐郡池田町本郷441-7",
      "lat": 35.451249,
      "lng": 136.564009,
      "geocoding_level": null,
      "phone": "0585441555",
      "license_no": "",
      "license_date": null,
      "expire_date": null
    },
    {
      "name": "リハビリセンター白鳥",
      "name_kana": "リハビリセンターシロトリ",
      "business_type": "① 飲食店営業",
      "address": "岐阜県揖斐郡池田町白鳥386",
      "lat": 35.444767,
      "lng": 136.590963,
      "geocoding_level": null,
      "phone": "0585453133",
      "license_no": "55000229",
      "license_date": "2022-11-15",
      "expire_date": "2027-11-30"
    },
    {
      "name": "リハビリセンター白鳥",
      "name_kana": "リハビリセンターシロトリ",
      "business_type": "⑪ 菓子製造業",
      "address": "岐阜県揖斐郡池田町白鳥386",
      "lat": 35.444767,
      "lng": 136.590963,
      "geocoding_level": null,
      "phone": "0585453133",
      "license_no": "55000229",
      "license_date": "2022-11-15",
      "expire_date": "2027-11-30"
    },
    {
      "name": "リハビリセンター白鳥",
      "name_kana": "リハビリセンターシロトリ",
      "business_type": "㉖ 集団給食施設",
      "address": "岐阜県揖斐郡池田町白鳥386番地",
      "lat": 35.444767,
      "lng": 136.590963,
      "geocoding_level": null,
      "phone": "",
      "license_no": "",
      "license_date": null,
      "expire_date": null
    },
    {
      "name": "サンビレッジ新生苑",
      "name_kana": "サンビレッジシンセイエン",
      "business_type": "① 飲食店営業",
      "address": "岐阜県揖斐郡池田町本郷1501",
      "lat": 35.443829,
      "lng": 136.575978,
      "geocoding_level": null,
      "phone": "0585455545",
      "license_no": "55000081",
      "license_date": "2021-11-25",
      "expire_date": "2026-11-30"
    },
    {
      "name": "サンビレッジ新生苑",
      "name_kana": "サンビレッジシンセイエン",
      "business_type": "㉖ 集団給食施設",
      "address": "岐阜県揖斐郡池田町本郷1501",
      "lat": 35.443829,
      "lng": 136.575978,
      "geocoding_level": null,
      "phone": "0585455545",
      "license_no": "",
      "license_date": null,
      "expire_date": null
    },
    {
      "name": "池田温泉　新館",
      "name_kana": "イケダオンセン　シンカン",
      "business_type": "⑬ その他の食料・飲料販売業",
      "address": "岐阜県揖斐郡池田町片山1970-1",
      "lat": 35.419645,
      "lng": 136.558701,
      "geocoding_level": null,
      "phone": "0585450261",
      "license_no": "",
      "license_date": null,
      "expire_date": null
    },
    {
      "name": "池田温泉　本館",
      "name_kana": "イケダオンセン　ホンカン",
      "business_type": "⑬ その他の食料・飲料販売業",
      "address": "岐阜県揖斐郡池田町片山3021-1",
      "lat": 35.419354,
      "lng": 136.557629,
      "geocoding_level": null,
      "phone": "0585451126",
      "license_no": "",
      "license_date": null,
      "expire_date": null
    },
    {
      "name": "市橋保育園",
      "name_kana": "イチハシホイクエン",
      "business_type": "㉖ 集団給食施設",
      "address": "岐阜県揖斐郡池田町市橋1588-1",
      "lat": 35.412103,
      "lng": 136.574409,
      "geocoding_level": null,
      "phone": "0584-71-3002",
      "license_no": "",
      "license_date": null,
      "expire_date": null
    },
    {
      "name": "片山保育園",
      "name_kana": "カタヤマホイクエン",
      "business_type": "㉖ 集団給食施設",
      "address": "岐阜県揖斐郡池田町片山２９３６番地１",
      "lat": 35.422185,
      "lng": 136.568775,
      "geocoding_level": null,
      "phone": "0585-45-6133",
      "license_no": "",
      "license_date": null,
      "expire_date": null
    },
    {
      "name": "茶山正　河村正男商店",
      "name_kana": "チャヤマショウ　カワムラマサオショウテン",
      "business_type": "㉑ 製茶業",
      "address": "岐阜県揖斐郡池田町山洞123",
      "lat": 35.438212,
      "lng": 136.559094,
      "geocoding_level": null,
      "phone": "0585452388",
      "license_no": "",
      "license_date": null,
      "expire_date": null
    },
    {
      "name": "ヤマセ　清芳園",
      "name_kana": "ヤマセセイホウエン",
      "business_type": "㉑ 製茶業",
      "address": "岐阜県揖斐郡池田町山洞472-3",
      "lat": 35.437553,
      "lng": 136.556685,
      "geocoding_level": null,
      "phone": "0585452540",
      "license_no": "",
      "license_date": null,
      "expire_date": null
    },
    {
      "name": "池田茶屋　とり沢",
      "name_kana": "イケダチャヤトリサワ",
      "business_type": "① 飲食店営業",
      "address": "岐阜県揖斐郡池田町片山1953-1",
      "lat": 35.419406,
      "lng": 136.559758,
      "geocoding_level": null,
      "phone": "09073087947",
      "license_no": "55000065",
      "license_date": "2021-11-25",
      "expire_date": "2026-11-30"
    },
    {
      "name": "池田茶屋　とり沢",
      "name_kana": "イケダチャヤトリサワ",
      "business_type": "② 食肉販売業（包装済みの食肉のみの販売）",
      "address": "岐阜県揖斐郡池田町片山1953-1",
      "lat": 35.419406,
      "lng": 136.559758,
      "geocoding_level": null,
      "phone": "09073087947",
      "license_no": "",
      "license_date": null,
      "expire_date": null
    },
    {
      "name": "雲水",
      "name_kana": "ウンスイ",
      "business_type": "① 飲食店営業",
      "address": "岐阜県揖斐郡池田町市橋1634-1",
      "lat": 35.410088,
      "lng": 136.576185,
      "geocoding_level": null,
      "phone": "0584711317",
      "license_no": "55000066",
      "license_date": "2021-11-25",
      "expire_date": "2026-11-30"
    },
    {
      "name": "やすらぎ珈琲店池田店",
      "name_kana": "ヤスラギコーヒーイケダテン",
      "business_type": "① 飲食店営業",
      "address": "岐阜県揖斐郡池田町八幡字宮下851-7",
      "lat": 35.422447,
      "lng": 136.577069,
      "geocoding_level": null,
      "phone": "0585450104",
      "license_no": "55000067",
      "license_date": "2021-11-25",
      "expire_date": "2026-11-30"
    },
    {
      "name": "DANRAN　だんらん",
      "name_kana": "ダンラン",
      "business_type": "① 飲食店営業",
      "address": "岐阜県揖斐郡池田町池野横町185-4",
      "lat": 35.437477,
      "lng": 136.576227,
      "geocoding_level": null,
      "phone": "0585456688",
      "license_no": "55000068",
      "license_date": "2021-11-25",
      "expire_date": "2026-11-30"
    },
    {
      "name": "恵美飯店",
      "name_kana": "エミハンテン",
      "business_type": "① 飲食店営業",
      "address": "岐阜県揖斐郡池田町池野深池下504-1",
      "lat": 35.437121,
      "lng": 136.575865,
      "geocoding_level": null,
      "phone": "0585452163",
      "license_no": "55000069",
      "license_date": "2021-11-25",
      "expire_date": "2026-11-30"
    },
    {
      "name": "おおくぼさんちのおやつ",
      "name_kana": "オオクボサンチノオヤツ",
      "business_type": "⑪ 菓子製造業",
      "address": "岐阜県揖斐郡池田町池野7-5",
      "lat": 35.442597,
      "lng": 136.575495,
      "geocoding_level": null,
      "phone": "08036450082",
      "license_no": "55000071",
      "license_date": "2021-11-25",
      "expire_date": "2026-11-30"
    },
    {
      "name": "有限会社川瀬食品パック",
      "name_kana": "ユウゲンカイシャカワセショクヒンパック",
      "business_type": "㉒ 海藻製造・加工業",
      "address": "岐阜県揖斐郡池田町片山1603",
      "lat": 35.419422,
      "lng": 136.571912,
      "geocoding_level": null,
      "phone": "0585458508",
      "license_no": "",
      "license_date": null,
      "expire_date": null
    },
    {
      "name": "合同会社三藤",
      "name_kana": "ミフジ",
      "business_type": "⑪ 菓子製造業",
      "address": "岐阜県揖斐郡池田町下東野553-12",
      "lat": 35.44232,
      "lng": 136.584883,
      "geocoding_level": null,
      "phone": "09014145799",
      "license_no": "55000087",
      "license_date": "2021-11-25",
      "expire_date": "2026-11-30"
    },
    {
      "name": "お茶の瑞草園",
      "name_kana": "オチャノズイソウエン",
      "business_type": "① 飲食店営業",
      "address": "岐阜県揖斐郡池田町片山1953-1",
      "lat": 35.419406,
      "lng": 136.559758,
      "geocoding_level": null,
      "phone": "0585458030",
      "license_no": "55000073",
      "license_date": "2021-11-25",
      "expire_date": "2026-11-30"
    },
    {
      "name": "中国家庭料理京味",
      "name_kana": "チュウゴクカテイリョウリキンミ",
      "business_type": "① 飲食店営業",
      "address": "岐阜県揖斐郡池田町上田275-1",
      "lat": 35.452649,
      "lng": 136.586973,
      "geocoding_level": null,
      "phone": "0585529849",
      "license_no": "55000074",
      "license_date": "2021-11-25",
      "expire_date": "2026-11-30"
    },
    {
      "name": "洋風懐石料理　桜坂",
      "name_kana": "ヨウフウカイセキリョウリサクラザカ",
      "business_type": "① 飲食店営業",
      "address": "岐阜県揖斐郡池田町藤代鍋沖669-1",
      "lat": 35.431397,
      "lng": 136.553347,
      "geocoding_level": null,
      "phone": "0585453444",
      "license_no": "55000075",
      "license_date": "2021-11-25",
      "expire_date": "2026-11-30"
    },
    {
      "name": "道の駅池田温泉　ひまわり",
      "name_kana": "ミチノエキイケダオンセンヒマワリ",
      "business_type": "① 飲食店営業",
      "address": "岐阜県揖斐郡池田町片山1953-1",
      "lat": 35.419406,
      "lng": 136.559758,
      "geocoding_level": null,
      "phone": "09065718059",
      "license_no": "55000076",
      "license_date": "2021-11-25",
      "expire_date": "2026-11-30"
    },
    {
      "name": "白鳥ファーム　池田温泉店",
      "name_kana": "シロトリファームイケダオンセンテン",
      "business_type": "① 飲食店営業",
      "address": "岐阜県揖斐郡池田町片山1953-1",
      "lat": 35.419406,
      "lng": 136.559758,
      "geocoding_level": null,
      "phone": "",
      "license_no": "55000077",
      "license_date": "2021-11-25",
      "expire_date": "2026-11-30"
    },
    {
      "name": "瑞草園",
      "name_kana": "ズイソウエン",
      "business_type": "㉚ 密封包装食品製造業",
      "address": "岐阜県揖斐郡池田町六之井659",
      "lat": 35.438857,
      "lng": 136.583452,
      "geocoding_level": null,
      "phone": "0585452068",
      "license_no": "55000078",
      "license_date": "2021-11-25",
      "expire_date": "2026-11-30"
    },
    {
      "name": "オリーブ",
      "name_kana": "オリーブ",
      "business_type": "① 飲食店営業",
      "address": "岐阜県揖斐郡池田町片山９６２－２",
      "lat": 35.420161,
      "lng": 136.576628,
      "geocoding_level": null,
      "phone": "0585457522",
      "license_no": "55000079",
      "license_date": "2021-11-25",
      "expire_date": "2026-11-30"
    },
    {
      "name": "焼肉しょうちゃん",
      "name_kana": "ヤキニクショウチャン",
      "business_type": "① 飲食店営業",
      "address": "岐阜県揖斐郡池田町六之井1377",
      "lat": 35.432829,
      "lng": 136.575836,
      "geocoding_level": null,
      "phone": "0585452596",
      "license_no": "55000080",
      "license_date": "2021-11-25",
      "expire_date": "2026-11-30"
    },
    {
      "name": "日進医療食品株式会社　西美濃さくら苑",
      "name_kana": "ニッシンイリョウショクヒンニシミノサクラエン",
      "business_type": "① 飲食店営業",
      "address": "岐阜県揖斐郡池田町田中5-1",
      "lat": 35.461365,
      "lng": 136.559866,
      "geocoding_level": null,
      "phone": "0585450268",
      "license_no": "55000085",
      "license_date": "2021-11-25",
      "expire_date": "2026-11-30"
    },
    {
      "name": "ローソン池田本郷店",
      "name_kana": "ローソンイケダホンゴウテン",
      "business_type": "① 飲食店営業",
      "address": "岐阜県揖斐郡池田町本郷字柳樋641",
      "lat": 35.448694,
      "lng": 136.568588,
      "geocoding_level": null,
      "phone": "0585440121",
      "license_no": "55000088",
      "license_date": "2021-11-25",
      "expire_date": "2026-11-30"
    },
    {
      "name": "有限会社池田養鱒場",
      "name_kana": "イケダヨウソンジョウ",
      "business_type": "④ 魚介類販売業",
      "address": "岐阜県揖斐郡池田町八幡1065-1",
      "lat": 35.426881,
      "lng": 136.576938,
      "geocoding_level": null,
      "phone": "0585452579",
      "license_no": "55000089",
      "license_date": "2021-11-25",
      "expire_date": "2026-11-30"
    },
    {
      "name": "ごっちゃん農園",
      "name_kana": "ゴッチャンノウエン",
      "business_type": "㉑ 製茶業",
      "address": "岐阜県揖斐郡池田町藤代431-37",
      "lat": 35.426693,
      "lng": 136.559047,
      "geocoding_level": null,
      "phone": "0585450112",
      "license_no": "",
      "license_date": null,
      "expire_date": null
    },
    {
      "name": "ナマステ",
      "name_kana": "ナマステ",
      "business_type": "① 飲食店営業",
      "address": "岐阜県揖斐郡池田町八幡2663-1",
      "lat": 35.430821,
      "lng": 136.58349,
      "geocoding_level": null,
      "phone": "09088613188",
      "license_no": "55000090",
      "license_date": "2021-11-25",
      "expire_date": "2027-02-28"
    },
    {
      "name": "山川眞八商店",
      "name_kana": "ヤマカワシンハチショウテン",
      "business_type": "⑧ 米穀類販売業",
      "address": "岐阜県揖斐郡池田町池野557-2",
      "lat": 35.438484,
      "lng": 136.572872,
      "geocoding_level": null,
      "phone": "0585453008",
      "license_no": "",
      "license_date": null,
      "expire_date": null
    },
    {
      "name": "ラベンダーファーム　あまおか",
      "name_kana": "ラベンダーファームアマオカ",
      "business_type": "㉑ 製茶業",
      "address": "岐阜県揖斐郡池田町藤代1002-5",
      "lat": 35.434012,
      "lng": 136.553524,
      "geocoding_level": null,
      "phone": "0585459816",
      "license_no": "",
      "license_date": null,
      "expire_date": null
    },
    {
      "name": "和みや",
      "name_kana": "ナゴミヤ",
      "business_type": "① 飲食店営業",
      "address": "岐阜県揖斐郡池田町市橋880-1",
      "lat": 35.411173,
      "lng": 136.578067,
      "geocoding_level": null,
      "phone": "",
      "license_no": "55000095",
      "license_date": "2022-01-17",
      "expire_date": "2027-02-28"
    },
    {
      "name": "野原米穀",
      "name_kana": "ノハラベイコク",
      "business_type": "⑧ 米穀類販売業",
      "address": "岐阜県揖斐郡池田町池野493-2",
      "lat": 35.436688,
      "lng": 136.572909,
      "geocoding_level": null,
      "phone": "0585452035",
      "license_no": "",
      "license_date": null,
      "expire_date": null
    },
    {
      "name": "新生病院",
      "name_kana": "シンセイビョウイン",
      "business_type": "① 飲食店営業",
      "address": "岐阜県揖斐郡池田町本郷1551-1",
      "lat": 35.443271,
      "lng": 136.575978,
      "geocoding_level": null,
      "phone": "0585453161",
      "license_no": "55000096",
      "license_date": "2022-02-01",
      "expire_date": "2027-11-30"
    },
    {
      "name": "池田温泉パン たち川",
      "name_kana": "イケダオンセンパン タチカワ",
      "business_type": "⑨ 通信販売・訪問販売による販売業",
      "address": "岐阜県揖斐郡池田町片山1953-1",
      "lat": 35.419693,
      "lng": 136.559772,
      "geocoding_level": null,
      "phone": "0585355555",
      "license_no": "",
      "license_date": null,
      "expire_date": null
    },
    {
      "name": "池まる餃子",
      "name_kana": "イケマルギョウザ",
      "business_type": "㉕ そうざい製造業",
      "address": "岐阜県揖斐郡池田町片山1953-1 道の駅池田温泉",
      "lat": 35.419693,
      "lng": 136.559772,
      "geocoding_level": null,
      "phone": "09042660141",
      "license_no": "55000117",
      "license_date": "2022-02-21",
      "expire_date": "2027-11-30"
    },
    {
      "name": "大津谷公園　キャンプ場　管理棟",
      "name_kana": "オオツダニコウエン　キャンプジョウ　カンリトウ",
      "business_type": "① 飲食店営業",
      "address": "岐阜県揖斐郡池田町宮地1102-2",
      "lat": 35.453116,
      "lng": 136.533112,
      "geocoding_level": null,
      "phone": "08045222048",
      "license_no": "55000118",
      "license_date": "2022-03-03",
      "expire_date": "2027-11-30"
    },
    {
      "name": "大津谷公園　キャンプ場　管理棟",
      "name_kana": "オオツダニコウエン　キャンプジョウ　カンリトウ",
      "business_type": "⑬ その他の食料・飲料販売業",
      "address": "岐阜県揖斐郡池田町宮地1102-2",
      "lat": 35.453116,
      "lng": 136.533112,
      "geocoding_level": null,
      "phone": "08045222048",
      "license_no": "",
      "license_date": null,
      "expire_date": null
    },
    {
      "name": "大津谷公園キャンプ場",
      "name_kana": "オオツダニコウエンキャンプジョウ",
      "business_type": "① 飲食店営業",
      "address": "岐阜県揖斐郡池田町宮地1102-2",
      "lat": 35.453116,
      "lng": 136.533112,
      "geocoding_level": null,
      "phone": "08045222048",
      "license_no": "55000179",
      "license_date": "2022-07-11",
      "expire_date": "2028-02-29"
    },
    {
      "name": "大津谷公園キャンプ場",
      "name_kana": "オオツダニコウエンキャンプジョウ",
      "business_type": "⑬ その他の食料・飲料販売業",
      "address": "岐阜県揖斐郡池田町宮地1102-2",
      "lat": 35.453116,
      "lng": 136.533112,
      "geocoding_level": null,
      "phone": "08045222048",
      "license_no": "",
      "license_date": null,
      "expire_date": null
    },
    {
      "name": "株式会社キィポーション揖斐工場",
      "name_kana": "カブシキガイシャキィポーションイビコウジョウ",
      "business_type": "⑪ 菓子製造業",
      "address": "岐阜県揖斐郡池田町萩原字中畑665-2",
      "lat": 35.453024,
      "lng": 136.575262,
      "geocoding_level": null,
      "phone": "0585456858",
      "license_no": "55000668",
      "license_date": "2025-11-14",
      "expire_date": "2030-11-30"
    },
    {
      "name": "株式会社キィポーション揖斐工場",
      "name_kana": "カブシキガイシャキィポーションイビコウジョウ",
      "business_type": "㉚ 密封包装食品製造業",
      "address": "岐阜県揖斐郡池田町萩原字中畑665-2",
      "lat": 35.453024,
      "lng": 136.575262,
      "geocoding_level": null,
      "phone": "0585456858",
      "license_no": "55000131",
      "license_date": "2022-03-29",
      "expire_date": "2027-11-30"
    },
    {
      "name": "焼肉しょみん池田店",
      "name_kana": "ヤキニクショミンイケダテン",
      "business_type": "① 飲食店営業",
      "address": "岐阜県揖斐郡池田町八幡2498",
      "lat": 35.428924,
      "lng": 136.58381,
      "geocoding_level": null,
      "phone": "0585529035",
      "license_no": "55000123",
      "license_date": "2022-03-18",
      "expire_date": "2027-11-30"
    },
    {
      "name": "Bistro 赤坂",
      "name_kana": "ビストロ　アカサカ",
      "business_type": "① 飲食店営業",
      "address": "岐阜県揖斐郡池田町池野492",
      "lat": 35.436776,
      "lng": 136.573618,
      "geocoding_level": null,
      "phone": "09060831434",
      "license_no": "55000135",
      "license_date": "2022-04-25",
      "expire_date": "2027-11-30"
    },
    {
      "name": "ブルースカフェ",
      "name_kana": "ブルースカフェ",
      "business_type": "㉕ そうざい製造業",
      "address": "岐阜県揖斐郡池田町八幡2579-3",
      "lat": 35.429416,
      "lng": 136.580816,
      "geocoding_level": null,
      "phone": "0585451950",
      "license_no": "55000167",
      "license_date": "2022-06-06",
      "expire_date": "2027-11-30"
    },
    {
      "name": "ブルースカフェ",
      "name_kana": "ブルースカフェ",
      "business_type": "㉔ その他の食料品製造・加工業",
      "address": "岐阜県揖斐郡池田町八幡2579-3",
      "lat": 35.429416,
      "lng": 136.580816,
      "geocoding_level": null,
      "phone": "0585451950",
      "license_no": "",
      "license_date": null,
      "expire_date": null
    },
    {
      "name": "揖斐郡養基小学校養基保育所組合立養基保育園",
      "name_kana": "イビグンヤギショウガッコウヤギホイクショクミアイリツヤギホイクエン",
      "business_type": "㉖ 集団給食施設",
      "address": "岐阜県揖斐郡池田町粕ケ原607-3",
      "lat": 35.465383,
      "lng": 136.570128,
      "geocoding_level": null,
      "phone": "0585453139",
      "license_no": "",
      "license_date": null,
      "expire_date": null
    },
    {
      "name": "池田町立西保育園",
      "name_kana": "イケダチョウリツニシホイクエン",
      "business_type": "㉖ 集団給食施設",
      "address": "岐阜県揖斐郡池田町田畑207",
      "lat": 35.435195,
      "lng": 136.562355,
      "geocoding_level": null,
      "phone": "0585452209",
      "license_no": "",
      "license_date": null,
      "expire_date": null
    },
    {
      "name": "池田町立片山保育園",
      "name_kana": "イケダチョウリツカタヤマホイクエン",
      "business_type": "㉖ 集団給食施設",
      "address": "岐阜県揖斐郡池田町片山2938-1",
      "lat": 35.422276,
      "lng": 136.568354,
      "geocoding_level": null,
      "phone": "0585456133",
      "license_no": "",
      "license_date": null,
      "expire_date": null
    },
    {
      "name": "池田町立温知保育園",
      "name_kana": "イケダチョウリツオンチホイクエン",
      "business_type": "㉖ 集団給食施設",
      "address": "岐阜県揖斐郡池田町萩原1216-1",
      "lat": 35.447462,
      "lng": 136.575185,
      "geocoding_level": null,
      "phone": "0585452143",
      "license_no": "",
      "license_date": null,
      "expire_date": null
    },
    {
      "name": "乾杯",
      "name_kana": "カンパイ",
      "business_type": "① 飲食店営業",
      "address": "岐阜県揖斐郡池田町池野213-2",
      "lat": 35.435591,
      "lng": 136.575055,
      "geocoding_level": null,
      "phone": "08045351043",
      "license_no": "55000202",
      "license_date": "2022-09-16",
      "expire_date": "2027-11-30"
    },
    {
      "name": "みどりの森八幡こども園",
      "name_kana": "ミドリノモリヤワタコドモエン",
      "business_type": "㉖ 集団給食施設",
      "address": "岐阜県揖斐郡池田町八幡1277番地の1",
      "lat": 35.427736,
      "lng": 136.577408,
      "geocoding_level": null,
      "phone": "0585452578",
      "license_no": "",
      "license_date": null,
      "expire_date": null
    },
    {
      "name": "トミダヤ池田店",
      "name_kana": "トミダヤイゲダテン",
      "business_type": "⑪ 百貨店、総合スーパー",
      "address": "岐阜県揖斐郡池田町池野411番地2",
      "lat": 35.433883,
      "lng": 136.575639,
      "geocoding_level": null,
      "phone": "0585-45-7878",
      "license_no": "",
      "license_date": null,
      "expire_date": null
    },
    {
      "name": "学校法人　野々村学園　コスモ幼稚園",
      "name_kana": "ガッコウホウジン　ノノムラガクエン　コスモヨウチエン",
      "business_type": "㉖ 集団給食施設",
      "address": "岐阜県揖斐郡池田町未選択513-2",
      "lat": 35.442327,
      "lng": 136.573053,
      "geocoding_level": null,
      "phone": "0585456622",
      "license_no": "",
      "license_date": null,
      "expire_date": null
    },
    {
      "name": "cafe すず.",
      "name_kana": "カフェスズテン",
      "business_type": "① 飲食店営業",
      "address": "岐阜県揖斐郡池田町本郷1392-1 スペースＮＯＢ店舗1階Ⅾ号室",
      "lat": 35.445974,
      "lng": 136.570914,
      "geocoding_level": null,
      "phone": "",
      "license_no": "55000207",
      "license_date": "2022-10-14",
      "expire_date": "2027-11-30"
    },
    {
      "name": "Ｆａｍｉｌｙ　Ｐａｒｋ　Ｎａ－Ｎａ",
      "name_kana": "ファミリー　パーク　ナーナ",
      "business_type": "① 飲食店営業",
      "address": "岐阜県揖斐郡池田町本郷643-2",
      "lat": 35.450368,
      "lng": 136.566829,
      "geocoding_level": null,
      "phone": "",
      "license_no": "55000204",
      "license_date": "2022-10-13",
      "expire_date": "2028-02-29"
    },
    {
      "name": "Ｂａｋｅ　ｓｈｏｐ　ＦＩＫＡ",
      "name_kana": "ベイクショップフィーカ",
      "business_type": "⑪ 菓子製造業",
      "address": "岐阜県揖斐郡池田町池野114-1",
      "lat": 35.437121,
      "lng": 136.575865,
      "geocoding_level": null,
      "phone": "0585450933",
      "license_no": "55000227",
      "license_date": "2022-11-15",
      "expire_date": "2027-11-30"
    },
    {
      "name": "自由空間　ナマステ",
      "name_kana": "ジユウクウカン　ナマステ",
      "business_type": "① 飲食店営業",
      "address": "岐阜県揖斐郡池田町八幡2579-3",
      "lat": 35.429416,
      "lng": 136.580816,
      "geocoding_level": null,
      "phone": "09088613188",
      "license_no": "55000239",
      "license_date": "2022-11-28",
      "expire_date": "2027-11-30"
    },
    {
      "name": "メフォス10259号店",
      "name_kana": "メフォスイチゼロニゴウキュウゴウテン",
      "business_type": "① 飲食店営業",
      "address": "岐阜県揖斐郡池田町粕ケ原2031-1",
      "lat": 35.460506,
      "lng": 136.583378,
      "geocoding_level": null,
      "phone": "0585357733",
      "license_no": "55000230",
      "license_date": "2022-11-15",
      "expire_date": "2027-11-30"
    },
    {
      "name": "ラーメンハウスくねくね　池田Ｒ４１７店",
      "name_kana": "ラーメンハウスクネクネイケダアールヨンイチナナテン",
      "business_type": "① 飲食店営業",
      "address": "岐阜県揖斐郡池田町八幡字北出946-1",
      "lat": 35.427908,
      "lng": 136.576467,
      "geocoding_level": null,
      "phone": "0585459990",
      "license_no": "55000235",
      "license_date": "2022-11-25",
      "expire_date": "2027-11-30"
    },
    {
      "name": "５８９（ＫＯＨＡＫＵ）",
      "name_kana": "コハク",
      "business_type": "① 飲食店営業",
      "address": "岐阜県揖斐郡池田町八幡400-1",
      "lat": 35.426901,
      "lng": 136.574312,
      "geocoding_level": null,
      "phone": "09078638982",
      "license_no": "55000238",
      "license_date": "2022-11-28",
      "expire_date": "2028-02-29"
    },
    {
      "name": "白喜屋",
      "name_kana": "シラキヤ",
      "business_type": "① 飲食店営業",
      "address": "岐阜県揖斐郡池田町青柳80₋23",
      "lat": 35.4426,
      "lng": 136.570309,
      "geocoding_level": null,
      "phone": "0585452171",
      "license_no": "55000247",
      "license_date": "2022-12-20",
      "expire_date": "2028-11-30"
    },
    {
      "name": "白喜屋",
      "name_kana": "シラキヤ",
      "business_type": "⑪ 菓子製造業",
      "address": "岐阜県揖斐郡池田町青柳80₋23",
      "lat": 35.4426,
      "lng": 136.570309,
      "geocoding_level": null,
      "phone": "0585452171",
      "license_no": "55000245",
      "license_date": "2022-12-20",
      "expire_date": "2028-11-30"
    },
    {
      "name": "白喜屋",
      "name_kana": "シラキヤ",
      "business_type": "㉕ そうざい製造業",
      "address": "岐阜県揖斐郡池田町青柳80₋23",
      "lat": 35.4426,
      "lng": 136.570309,
      "geocoding_level": null,
      "phone": "0585452171",
      "license_no": "55000246",
      "license_date": "2022-12-20",
      "expire_date": "2028-11-30"
    },
    {
      "name": "白喜屋（岐阜８００そ５４１６）",
      "name_kana": "シラキヤギフハチゼロゼロソゴヨンイチロク",
      "business_type": "① 飲食店営業",
      "address": "岐阜県揖斐郡池田町青柳80-23",
      "lat": 35.442527,
      "lng": 136.570688,
      "geocoding_level": null,
      "phone": "0585452171",
      "license_no": "55000248",
      "license_date": "2022-12-20",
      "expire_date": "2028-02-29"
    },
    {
      "name": "ちひろ",
      "name_kana": "チヒロ",
      "business_type": "① 飲食店営業",
      "address": "岐阜県揖斐郡池田町萩原1031-1",
      "lat": 35.450669,
      "lng": 136.575159,
      "geocoding_level": null,
      "phone": "09034780018",
      "license_no": "55000249",
      "license_date": "2023-01-12",
      "expire_date": "2028-02-29"
    },
    {
      "name": "ＴＨＥ　ＭＩＬＫ　ＳＨＯＰ",
      "name_kana": "ザ　ミルク　ショップ",
      "business_type": "① 飲食店営業",
      "address": "岐阜県揖斐郡池田町池野470",
      "lat": 35.437121,
      "lng": 136.575865,
      "geocoding_level": null,
      "phone": "",
      "license_no": "55000340",
      "license_date": "2023-08-24",
      "expire_date": "2028-11-30"
    },
    {
      "name": "ＴＨＥ　ＭＩＬＫ　ＳＨＯＰ",
      "name_kana": "ザ　ミルク　ショップ",
      "business_type": "⑫ アイスクリーム類製造業",
      "address": "岐阜県揖斐郡池田町池野470",
      "lat": 35.437121,
      "lng": 136.575865,
      "geocoding_level": null,
      "phone": "",
      "license_no": "55000341",
      "license_date": "2023-08-24",
      "expire_date": "2028-11-30"
    },
    {
      "name": "ＴＨＥ　ＭＩＬＫ　ＳＨＯＰ",
      "name_kana": "ザ　ミルク　ショップ",
      "business_type": "⑪ 菓子製造業",
      "address": "岐阜県揖斐郡池田町池野470",
      "lat": 35.437121,
      "lng": 136.575865,
      "geocoding_level": null,
      "phone": "",
      "license_no": "55000342",
      "license_date": "2023-08-24",
      "expire_date": "2028-11-30"
    },
    {
      "name": "ＴＨＥ　ＭＩＬＫ　ＳＨＯＰ",
      "name_kana": "ザ　ミルク　ショップ",
      "business_type": "③ 乳類販売業",
      "address": "岐阜県揖斐郡池田町池野470",
      "lat": 35.437121,
      "lng": 136.575865,
      "geocoding_level": null,
      "phone": "",
      "license_no": "",
      "license_date": null,
      "expire_date": null
    },
    {
      "name": "ＴＨＥ　ＭＩＬＫ　ＳＨＯＰ",
      "name_kana": "ザ　ミルク　ショップ",
      "business_type": "⑬ その他の食料・飲料販売業",
      "address": "岐阜県揖斐郡池田町池野470",
      "lat": 35.437121,
      "lng": 136.575865,
      "geocoding_level": null,
      "phone": "",
      "license_no": "",
      "license_date": null,
      "expire_date": null
    },
    {
      "name": "池田のだいちファーム",
      "name_kana": "イケダノダイチファーム",
      "business_type": "㉔ その他の食料品製造・加工業",
      "address": "岐阜県揖斐郡池田町粕ヶ原814番地",
      "lat": 35.463831,
      "lng": 136.57001,
      "geocoding_level": null,
      "phone": "09026811603",
      "license_no": "",
      "license_date": null,
      "expire_date": null
    },
    {
      "name": "にぎりの徳兵衛 池田店",
      "name_kana": "ニギリノトクベエ　イケダテン",
      "business_type": "① 魚介類販売業（包装済みの魚介類のみの販売）",
      "address": "岐阜県揖斐郡池田町八幡2349-1",
      "lat": 35.424842,
      "lng": 136.580176,
      "geocoding_level": null,
      "phone": "0585-45-0567",
      "license_no": "",
      "license_date": null,
      "expire_date": null
    },
    {
      "name": "池田こども園",
      "name_kana": "イケダコドモエン",
      "business_type": "㉖ 集団給食施設",
      "address": "岐阜県揖斐郡池田町白鳥115",
      "lat": 35.446357,
      "lng": 136.593564,
      "geocoding_level": null,
      "phone": "",
      "license_no": "",
      "license_date": null,
      "expire_date": null
    }
  ]
}
