{
  "meta": {
    "updated": 1783906731,
    "sources": [
      {
        "source": "鹿児島県 鹿児島県食品営業許可施設一覧",
        "license": "Creative Commons Attribution 4.0 International"
      },
      {
        "source": "厚生労働省 食品衛生申請等システム（オープンデータ）",
        "license": "公共データ利用規約（第1.0版, PDL1.0）"
      }
    ]
  },
  "data": [
    {
      "name": "森　　剛士",
      "name_kana": "",
      "business_type": "飲食店営業（一般食堂・ﾚｽﾄﾗﾝ等）",
      "address": "伊佐市大口里３０７２－１",
      "lat": 32.06023380900001,
      "lng": 130.612039745,
      "geocoding_level": 8,
      "phone": "",
      "license_no": "第034-000002号",
      "license_date": null,
      "expire_date": "2028-04-30"
    },
    {
      "name": "有限会社　大口製氷",
      "name_kana": "",
      "business_type": "氷雪製造業",
      "address": "伊佐市大口大島１２０２－２",
      "lat": 32.04619,
      "lng": 130.59774,
      "geocoding_level": 3,
      "phone": "",
      "license_no": "第034-000005号",
      "license_date": null,
      "expire_date": "2028-04-30"
    },
    {
      "name": "小野原　　文雄",
      "name_kana": "",
      "business_type": "魚介類販売業",
      "address": "伊佐市菱刈前目２００７－４",
      "lat": 32.013945231,
      "lng": 130.640298975,
      "geocoding_level": 8,
      "phone": "",
      "license_no": "第034-000008号",
      "license_date": null,
      "expire_date": "2027-04-30"
    },
    {
      "name": "小野原　　文雄",
      "name_kana": "",
      "business_type": "飲食店営業（その他）",
      "address": "伊佐市菱刈前目２００７－４",
      "lat": 32.013945231,
      "lng": 130.640298975,
      "geocoding_level": 8,
      "phone": "",
      "license_no": "第034-000009号",
      "license_date": null,
      "expire_date": "2027-04-30"
    },
    {
      "name": "外園　賜仁",
      "name_kana": "",
      "business_type": "飲食店営業（旅館）",
      "address": "伊佐市菱刈前目４２３９－３",
      "lat": 32.007208573,
      "lng": 130.659092428,
      "geocoding_level": 8,
      "phone": "",
      "license_no": "第034-000010号",
      "license_date": null,
      "expire_date": "2028-04-30"
    },
    {
      "name": "株式会社　エル三和",
      "name_kana": "",
      "business_type": "食肉販売業",
      "address": "鹿児島県伊佐市菱刈重留1406",
      "lat": 32.039255727,
      "lng": 130.630017986,
      "geocoding_level": 8,
      "phone": "",
      "license_no": "第034-000013号",
      "license_date": null,
      "expire_date": "2028-04-30"
    },
    {
      "name": "株式会社　迫田興産",
      "name_kana": "",
      "business_type": "そうざい製造業",
      "address": "伊佐市大口目丸１３３－１",
      "lat": 32.053363659,
      "lng": 130.62108389,
      "geocoding_level": 8,
      "phone": "",
      "license_no": "第034-000017号",
      "license_date": null,
      "expire_date": "2028-07-31"
    },
    {
      "name": "西溜　敏江",
      "name_kana": "",
      "business_type": "飲食店営業（その他）",
      "address": "伊佐市大口上町３２－２",
      "lat": 32.061379,
      "lng": 130.606795,
      "geocoding_level": 3,
      "phone": "",
      "license_no": "第034-000018号",
      "license_date": null,
      "expire_date": "2028-07-31"
    },
    {
      "name": "下口　和郎",
      "name_kana": "",
      "business_type": "飲食店営業（その他）",
      "address": "伊佐市大口上町３２－１",
      "lat": 32.061379,
      "lng": 130.606795,
      "geocoding_level": 3,
      "phone": "",
      "license_no": "第034-000019号",
      "license_date": null,
      "expire_date": "2028-07-31"
    },
    {
      "name": "御書　敬",
      "name_kana": "",
      "business_type": "菓子製造業",
      "address": "伊佐市大口上町５－１６",
      "lat": 32.061379,
      "lng": 130.606795,
      "geocoding_level": 3,
      "phone": "",
      "license_no": "第034-000022号",
      "license_date": null,
      "expire_date": "2028-07-31"
    },
    {
      "name": "藤﨑　民子",
      "name_kana": "",
      "business_type": "そうざい製造業",
      "address": "伊佐市大口里２６７０",
      "lat": 32.066113076,
      "lng": 130.613932019,
      "geocoding_level": 8,
      "phone": "",
      "license_no": "第034-000023号",
      "license_date": null,
      "expire_date": "2028-07-31"
    },
    {
      "name": "株式会社　和木企画",
      "name_kana": "",
      "business_type": "飲食店営業（その他）",
      "address": "伊佐市大口里２２５６",
      "lat": 32.067747447,
      "lng": 130.605106393,
      "geocoding_level": 8,
      "phone": "",
      "license_no": "第034-000024号",
      "license_date": null,
      "expire_date": "2028-07-31"
    },
    {
      "name": "安山　寛利",
      "name_kana": "",
      "business_type": "飲食店営業（一般食堂・ﾚｽﾄﾗﾝ等）",
      "address": "伊佐市大口元町２１－２",
      "lat": 32.058157,
      "lng": 130.608633,
      "geocoding_level": 3,
      "phone": "",
      "license_no": "第034-000028号",
      "license_date": null,
      "expire_date": "2028-07-31"
    },
    {
      "name": "日髙　惠子",
      "name_kana": "",
      "business_type": "飲食店営業（一般食堂・ﾚｽﾄﾗﾝ等）",
      "address": "伊佐市大口上町２－１２",
      "lat": 32.061379,
      "lng": 130.606795,
      "geocoding_level": 3,
      "phone": "",
      "license_no": "第034-000030号",
      "license_date": null,
      "expire_date": "2028-07-31"
    },
    {
      "name": "村岡　厚志",
      "name_kana": "",
      "business_type": "飲食店営業（一般食堂・ﾚｽﾄﾗﾝ等）",
      "address": "伊佐市大口上町３５－８",
      "lat": 32.061379,
      "lng": 130.606795,
      "geocoding_level": 3,
      "phone": "",
      "license_no": "第034-000031号",
      "license_date": null,
      "expire_date": "2028-07-31"
    },
    {
      "name": "松木　弘人",
      "name_kana": "",
      "business_type": "飲食店営業（一般食堂・ﾚｽﾄﾗﾝ等）",
      "address": "伊佐市大口小木原２６２－２６",
      "lat": 32.086907961,
      "lng": 130.591946746,
      "geocoding_level": 8,
      "phone": "",
      "license_no": "第034-000038号",
      "license_date": null,
      "expire_date": "2028-07-31"
    },
    {
      "name": "猿川　初男",
      "name_kana": "",
      "business_type": "飲食店営業（一般食堂・ﾚｽﾄﾗﾝ等）",
      "address": "伊佐市大口堂崎５２７－５５",
      "lat": 32.033474298,
      "lng": 130.596844585,
      "geocoding_level": 8,
      "phone": "",
      "license_no": "第034-000039号",
      "license_date": null,
      "expire_date": "2028-07-31"
    },
    {
      "name": "村中　裕子",
      "name_kana": "",
      "business_type": "密封包装食品製造業",
      "address": "伊佐市大口小木原永山６９１－７１",
      "lat": 32.116794,
      "lng": 130.620284,
      "geocoding_level": 3,
      "phone": "",
      "license_no": "第034-000040号",
      "license_date": null,
      "expire_date": "2028-07-31"
    },
    {
      "name": "村中　裕子",
      "name_kana": "",
      "business_type": "飲食店営業（一般食堂・ﾚｽﾄﾗﾝ等）",
      "address": "伊佐市大口小木原永山６９１－７１",
      "lat": 32.116794,
      "lng": 130.620284,
      "geocoding_level": 3,
      "phone": "",
      "license_no": "第034-000041号",
      "license_date": null,
      "expire_date": "2028-07-31"
    },
    {
      "name": "永野　治",
      "name_kana": "",
      "business_type": "菓子製造業",
      "address": "伊佐市大口目丸５４１",
      "lat": 32.05778,
      "lng": 130.627406,
      "geocoding_level": 3,
      "phone": "",
      "license_no": "第034-000042号",
      "license_date": null,
      "expire_date": "2028-07-31"
    },
    {
      "name": "有限会社ジン自動車ジャパン",
      "name_kana": "",
      "business_type": "飲食店営業（一般食堂・ﾚｽﾄﾗﾝ等）",
      "address": "伊佐市菱刈花北５６４－１",
      "lat": 32.041187776,
      "lng": 130.626608222,
      "geocoding_level": 8,
      "phone": "",
      "license_no": "第034-000043号",
      "license_date": null,
      "expire_date": "2028-07-31"
    },
    {
      "name": "株式会社　増元精肉店",
      "name_kana": "",
      "business_type": "そうざい製造業",
      "address": "伊佐市大口上町5－10",
      "lat": 32.061379,
      "lng": 130.606795,
      "geocoding_level": 3,
      "phone": "",
      "license_no": "第034-000045号",
      "license_date": null,
      "expire_date": "2028-07-31"
    },
    {
      "name": "古澤  博文",
      "name_kana": "",
      "business_type": "飲食店営業（その他）",
      "address": "伊佐市大口里７６５－１",
      "lat": 32.05728398,
      "lng": 130.607359208,
      "geocoding_level": 8,
      "phone": "",
      "license_no": "第034-000054号",
      "license_date": null,
      "expire_date": "2028-10-31"
    },
    {
      "name": "西ノ原　弘",
      "name_kana": "",
      "business_type": "そうざい製造業",
      "address": "伊佐市大口元町１３－３",
      "lat": 32.058157,
      "lng": 130.608633,
      "geocoding_level": 3,
      "phone": "",
      "license_no": "第034-000056号",
      "license_date": null,
      "expire_date": "2028-10-31"
    },
    {
      "name": "益園　洋司",
      "name_kana": "",
      "business_type": "そうざい製造業",
      "address": "伊佐市大口目丸６２９－１",
      "lat": 32.056179743,
      "lng": 130.621262065,
      "geocoding_level": 8,
      "phone": "",
      "license_no": "第034-000057号",
      "license_date": null,
      "expire_date": "2028-10-31"
    },
    {
      "name": "北さつま農業協同組合",
      "name_kana": "",
      "business_type": "みそ又はしょうゆ製造業",
      "address": "伊佐市大口下殿５６３",
      "lat": 32.042695826,
      "lng": 130.593625253,
      "geocoding_level": 8,
      "phone": "",
      "license_no": "第034-000061号",
      "license_date": null,
      "expire_date": "2028-10-31"
    },
    {
      "name": "松木　勝範",
      "name_kana": "",
      "business_type": "飲食店営業（一般食堂・ﾚｽﾄﾗﾝ等）",
      "address": "伊佐市大口元町２２－６",
      "lat": 32.058157,
      "lng": 130.608633,
      "geocoding_level": 3,
      "phone": "",
      "license_no": "第034-000062号",
      "license_date": null,
      "expire_date": "2028-10-31"
    },
    {
      "name": "冨田　洋二",
      "name_kana": "",
      "business_type": "飲食店営業（一般食堂・ﾚｽﾄﾗﾝ等）",
      "address": "伊佐市大口元町２２－８",
      "lat": 32.058157,
      "lng": 130.608633,
      "geocoding_level": 3,
      "phone": "",
      "license_no": "第034-000063号",
      "license_date": null,
      "expire_date": "2028-10-31"
    },
    {
      "name": "株式会社　鳥希",
      "name_kana": "",
      "business_type": "飲食店営業（一般食堂・ﾚｽﾄﾗﾝ等）",
      "address": "伊佐市大口上町１５－５",
      "lat": 32.061379,
      "lng": 130.606795,
      "geocoding_level": 3,
      "phone": "",
      "license_no": "第034-000064号",
      "license_date": null,
      "expire_date": "2028-10-31"
    },
    {
      "name": "社会福祉法人　慈和会",
      "name_kana": "",
      "business_type": "飲食店営業（一般食堂・ﾚｽﾄﾗﾝ等）",
      "address": "伊佐市大口大田６９－１",
      "lat": 32.075437,
      "lng": 130.604725,
      "geocoding_level": 3,
      "phone": "",
      "license_no": "第034-000066号",
      "license_date": null,
      "expire_date": "2028-10-31"
    },
    {
      "name": "株式会社　ニシムタ",
      "name_kana": "",
      "business_type": "そうざい製造業",
      "address": "伊佐市大口大島１２７０番１号",
      "lat": 32.052613636,
      "lng": 130.599489234,
      "geocoding_level": 8,
      "phone": "",
      "license_no": "第034-000067号",
      "license_date": null,
      "expire_date": "2028-10-31"
    },
    {
      "name": "株式会社　ニシムタ",
      "name_kana": "",
      "business_type": "菓子製造業",
      "address": "伊佐市大口大島１２７０番１号",
      "lat": 32.052613636,
      "lng": 130.599489234,
      "geocoding_level": 8,
      "phone": "",
      "license_no": "第034-000068号",
      "license_date": null,
      "expire_date": "2028-10-31"
    },
    {
      "name": "株式会社　ニシムタ",
      "name_kana": "",
      "business_type": "魚介類販売業",
      "address": "伊佐市大口大島１２７０番１号",
      "lat": 32.052613636,
      "lng": 130.599489234,
      "geocoding_level": 8,
      "phone": "",
      "license_no": "第034-000070号",
      "license_date": null,
      "expire_date": "2028-10-31"
    },
    {
      "name": "長町　真由美",
      "name_kana": "",
      "business_type": "飲食店営業（その他）",
      "address": "伊佐市大口里１９８５－３",
      "lat": 32.056640086,
      "lng": 130.609832868,
      "geocoding_level": 8,
      "phone": "",
      "license_no": "第034-000072号",
      "license_date": null,
      "expire_date": "2027-10-31"
    },
    {
      "name": "小路　多實子",
      "name_kana": "",
      "business_type": "飲食店営業（一般食堂・ﾚｽﾄﾗﾝ等）",
      "address": "伊佐市大口里１９８９－１",
      "lat": 32.056590218,
      "lng": 130.609481529,
      "geocoding_level": 8,
      "phone": "",
      "license_no": "第034-000073号",
      "license_date": null,
      "expire_date": "2028-10-31"
    },
    {
      "name": "周防原　利幸",
      "name_kana": "",
      "business_type": "菓子製造業",
      "address": "伊佐市大口里２９２１",
      "lat": 32.060611,
      "lng": 130.612974,
      "geocoding_level": 3,
      "phone": "",
      "license_no": "第034-000074号",
      "license_date": null,
      "expire_date": "2028-10-31"
    },
    {
      "name": "株式会社やまびこの郷",
      "name_kana": "",
      "business_type": "菓子製造業",
      "address": "伊佐市菱刈市山２０６８－５",
      "lat": 32.047434132,
      "lng": 130.657027166,
      "geocoding_level": 8,
      "phone": "",
      "license_no": "第034-000075号",
      "license_date": null,
      "expire_date": "2028-10-31"
    },
    {
      "name": "株式会社やまびこの郷",
      "name_kana": "",
      "business_type": "そうざい製造業",
      "address": "伊佐市菱刈市山２０６８－５",
      "lat": 32.047434132,
      "lng": 130.657027166,
      "geocoding_level": 8,
      "phone": "",
      "license_no": "第034-000076号",
      "license_date": null,
      "expire_date": "2028-10-31"
    },
    {
      "name": "佐伯　律子",
      "name_kana": "",
      "business_type": "飲食店営業（一般食堂・ﾚｽﾄﾗﾝ等）",
      "address": "伊佐市菱刈南浦３１６０－３",
      "lat": 31.985097442,
      "lng": 130.633910273,
      "geocoding_level": 8,
      "phone": "",
      "license_no": "第034-000079号",
      "license_date": null,
      "expire_date": "2028-10-31"
    },
    {
      "name": "山下  竜一",
      "name_kana": "",
      "business_type": "菓子製造業",
      "address": "伊佐市大口上町１６番地５",
      "lat": 32.061379,
      "lng": 130.606795,
      "geocoding_level": 3,
      "phone": "",
      "license_no": "第034-000094号",
      "license_date": null,
      "expire_date": "2028-10-31"
    },
    {
      "name": "天野　礼",
      "name_kana": "",
      "business_type": "飲食店営業（その他）",
      "address": "伊佐市大口小川内５８２",
      "lat": 32.131231853,
      "lng": 130.524282872,
      "geocoding_level": 8,
      "phone": "",
      "license_no": "第034-000098号",
      "license_date": null,
      "expire_date": "2029-01-31"
    },
    {
      "name": "下船  ほたる",
      "name_kana": "",
      "business_type": "菓子製造業",
      "address": "伊佐市菱刈南浦３２７９",
      "lat": 31.965138,
      "lng": 130.630584,
      "geocoding_level": 3,
      "phone": "",
      "license_no": "第031-000156号",
      "license_date": null,
      "expire_date": "2026-01-31"
    },
    {
      "name": "村岡　強志",
      "name_kana": "",
      "business_type": "菓子製造業",
      "address": "伊佐市大口里５７４－１０",
      "lat": 32.056559385,
      "lng": 130.603995784,
      "geocoding_level": 8,
      "phone": "",
      "license_no": "第031-000169号",
      "license_date": null,
      "expire_date": "2026-01-31"
    },
    {
      "name": "村岡　強志",
      "name_kana": "",
      "business_type": "そうざい製造業",
      "address": "伊佐市大口里５７４－１０",
      "lat": 32.056559385,
      "lng": 130.603995784,
      "geocoding_level": 8,
      "phone": "",
      "license_no": "第031-000170号",
      "license_date": null,
      "expire_date": "2026-01-31"
    },
    {
      "name": "土生　みずほ",
      "name_kana": "",
      "business_type": "缶詰又は瓶詰食品製造業",
      "address": "伊佐市菱刈前目６７５－２",
      "lat": 32.012291976,
      "lng": 130.639469977,
      "geocoding_level": 8,
      "phone": "",
      "license_no": "第031-000171号",
      "license_date": null,
      "expire_date": "2026-01-31"
    },
    {
      "name": "吉永  操",
      "name_kana": "",
      "business_type": "飲食店営業（一般食堂・ﾚｽﾄﾗﾝ等）",
      "address": "伊佐市大口里３０４２－５",
      "lat": 32.062224771,
      "lng": 130.610388206,
      "geocoding_level": 8,
      "phone": "",
      "license_no": "第031-000173号",
      "license_date": null,
      "expire_date": "2026-01-31"
    },
    {
      "name": "有限会社みち潮",
      "name_kana": "",
      "business_type": "飲食店営業（一般食堂・ﾚｽﾄﾗﾝ等）",
      "address": "伊佐市大口上町２８－７",
      "lat": 32.061379,
      "lng": 130.606795,
      "geocoding_level": 3,
      "phone": "",
      "license_no": "第031-000180号",
      "license_date": null,
      "expire_date": "2026-01-31"
    },
    {
      "name": "中島　　昇",
      "name_kana": "",
      "business_type": "飲食店営業（一般食堂・ﾚｽﾄﾗﾝ等）",
      "address": "伊佐市大口里１９８５－１",
      "lat": 32.05668148200001,
      "lng": 130.610019585,
      "geocoding_level": 8,
      "phone": "",
      "license_no": "第031-000184号",
      "license_date": null,
      "expire_date": "2026-01-31"
    },
    {
      "name": "藤本　　順子",
      "name_kana": "",
      "business_type": "飲食店営業（一般食堂・ﾚｽﾄﾗﾝ等）",
      "address": "伊佐市大口里８０９－１",
      "lat": 32.056258691,
      "lng": 130.606701595,
      "geocoding_level": 8,
      "phone": "",
      "license_no": "第031-000186号",
      "license_date": null,
      "expire_date": "2026-01-31"
    },
    {
      "name": "野村治男",
      "name_kana": "",
      "business_type": "飲食店営業（一般食堂・ﾚｽﾄﾗﾝ等）",
      "address": "伊佐市菱刈下手２４０４－１",
      "lat": 32.024825714,
      "lng": 130.604008837,
      "geocoding_level": 8,
      "phone": "",
      "license_no": "第031-000187号",
      "license_date": null,
      "expire_date": "2026-01-31"
    },
    {
      "name": "松下　　哲郎",
      "name_kana": "",
      "business_type": "飲食店営業（その他）",
      "address": "伊佐市菱刈前目１９０７",
      "lat": 32.015091,
      "lng": 130.685798,
      "geocoding_level": 3,
      "phone": "",
      "license_no": "第031-000190号",
      "license_date": null,
      "expire_date": "2026-01-31"
    },
    {
      "name": "松下　哲郎",
      "name_kana": "",
      "business_type": "食肉販売業",
      "address": "伊佐市菱刈前目１９０７",
      "lat": 32.015091,
      "lng": 130.685798,
      "geocoding_level": 3,
      "phone": "",
      "license_no": "第031-000191号",
      "license_date": null,
      "expire_date": "2026-01-31"
    },
    {
      "name": "諏訪　浩二",
      "name_kana": "",
      "business_type": "飲食店営業（一般食堂・ﾚｽﾄﾗﾝ等）",
      "address": "伊佐市菱刈花北６０６－４",
      "lat": 32.037075961,
      "lng": 130.630505715,
      "geocoding_level": 8,
      "phone": "",
      "license_no": "第031-000193号",
      "license_date": null,
      "expire_date": "2026-01-31"
    },
    {
      "name": "塩屋　末広",
      "name_kana": "",
      "business_type": "菓子製造業",
      "address": "伊佐市菱刈南浦３４２６",
      "lat": 31.965138,
      "lng": 130.630584,
      "geocoding_level": 3,
      "phone": "",
      "license_no": "第031-000194号",
      "license_date": null,
      "expire_date": "2026-01-31"
    },
    {
      "name": "九州惣菜株式会社",
      "name_kana": "",
      "business_type": "飲食店営業（仕出し屋・弁当屋）",
      "address": "伊佐市菱刈重留字薬師原１４０６番地",
      "lat": 32.031751,
      "lng": 130.63351600000001,
      "geocoding_level": 3,
      "phone": "",
      "license_no": "第031-000188号",
      "license_date": null,
      "expire_date": "2026-01-31"
    },
    {
      "name": "三日市　慶介",
      "name_kana": "",
      "business_type": "飲食店営業（その他）",
      "address": "伊佐市大口里８０５－６",
      "lat": 32.060611,
      "lng": 130.612974,
      "geocoding_level": 3,
      "phone": "",
      "license_no": "第031-000195号",
      "license_date": null,
      "expire_date": "2026-01-31"
    },
    {
      "name": "満元  真巨",
      "name_kana": "",
      "business_type": "缶詰又は瓶詰食品製造業",
      "address": "伊佐市菱刈南浦３０８－２－３ 農畜産物処理加工施設",
      "lat": 31.965138,
      "lng": 130.630584,
      "geocoding_level": 3,
      "phone": "",
      "license_no": "第032-000001号",
      "license_date": null,
      "expire_date": "2026-04-30"
    },
    {
      "name": "草積総業有限会社",
      "name_kana": "",
      "business_type": "飲食店営業（その他）",
      "address": "伊佐市大口下殿７６６番地１９",
      "lat": 32.031071057,
      "lng": 130.590133453,
      "geocoding_level": 8,
      "phone": "",
      "license_no": "第032-000003号",
      "license_date": null,
      "expire_date": "2026-04-30"
    },
    {
      "name": "西ノ原　弘",
      "name_kana": "",
      "business_type": "飲食店営業（一般食堂・ﾚｽﾄﾗﾝ等）",
      "address": "伊佐市大口元町１３－３",
      "lat": 32.058157,
      "lng": 130.608633,
      "geocoding_level": 3,
      "phone": "",
      "license_no": "第032-000005号",
      "license_date": null,
      "expire_date": "2026-04-30"
    },
    {
      "name": "堀尾幸代",
      "name_kana": "",
      "business_type": "飲食店営業（その他）",
      "address": "伊佐市大口上町１４－１２",
      "lat": 32.061379,
      "lng": 130.606795,
      "geocoding_level": 3,
      "phone": "",
      "license_no": "第032-000008号",
      "license_date": null,
      "expire_date": "2026-04-30"
    },
    {
      "name": "有限会社　　フジスミ産業",
      "name_kana": "",
      "business_type": "飲食店営業（その他）",
      "address": "伊佐市大口大田５９－１",
      "lat": 32.065785109,
      "lng": 130.602824036,
      "geocoding_level": 8,
      "phone": "",
      "license_no": "第032-000011号",
      "license_date": null,
      "expire_date": "2026-04-30"
    },
    {
      "name": "有留久美子",
      "name_kana": "",
      "business_type": "飲食店営業（仕出し屋・弁当屋）",
      "address": "伊佐市菱刈市山２０４０－４２",
      "lat": 32.047984476,
      "lng": 130.661246171,
      "geocoding_level": 8,
      "phone": "",
      "license_no": "第032-000021号",
      "license_date": null,
      "expire_date": "2026-04-30"
    },
    {
      "name": "福山信義",
      "name_kana": "",
      "business_type": "飲食店営業（その他）",
      "address": "伊佐市菱刈重留１４０６",
      "lat": 32.039255727,
      "lng": 130.630017986,
      "geocoding_level": 8,
      "phone": "",
      "license_no": "第032-000022号",
      "license_date": null,
      "expire_date": "2026-04-30"
    },
    {
      "name": "福山信義",
      "name_kana": "",
      "business_type": "魚介類販売業",
      "address": "伊佐市菱刈重留１４０６",
      "lat": 32.039255727,
      "lng": 130.630017986,
      "geocoding_level": 8,
      "phone": "",
      "license_no": "第032-000023号",
      "license_date": null,
      "expire_date": "2026-04-30"
    },
    {
      "name": "有限会社　　フジスミ産業",
      "name_kana": "",
      "business_type": "飲食店営業（その他）",
      "address": "伊佐市菱刈前目２４４１",
      "lat": 32.004152347,
      "lng": 130.646530563,
      "geocoding_level": 8,
      "phone": "",
      "license_no": "第032-000024号",
      "license_date": null,
      "expire_date": "2026-04-30"
    },
    {
      "name": "北渡瀬　敏三",
      "name_kana": "",
      "business_type": "麺類製造業",
      "address": "伊佐市菱刈徳辺２２４４－１",
      "lat": 32.008119463,
      "lng": 130.659896744,
      "geocoding_level": 8,
      "phone": "",
      "license_no": "第032-000029号",
      "license_date": null,
      "expire_date": "2026-04-30"
    },
    {
      "name": "株式会社曽木の滝洞窟きのこ園",
      "name_kana": "",
      "business_type": "飲食店営業（その他）",
      "address": "伊佐市大口里８０５番地１０  ２Ｆ",
      "lat": 32.060611,
      "lng": 130.612974,
      "geocoding_level": 3,
      "phone": "",
      "license_no": "第032-000030号",
      "license_date": null,
      "expire_date": "2026-04-30"
    },
    {
      "name": "公益社団法人  伊佐市シルバー人材センター",
      "name_kana": "",
      "business_type": "菓子製造業",
      "address": "伊佐市大口里１４３３番地１１",
      "lat": 32.05029011,
      "lng": 130.611532022,
      "geocoding_level": 8,
      "phone": "",
      "license_no": "第032-000031号",
      "license_date": null,
      "expire_date": "2026-04-30"
    },
    {
      "name": "公益社団法人  伊佐市シルバー人材センター",
      "name_kana": "",
      "business_type": "そうざい製造業",
      "address": "伊佐市大口里１４３３番地１１",
      "lat": 32.05029011,
      "lng": 130.611532022,
      "geocoding_level": 8,
      "phone": "",
      "license_no": "第032-000032号",
      "license_date": null,
      "expire_date": "2026-04-30"
    },
    {
      "name": "公益社団法人  伊佐市シルバー人材センター",
      "name_kana": "",
      "business_type": "麺類製造業",
      "address": "伊佐市大口里１４３３番地１１",
      "lat": 32.05029011,
      "lng": 130.611532022,
      "geocoding_level": 8,
      "phone": "",
      "license_no": "第032-000033号",
      "license_date": null,
      "expire_date": "2026-04-30"
    },
    {
      "name": "今井　進",
      "name_kana": "",
      "business_type": "飲食店営業（一般食堂・ﾚｽﾄﾗﾝ等）",
      "address": "伊佐市大口原田６３９－１７",
      "lat": 32.050886833,
      "lng": 130.623229205,
      "geocoding_level": 8,
      "phone": "",
      "license_no": "第032-000042号",
      "license_date": null,
      "expire_date": "2026-07-31"
    },
    {
      "name": "有限会社　　田中知身商会",
      "name_kana": "",
      "business_type": "飲食店営業（一般食堂・ﾚｽﾄﾗﾝ等）",
      "address": "伊佐市大口上町６番地２",
      "lat": 32.061379,
      "lng": 130.606795,
      "geocoding_level": 3,
      "phone": "",
      "license_no": "第032-000044号",
      "license_date": null,
      "expire_date": "2026-07-31"
    },
    {
      "name": "有限会社宮迫産業",
      "name_kana": "",
      "business_type": "飲食店営業（一般食堂・ﾚｽﾄﾗﾝ等）",
      "address": "伊佐市大口里４７９－１",
      "lat": 32.060466609,
      "lng": 130.604642398,
      "geocoding_level": 8,
      "phone": "",
      "license_no": "第032-000050号",
      "license_date": null,
      "expire_date": "2026-07-31"
    },
    {
      "name": "有限会社　村平ストア",
      "name_kana": "",
      "business_type": "飲食店営業（一般食堂・ﾚｽﾄﾗﾝ等）",
      "address": "伊佐市大口里６６１－２",
      "lat": 32.057004929,
      "lng": 130.602633968,
      "geocoding_level": 8,
      "phone": "",
      "license_no": "第032-000052号",
      "license_date": null,
      "expire_date": "2026-07-31"
    },
    {
      "name": "有留久美子",
      "name_kana": "",
      "business_type": "菓子製造業",
      "address": "伊佐市菱刈市山２０４０－４２",
      "lat": 32.047984476,
      "lng": 130.661246171,
      "geocoding_level": 8,
      "phone": "",
      "license_no": "第032-000054号",
      "license_date": null,
      "expire_date": "2026-07-31"
    },
    {
      "name": "有限会社　めるへん",
      "name_kana": "",
      "business_type": "飲食店営業（その他）",
      "address": "伊佐市菱刈重留１０７５",
      "lat": 32.035128259,
      "lng": 130.634025074,
      "geocoding_level": 8,
      "phone": "",
      "license_no": "第032-000055号",
      "license_date": null,
      "expire_date": "2026-07-31"
    },
    {
      "name": "川﨑　壽夫",
      "name_kana": "",
      "business_type": "菓子製造業",
      "address": "伊佐市菱刈川南１０８６",
      "lat": 31.975806000000002,
      "lng": 130.662659,
      "geocoding_level": 3,
      "phone": "",
      "license_no": "第032-000059号",
      "license_date": null,
      "expire_date": "2026-07-31"
    },
    {
      "name": "上野　順",
      "name_kana": "",
      "business_type": "飲食店営業（旅館）",
      "address": "伊佐市菱刈川南９８７－１",
      "lat": 31.985352548000005,
      "lng": 130.665407204,
      "geocoding_level": 8,
      "phone": "",
      "license_no": "第032-000060号",
      "license_date": null,
      "expire_date": "2026-07-31"
    },
    {
      "name": "前田　　美代子",
      "name_kana": "",
      "business_type": "飲食店営業（一般食堂・ﾚｽﾄﾗﾝ等）",
      "address": "伊佐市菱刈徳辺２２５６－２",
      "lat": 32.008920401,
      "lng": 130.658520271,
      "geocoding_level": 8,
      "phone": "",
      "license_no": "第032-000061号",
      "license_date": null,
      "expire_date": "2026-07-31"
    },
    {
      "name": "株式会社   フクダ",
      "name_kana": "",
      "business_type": "飲食店営業（その他）",
      "address": "伊佐市大口大田字高柳牟田１１７３－１",
      "lat": 32.075437,
      "lng": 130.604725,
      "geocoding_level": 3,
      "phone": "",
      "license_no": "第032-000070号",
      "license_date": null,
      "expire_date": "2026-10-31"
    },
    {
      "name": "有限会社  ファミリー企画",
      "name_kana": "",
      "business_type": "飲食店営業（その他）",
      "address": "伊佐市大口里８０５－６",
      "lat": 32.060611,
      "lng": 130.612974,
      "geocoding_level": 3,
      "phone": "",
      "license_no": "第032-000074号",
      "license_date": null,
      "expire_date": "2026-10-31"
    },
    {
      "name": "株式会社　シャッツフードカンパニー",
      "name_kana": "",
      "business_type": "そうざい製造業",
      "address": "伊佐市大口上町34－8",
      "lat": 32.061379,
      "lng": 130.606795,
      "geocoding_level": 3,
      "phone": "",
      "license_no": "第032-000075号",
      "license_date": null,
      "expire_date": "2026-10-31"
    },
    {
      "name": "株式会社　　新生",
      "name_kana": "",
      "business_type": "飲食店営業（その他）",
      "address": "伊佐市大口里３２０３－１",
      "lat": 32.063082221,
      "lng": 130.613646855,
      "geocoding_level": 8,
      "phone": "",
      "license_no": "第032-000016号",
      "license_date": null,
      "expire_date": "2026-04-30"
    },
    {
      "name": "株式会社　鍋倉工務店",
      "name_kana": "",
      "business_type": "飲食店営業（一般食堂・ﾚｽﾄﾗﾝ等）",
      "address": "伊佐市菱刈川北２２８０－１７",
      "lat": 31.987454818,
      "lng": 130.659658866,
      "geocoding_level": 8,
      "phone": "",
      "license_no": "第032-000085号",
      "license_date": null,
      "expire_date": "2026-10-31"
    },
    {
      "name": "重久　恵子",
      "name_kana": "",
      "business_type": "飲食店営業（仕出し屋・弁当屋）",
      "address": "伊佐市菱刈南浦３４３０－１",
      "lat": 31.989615057000005,
      "lng": 130.630761506,
      "geocoding_level": 8,
      "phone": "",
      "license_no": "第032-000088号",
      "license_date": null,
      "expire_date": "2026-10-31"
    },
    {
      "name": "重久　恵子",
      "name_kana": "",
      "business_type": "菓子製造業",
      "address": "伊佐市菱刈南浦３４３０－１",
      "lat": 31.989615057000005,
      "lng": 130.630761506,
      "geocoding_level": 8,
      "phone": "",
      "license_no": "第032-000089号",
      "license_date": null,
      "expire_date": "2026-10-31"
    },
    {
      "name": "藤崎  弘文",
      "name_kana": "",
      "business_type": "飲食店営業（その他）",
      "address": "伊佐市大口下殿１１１２－１",
      "lat": 32.024717198,
      "lng": 130.59541997,
      "geocoding_level": 8,
      "phone": "",
      "license_no": "第032-000092号",
      "license_date": null,
      "expire_date": "2026-10-31"
    },
    {
      "name": "株式会社  ながたや",
      "name_kana": "",
      "business_type": "食肉販売業",
      "address": "伊佐市大口里２８８－４",
      "lat": 32.060988903,
      "lng": 130.600610055,
      "geocoding_level": 8,
      "phone": "",
      "license_no": "第032-000098号",
      "license_date": null,
      "expire_date": "2027-01-31"
    },
    {
      "name": "株式会社  ながたや",
      "name_kana": "",
      "business_type": "魚介類販売業",
      "address": "伊佐市大口里２８８－４",
      "lat": 32.060988903,
      "lng": 130.600610055,
      "geocoding_level": 8,
      "phone": "",
      "license_no": "第032-000099号",
      "license_date": null,
      "expire_date": "2027-01-31"
    },
    {
      "name": "株式会社  ながたや",
      "name_kana": "",
      "business_type": "飲食店営業（一般食堂・ﾚｽﾄﾗﾝ等）",
      "address": "伊佐市大口上町２－１",
      "lat": 32.061379,
      "lng": 130.606795,
      "geocoding_level": 3,
      "phone": "",
      "license_no": "第032-000100号",
      "license_date": null,
      "expire_date": "2027-01-31"
    },
    {
      "name": "鹿児島県立伊佐農林高等学校",
      "name_kana": "",
      "business_type": "菓子製造業",
      "address": "伊佐市大口原田５７４",
      "lat": 32.04649,
      "lng": 130.620773,
      "geocoding_level": 3,
      "phone": "",
      "license_no": "第032-000101号",
      "license_date": null,
      "expire_date": "2027-01-31"
    },
    {
      "name": "鹿児島県立伊佐農林高等学校",
      "name_kana": "",
      "business_type": "清涼飲料水製造業",
      "address": "伊佐市大口原田５７４",
      "lat": 32.04649,
      "lng": 130.620773,
      "geocoding_level": 3,
      "phone": "",
      "license_no": "第032-000102号",
      "license_date": null,
      "expire_date": "2027-01-31"
    },
    {
      "name": "鹿児島県立伊佐農林高等学校",
      "name_kana": "",
      "business_type": "みそ製造業",
      "address": "伊佐市大口原田５７４",
      "lat": 32.04649,
      "lng": 130.620773,
      "geocoding_level": 3,
      "phone": "",
      "license_no": "第032-000103号",
      "license_date": null,
      "expire_date": "2027-01-31"
    },
    {
      "name": "鹿児島県立伊佐農林高等学校",
      "name_kana": "",
      "business_type": "そうざい製造業",
      "address": "伊佐市大口原田５７４",
      "lat": 32.04649,
      "lng": 130.620773,
      "geocoding_level": 3,
      "phone": "",
      "license_no": "第032-000104号",
      "license_date": null,
      "expire_date": "2027-01-31"
    },
    {
      "name": "鹿児島県立伊佐農林高等学校",
      "name_kana": "",
      "business_type": "缶詰又は瓶詰食品製造業",
      "address": "伊佐市大口原田５７４",
      "lat": 32.04649,
      "lng": 130.620773,
      "geocoding_level": 3,
      "phone": "",
      "license_no": "第032-000105号",
      "license_date": null,
      "expire_date": "2027-01-31"
    },
    {
      "name": "柏木  ます子",
      "name_kana": "",
      "business_type": "飲食店営業（一般食堂・ﾚｽﾄﾗﾝ等）",
      "address": "伊佐市大口元町８－２１",
      "lat": 32.058157,
      "lng": 130.608633,
      "geocoding_level": 3,
      "phone": "",
      "license_no": "第032-000117号",
      "license_date": null,
      "expire_date": "2027-01-31"
    },
    {
      "name": "柏木  ます子",
      "name_kana": "",
      "business_type": "飲食店営業（その他）",
      "address": "伊佐市大口元町８－２１",
      "lat": 32.058157,
      "lng": 130.608633,
      "geocoding_level": 3,
      "phone": "",
      "license_no": "第032-000118号",
      "license_date": null,
      "expire_date": "2027-01-31"
    },
    {
      "name": "有限会社  きました屋",
      "name_kana": "",
      "business_type": "飲食店営業（仕出し屋・弁当屋）",
      "address": "伊佐市大口上町１６－８番地",
      "lat": 32.061379,
      "lng": 130.606795,
      "geocoding_level": 3,
      "phone": "",
      "license_no": "第032-000119号",
      "license_date": null,
      "expire_date": "2027-01-31"
    },
    {
      "name": "有限会社  きました屋",
      "name_kana": "",
      "business_type": "魚介類販売業",
      "address": "伊佐市大口上町１６－８番地",
      "lat": 32.061379,
      "lng": 130.606795,
      "geocoding_level": 3,
      "phone": "",
      "license_no": "第032-000120号",
      "license_date": null,
      "expire_date": "2027-01-31"
    },
    {
      "name": "前田　美保子",
      "name_kana": "",
      "business_type": "飲食店営業（一般食堂・ﾚｽﾄﾗﾝ等）",
      "address": "伊佐市大口曽木１３１４",
      "lat": 32.008723096,
      "lng": 130.598456602,
      "geocoding_level": 8,
      "phone": "",
      "license_no": "第032-000122号",
      "license_date": null,
      "expire_date": "2027-01-31"
    },
    {
      "name": "有限会社  フジスミ産業",
      "name_kana": "",
      "business_type": "飲食店営業（その他）",
      "address": "伊佐市大口大島８６４番地３",
      "lat": 32.040569669,
      "lng": 130.596771068,
      "geocoding_level": 8,
      "phone": "",
      "license_no": "第032-000123号",
      "license_date": null,
      "expire_date": "2027-01-31"
    },
    {
      "name": "株式会社　迫田興産",
      "name_kana": "",
      "business_type": "飲食店営業（その他）",
      "address": "伊佐市大口目丸１３３－１",
      "lat": 32.053363659,
      "lng": 130.62108389,
      "geocoding_level": 8,
      "phone": "",
      "license_no": "第032-000127号",
      "license_date": null,
      "expire_date": "2027-01-31"
    },
    {
      "name": "村岡　強志",
      "name_kana": "",
      "business_type": "飲食店営業（その他）",
      "address": "伊佐市大口里５７４－１０",
      "lat": 32.056559385,
      "lng": 130.603995784,
      "geocoding_level": 8,
      "phone": "",
      "license_no": "第032-000129号",
      "license_date": null,
      "expire_date": "2027-01-31"
    },
    {
      "name": "永峰　まゆみ",
      "name_kana": "",
      "business_type": "飲食店営業（その他）",
      "address": "伊佐市菱刈重留１３９０－１",
      "lat": 32.037547853,
      "lng": 130.630502089,
      "geocoding_level": 8,
      "phone": "",
      "license_no": "第032-000132号",
      "license_date": null,
      "expire_date": "2027-01-31"
    },
    {
      "name": "溝辺  悟",
      "name_kana": "",
      "business_type": "飲食店営業（一般食堂・ﾚｽﾄﾗﾝ等）",
      "address": "伊佐市大口目丸１５４－３",
      "lat": 32.052369371,
      "lng": 130.62192685,
      "geocoding_level": 8,
      "phone": "",
      "license_no": "第032-000138号",
      "license_date": null,
      "expire_date": "2027-01-31"
    },
    {
      "name": "内村  幸市",
      "name_kana": "",
      "business_type": "菓子製造業",
      "address": "伊佐市大口平出水５９２",
      "lat": 32.080036102,
      "lng": 130.573269295,
      "geocoding_level": 8,
      "phone": "",
      "license_no": "第032-000140号",
      "license_date": null,
      "expire_date": "2026-04-30"
    },
    {
      "name": "井上　勇二",
      "name_kana": "",
      "business_type": "飲食店営業（一般食堂・ﾚｽﾄﾗﾝ等）",
      "address": "伊佐市大口上町４５－１８",
      "lat": 32.061379,
      "lng": 130.606795,
      "geocoding_level": 3,
      "phone": "",
      "license_no": "第033-000001号",
      "license_date": null,
      "expire_date": "2027-04-30"
    },
    {
      "name": "小屋敷　保子",
      "name_kana": "",
      "business_type": "飲食店営業（その他）",
      "address": "伊佐市大口里７７５番地２",
      "lat": 32.060611,
      "lng": 130.612974,
      "geocoding_level": 3,
      "phone": "",
      "license_no": "第033-000004号",
      "license_date": null,
      "expire_date": "2027-04-30"
    },
    {
      "name": "川﨑　壽夫",
      "name_kana": "",
      "business_type": "そうざい製造業",
      "address": "伊佐市菱刈川南１０８６",
      "lat": 31.975806000000002,
      "lng": 130.662659,
      "geocoding_level": 3,
      "phone": "",
      "license_no": "第033-000005号",
      "license_date": null,
      "expire_date": "2027-04-30"
    },
    {
      "name": "川﨑　壽夫",
      "name_kana": "",
      "business_type": "缶詰又は瓶詰食品製造業",
      "address": "伊佐市菱刈川南１０８６",
      "lat": 31.975806000000002,
      "lng": 130.662659,
      "geocoding_level": 3,
      "phone": "",
      "license_no": "第033-000006号",
      "license_date": null,
      "expire_date": "2027-04-30"
    },
    {
      "name": "岡元  由起",
      "name_kana": "",
      "business_type": "飲食店営業（その他）",
      "address": "伊佐市大口元町１９－７  １F",
      "lat": 32.058157,
      "lng": 130.608633,
      "geocoding_level": 3,
      "phone": "",
      "license_no": "第033-000009号",
      "license_date": null,
      "expire_date": "2027-04-30"
    },
    {
      "name": "富士産業株式会社",
      "name_kana": "",
      "business_type": "飲食店営業（一般食堂・ﾚｽﾄﾗﾝ等）",
      "address": "伊佐市大口宮人４６３－３０",
      "lat": 32.02589484500001,
      "lng": 130.57484458,
      "geocoding_level": 8,
      "phone": "",
      "license_no": "第033-000013号",
      "license_date": null,
      "expire_date": "2027-07-31"
    },
    {
      "name": "富士産業株式会社",
      "name_kana": "",
      "business_type": "飲食店営業（一般食堂・ﾚｽﾄﾗﾝ等）",
      "address": "伊佐市大口宮人４６３－３３",
      "lat": 32.024981396,
      "lng": 130.575422327,
      "geocoding_level": 8,
      "phone": "",
      "license_no": "第033-000014号",
      "license_date": null,
      "expire_date": "2027-07-31"
    },
    {
      "name": "宮脇  貴志",
      "name_kana": "",
      "business_type": "魚介類販売業",
      "address": "伊佐市大口大田１７４３番地",
      "lat": 32.075437,
      "lng": 130.604725,
      "geocoding_level": 3,
      "phone": "",
      "license_no": "第033-000016号",
      "license_date": null,
      "expire_date": "2027-07-31"
    },
    {
      "name": "有限会社  橋脇風月堂",
      "name_kana": "",
      "business_type": "菓子製造業",
      "address": "伊佐市大口上町９－３",
      "lat": 32.061379,
      "lng": 130.606795,
      "geocoding_level": 3,
      "phone": "",
      "license_no": "第033-000020号",
      "license_date": null,
      "expire_date": "2027-07-31"
    },
    {
      "name": "内園田  昌宏",
      "name_kana": "",
      "business_type": "飲食店営業（その他）",
      "address": "伊佐市菱刈荒田３２４７番地",
      "lat": 31.992633999999995,
      "lng": 130.626589,
      "geocoding_level": 3,
      "phone": "",
      "license_no": "第033-000021号",
      "license_date": null,
      "expire_date": "2026-07-31"
    },
    {
      "name": "株式会社  シャッツフードカンパニー",
      "name_kana": "",
      "business_type": "そうざい製造業",
      "address": "伊佐市大口上町３７－１７",
      "lat": 32.061379,
      "lng": 130.606795,
      "geocoding_level": 3,
      "phone": "",
      "license_no": "第033-000022号",
      "license_date": null,
      "expire_date": "2027-07-31"
    },
    {
      "name": "満元  真巨",
      "name_kana": "",
      "business_type": "菓子製造業",
      "address": "伊佐市大口篠原２２０１－１",
      "lat": 32.076626543,
      "lng": 130.623108679,
      "geocoding_level": 8,
      "phone": "",
      "license_no": "第033-000023号",
      "license_date": null,
      "expire_date": "2027-10-31"
    },
    {
      "name": "古閑  妙子",
      "name_kana": "",
      "business_type": "飲食店営業（その他）",
      "address": "伊佐市大口上町３２－１",
      "lat": 32.061379,
      "lng": 130.606795,
      "geocoding_level": 3,
      "phone": "",
      "license_no": "第033-000029号",
      "license_date": null,
      "expire_date": "2027-10-31"
    },
    {
      "name": "中村産業有限会社",
      "name_kana": "",
      "business_type": "飲食店営業（一般食堂・ﾚｽﾄﾗﾝ等）",
      "address": "伊佐市大口山野１９２０",
      "lat": 32.134575,
      "lng": 130.584914,
      "geocoding_level": 3,
      "phone": "",
      "license_no": "第033-000031号",
      "license_date": null,
      "expire_date": "2026-10-31"
    },
    {
      "name": "山口　智寛",
      "name_kana": "",
      "business_type": "飲食店営業（一般食堂・ﾚｽﾄﾗﾝ等）",
      "address": "伊佐市大口上町２４－６",
      "lat": 32.061379,
      "lng": 130.606795,
      "geocoding_level": 3,
      "phone": "",
      "license_no": "第033-000033号",
      "license_date": null,
      "expire_date": "2027-10-31"
    },
    {
      "name": "櫻井　美智子",
      "name_kana": "",
      "business_type": "飲食店営業（その他）",
      "address": "伊佐市大口里３０３８",
      "lat": 32.060611,
      "lng": 130.612974,
      "geocoding_level": 3,
      "phone": "",
      "license_no": "第033-000034号",
      "license_date": null,
      "expire_date": "2027-10-31"
    },
    {
      "name": "井上  ちづる",
      "name_kana": "",
      "business_type": "飲食店営業（一般食堂・ﾚｽﾄﾗﾝ等）",
      "address": "伊佐市大口里３０２８－３",
      "lat": 32.062968813,
      "lng": 130.609928363,
      "geocoding_level": 8,
      "phone": "",
      "license_no": "第033-000040号",
      "license_date": null,
      "expire_date": "2028-01-31"
    },
    {
      "name": "山口　智寛",
      "name_kana": "",
      "business_type": "菓子製造業",
      "address": "伊佐市大口元町２４－３",
      "lat": 32.058157,
      "lng": 130.608633,
      "geocoding_level": 3,
      "phone": "",
      "license_no": "第033-000043号",
      "license_date": null,
      "expire_date": "2028-01-31"
    },
    {
      "name": "株式会社　鍋倉工務店",
      "name_kana": "",
      "business_type": "漬物製造業",
      "address": "伊佐市菱刈川北２２８０－１７",
      "lat": 31.987454818,
      "lng": 130.659658866,
      "geocoding_level": 8,
      "phone": "",
      "license_no": "第033-000047号",
      "license_date": null,
      "expire_date": "2028-01-31"
    },
    {
      "name": "株式会社  シャッツフードカンパニー",
      "name_kana": "",
      "business_type": "食肉販売業",
      "address": "伊佐市大口上町３７－１７",
      "lat": 32.061379,
      "lng": 130.606795,
      "geocoding_level": 3,
      "phone": "",
      "license_no": "第033-000049号",
      "license_date": null,
      "expire_date": "2028-01-31"
    },
    {
      "name": "合同会社  善力",
      "name_kana": "",
      "business_type": "飲食店営業（一般食堂・ﾚｽﾄﾗﾝ等）",
      "address": "伊佐市大口目丸１５５－１",
      "lat": 32.052170341,
      "lng": 130.621637445,
      "geocoding_level": 8,
      "phone": "",
      "license_no": "第033-000051号",
      "license_date": null,
      "expire_date": "2028-01-31"
    },
    {
      "name": "株式会社  エスポワール",
      "name_kana": "",
      "business_type": "飲食店営業（一般食堂・ﾚｽﾄﾗﾝ等）",
      "address": "伊佐市大口上町４６－１２",
      "lat": 32.061379,
      "lng": 130.606795,
      "geocoding_level": 3,
      "phone": "",
      "license_no": "第033-000052号",
      "license_date": null,
      "expire_date": "2028-01-31"
    },
    {
      "name": "鹿児島県立伊佐農林高等学校",
      "name_kana": "",
      "business_type": "食肉製品製造業",
      "address": "伊佐市大口原田５７４",
      "lat": 32.04649,
      "lng": 130.620773,
      "geocoding_level": 3,
      "phone": "",
      "license_no": "第033-000053号",
      "license_date": null,
      "expire_date": "2028-01-31"
    },
    {
      "name": "梶木　レイ子",
      "name_kana": "",
      "business_type": "飲食店営業（一般食堂・ﾚｽﾄﾗﾝ等）",
      "address": "伊佐市大口宮人６２７－２１",
      "lat": 32.013509983,
      "lng": 130.577264839,
      "geocoding_level": 8,
      "phone": "",
      "license_no": "第033-000054号",
      "license_date": null,
      "expire_date": "2027-01-31"
    },
    {
      "name": "溝口　和枝",
      "name_kana": "",
      "business_type": "飲食店営業（その他）",
      "address": "伊佐市大口元町２１－２",
      "lat": 32.058157,
      "lng": 130.608633,
      "geocoding_level": 3,
      "phone": "",
      "license_no": "第033-000055号",
      "license_date": null,
      "expire_date": "2028-01-31"
    },
    {
      "name": "松元　イク",
      "name_kana": "",
      "business_type": "飲食店営業（一般食堂・ﾚｽﾄﾗﾝ等）",
      "address": "伊佐市大口山野５２３５－２",
      "lat": 32.098563096,
      "lng": 130.578014805,
      "geocoding_level": 8,
      "phone": "",
      "license_no": "第033-000057号",
      "license_date": null,
      "expire_date": "2027-01-31"
    },
    {
      "name": "西　博達",
      "name_kana": "",
      "business_type": "飲食店営業（一般食堂・ﾚｽﾄﾗﾝ等）",
      "address": "伊佐市大口篠原１８６６－５",
      "lat": 32.071638076,
      "lng": 130.635885483,
      "geocoding_level": 8,
      "phone": "",
      "license_no": "第033-000058号",
      "license_date": null,
      "expire_date": "2027-01-31"
    },
    {
      "name": "宮脇　和生",
      "name_kana": "",
      "business_type": "飲食店営業（一般食堂・ﾚｽﾄﾗﾝ等）",
      "address": "伊佐市大口曽木５２２－３",
      "lat": 32.01292468,
      "lng": 130.601307443,
      "geocoding_level": 8,
      "phone": "",
      "license_no": "第033-000061号",
      "license_date": null,
      "expire_date": "2028-01-31"
    },
    {
      "name": "穂満　一女",
      "name_kana": "",
      "business_type": "飲食店営業（一般食堂・ﾚｽﾄﾗﾝ等）",
      "address": "伊佐市大口里１２６－６",
      "lat": 32.06335814,
      "lng": 130.604215396,
      "geocoding_level": 8,
      "phone": "",
      "license_no": "第033-000062号",
      "license_date": null,
      "expire_date": "2028-01-31"
    },
    {
      "name": "東　幸子",
      "name_kana": "",
      "business_type": "飲食店営業（一般食堂・ﾚｽﾄﾗﾝ等）",
      "address": "伊佐市菱刈重留５３７",
      "lat": 32.028047203,
      "lng": 130.634010902,
      "geocoding_level": 8,
      "phone": "",
      "license_no": "第033-000063号",
      "license_date": null,
      "expire_date": "2028-01-31"
    },
    {
      "name": "山口　智子",
      "name_kana": "",
      "business_type": "飲食店営業（一般食堂・ﾚｽﾄﾗﾝ等）",
      "address": "伊佐市大口元町１４－９",
      "lat": 32.058157,
      "lng": 130.608633,
      "geocoding_level": 3,
      "phone": "",
      "license_no": "第033-000065号",
      "license_date": null,
      "expire_date": "2028-04-30"
    },
    {
      "name": "崎迫  美雪",
      "name_kana": "",
      "business_type": "飲食店営業（一般食堂・ﾚｽﾄﾗﾝ等）",
      "address": "伊佐市大口里５４１－１",
      "lat": 32.058751034,
      "lng": 130.604528706,
      "geocoding_level": 8,
      "phone": "",
      "license_no": "第033-000067号",
      "license_date": null,
      "expire_date": "2028-04-30"
    },
    {
      "name": "有限会社宮迫産業",
      "name_kana": "",
      "business_type": "そうざい製造業",
      "address": "伊佐市大口里４７９－１",
      "lat": 32.060466609,
      "lng": 130.604642398,
      "geocoding_level": 8,
      "phone": "",
      "license_no": "第033-000068号",
      "license_date": null,
      "expire_date": "2028-04-30"
    },
    {
      "name": "宮内  トヨ子",
      "name_kana": "",
      "business_type": "飲食店営業（その他）",
      "address": "伊佐市菱刈重留５７８－１",
      "lat": 32.023744285,
      "lng": 130.634114978,
      "geocoding_level": 8,
      "phone": "",
      "license_no": "第033-000069号",
      "license_date": null,
      "expire_date": "2028-04-30"
    },
    {
      "name": "林  峻平",
      "name_kana": "",
      "business_type": "飲食店営業（一般食堂・ﾚｽﾄﾗﾝ等）",
      "address": "伊佐市大口渕辺３０３番地",
      "lat": 32.083206662,
      "lng": 130.584485054,
      "geocoding_level": 8,
      "phone": "",
      "license_no": "第033-000070号",
      "license_date": null,
      "expire_date": "2028-04-30"
    },
    {
      "name": "古澤  博文",
      "name_kana": "",
      "business_type": "そうざい製造業",
      "address": "伊佐市大口里７６５－１",
      "lat": 32.05728398,
      "lng": 130.607359208,
      "geocoding_level": 8,
      "phone": "",
      "license_no": "第033-000072号",
      "license_date": null,
      "expire_date": "2028-04-30"
    },
    {
      "name": "株式会社アペックス西日本",
      "name_kana": "",
      "business_type": "喫茶店営業",
      "address": "伊佐市大口牛尾１７５５－２",
      "lat": 32.103722686,
      "lng": 130.621477406,
      "geocoding_level": 8,
      "phone": "",
      "license_no": "第031-000196号",
      "license_date": null,
      "expire_date": "2026-01-31"
    },
    {
      "name": "株式会社アペックス西日本",
      "name_kana": "",
      "business_type": "喫茶店営業",
      "address": "伊佐市大口牛尾１７５５－２",
      "lat": 32.103722686,
      "lng": 130.621477406,
      "geocoding_level": 8,
      "phone": "",
      "license_no": "第031-000197号",
      "license_date": null,
      "expire_date": "2026-01-31"
    },
    {
      "name": "株式会社　　サツマ商事",
      "name_kana": "",
      "business_type": "飲食店営業（旅館）",
      "address": "伊佐市大口山野川内１９３６－１",
      "lat": 32.134575,
      "lng": 130.584914,
      "geocoding_level": 3,
      "phone": "",
      "license_no": "第032-000007号",
      "license_date": null,
      "expire_date": "2026-04-30"
    },
    {
      "name": "株式会社　アペックス西日本",
      "name_kana": "",
      "business_type": "喫茶店営業",
      "address": "伊佐市大口里１８８８",
      "lat": 32.056997738,
      "lng": 130.613153561,
      "geocoding_level": 8,
      "phone": "",
      "license_no": "第032-000065号",
      "license_date": null,
      "expire_date": "2026-07-31"
    },
    {
      "name": "株式会社　アペックス西日本",
      "name_kana": "",
      "business_type": "喫茶店営業",
      "address": "伊佐市大口牛尾１７５５－２",
      "lat": 32.103722686,
      "lng": 130.621477406,
      "geocoding_level": 8,
      "phone": "",
      "license_no": "第032-000135号",
      "license_date": null,
      "expire_date": "2027-01-31"
    },
    {
      "name": "下田　祥一",
      "name_kana": "",
      "business_type": "飲食店営業（その他）",
      "address": "伊佐市菱刈南浦２９１－５（鹿児島市を除く県内一円）",
      "lat": 31.986932594,
      "lng": 130.637917565,
      "geocoding_level": 8,
      "phone": "",
      "license_no": "第033-000007号",
      "license_date": null,
      "expire_date": "2026-04-30"
    },
    {
      "name": "株式会社　アペックス西日本",
      "name_kana": "",
      "business_type": "喫茶店営業",
      "address": "伊佐市大口里２６７０",
      "lat": 32.066113076,
      "lng": 130.613932019,
      "geocoding_level": 8,
      "phone": "",
      "license_no": "第033-000012号",
      "license_date": null,
      "expire_date": "2027-04-30"
    },
    {
      "name": "前田　洋子",
      "name_kana": "",
      "business_type": "飲食店営業（その他）",
      "address": "伊佐市大口原田６１１－２（鹿児島市を除く県内一円）",
      "lat": 32.050586004,
      "lng": 130.62416778,
      "geocoding_level": 8,
      "phone": "",
      "license_no": "第033-000056号",
      "license_date": null,
      "expire_date": "2027-01-31"
    },
    {
      "name": "株式会社アペックス西日本",
      "name_kana": "",
      "business_type": "喫茶店営業",
      "address": "伊佐市大口牛尾１７５５－２",
      "lat": 32.103722686,
      "lng": 130.621477406,
      "geocoding_level": 8,
      "phone": "",
      "license_no": "第032-000066号",
      "license_date": null,
      "expire_date": "2026-10-31"
    },
    {
      "name": "村中　裕子",
      "name_kana": "",
      "business_type": "そうざい製造業",
      "address": "伊佐市大口小木原６９１－７１",
      "lat": 32.105754628,
      "lng": 130.599797844,
      "geocoding_level": 8,
      "phone": "",
      "license_no": "第033-000046号",
      "license_date": null,
      "expire_date": "2028-01-31"
    },
    {
      "name": "村中　裕子",
      "name_kana": "",
      "business_type": "飲食店営業（その他）",
      "address": "伊佐市大口小木原６９１－７１",
      "lat": 32.105754628,
      "lng": 130.599797844,
      "geocoding_level": 8,
      "phone": "",
      "license_no": "第033-000018号",
      "license_date": null,
      "expire_date": "2027-07-31"
    },
    {
      "name": "康正産業株式会社",
      "name_kana": "",
      "business_type": "飲食店営業（一般食堂・ﾚｽﾄﾗﾝ等）",
      "address": "伊佐市大口里西水流５５０番地",
      "lat": 32.060611,
      "lng": 130.612974,
      "geocoding_level": 3,
      "phone": "",
      "license_no": "第032-000062号",
      "license_date": null,
      "expire_date": "2026-07-31"
    },
    {
      "name": "古澤  博文",
      "name_kana": "",
      "business_type": "飲食店営業（その他）",
      "address": "伊佐市大口里７６５－１",
      "lat": 32.05728398,
      "lng": 130.607359208,
      "geocoding_level": 8,
      "phone": "",
      "license_no": "第032-000083号",
      "license_date": null,
      "expire_date": "2026-10-31"
    },
    {
      "name": "中村産業有限会社",
      "name_kana": "",
      "business_type": "そうざい製造業",
      "address": "伊佐市大口山野１９２０",
      "lat": 32.134575,
      "lng": 130.584914,
      "geocoding_level": 3,
      "phone": "",
      "license_no": "第033-000071号",
      "license_date": null,
      "expire_date": "2027-04-30"
    },
    {
      "name": "社会福祉法人　慈　和　会",
      "name_kana": "",
      "business_type": "菓子製造業",
      "address": "伊佐市大口大田１２４－３",
      "lat": 32.06604636,
      "lng": 130.602037866,
      "geocoding_level": 8,
      "phone": "",
      "license_no": "第033-000003号",
      "license_date": null,
      "expire_date": "2027-04-30"
    },
    {
      "name": "社会福祉法人　慈　和　会",
      "name_kana": "",
      "business_type": "飲食店営業（その他）",
      "address": "伊佐市大口大田１２４－３",
      "lat": 32.06604636,
      "lng": 130.602037866,
      "geocoding_level": 8,
      "phone": "",
      "license_no": "第033-000002号",
      "license_date": null,
      "expire_date": "2027-04-30"
    },
    {
      "name": "社会福祉法人　慈和会",
      "name_kana": "",
      "business_type": "みそ製造業",
      "address": "伊佐市大口大田１２４の１",
      "lat": 32.066317108,
      "lng": 130.601999104,
      "geocoding_level": 8,
      "phone": "",
      "license_no": "第031-000183号",
      "license_date": null,
      "expire_date": "2026-01-31"
    },
    {
      "name": "社会福祉法人　慈和会",
      "name_kana": "",
      "business_type": "飲食店営業（仕出し屋・弁当屋）",
      "address": "伊佐市大口大田１２４の１",
      "lat": 32.066317108,
      "lng": 130.601999104,
      "geocoding_level": 8,
      "phone": "",
      "license_no": "第031-000182号",
      "license_date": null,
      "expire_date": "2026-01-31"
    },
    {
      "name": "有限会社なりざわ",
      "name_kana": "",
      "business_type": "魚介類販売業",
      "address": "伊佐市大口堂崎５２５－３６",
      "lat": 32.032058229,
      "lng": 130.595949732,
      "geocoding_level": 8,
      "phone": "",
      "license_no": "第032-000048号",
      "license_date": null,
      "expire_date": "2026-07-31"
    },
    {
      "name": "有限会社  なりざわ",
      "name_kana": "",
      "business_type": "菓子製造業",
      "address": "伊佐市大口堂崎５２５番地３６",
      "lat": 32.032058229,
      "lng": 130.595949732,
      "geocoding_level": 8,
      "phone": "",
      "license_no": "第033-000017号",
      "license_date": null,
      "expire_date": "2027-07-31"
    },
    {
      "name": "有限会社　なりざわ",
      "name_kana": "",
      "business_type": "豆腐製造業",
      "address": "伊佐市大口堂崎５２５－３６",
      "lat": 32.032058229,
      "lng": 130.595949732,
      "geocoding_level": 8,
      "phone": "",
      "license_no": "第034-000012号",
      "license_date": null,
      "expire_date": "2028-04-30"
    },
    {
      "name": "株式会社プランニングフーヅ",
      "name_kana": "",
      "business_type": "飲食店営業（一般食堂・ﾚｽﾄﾗﾝ等）",
      "address": "伊佐市大口里３５４",
      "lat": 32.060611,
      "lng": 130.612974,
      "geocoding_level": 3,
      "phone": "",
      "license_no": "第033-000015号",
      "license_date": null,
      "expire_date": "2027-07-31"
    },
    {
      "name": "小辻　千礼",
      "name_kana": "",
      "business_type": "菓子製造業",
      "address": "伊佐市大口大田２３３２－６４１",
      "lat": 32.072538367,
      "lng": 130.60529077,
      "geocoding_level": 8,
      "phone": "",
      "license_no": "第034-000107号",
      "license_date": null,
      "expire_date": "2029-01-31"
    },
    {
      "name": "堂園　一子",
      "name_kana": "",
      "business_type": "麺類製造業",
      "address": "伊佐市大口下殿１５７１",
      "lat": 32.016607833,
      "lng": 130.598596057,
      "geocoding_level": 8,
      "phone": "",
      "license_no": "第034-000108号",
      "license_date": null,
      "expire_date": "2029-01-31"
    },
    {
      "name": "山口　智子",
      "name_kana": "",
      "business_type": "そうざい製造業",
      "address": "伊佐市大口牛尾１７２９－３",
      "lat": 32.101215336,
      "lng": 130.620951747,
      "geocoding_level": 8,
      "phone": "",
      "license_no": "第034-000109号",
      "license_date": null,
      "expire_date": "2029-01-31"
    },
    {
      "name": "山口　智子",
      "name_kana": "",
      "business_type": "密封包装食品製造業",
      "address": "伊佐市大口牛尾１７２９－３",
      "lat": 32.101215336,
      "lng": 130.620951747,
      "geocoding_level": 8,
      "phone": "",
      "license_no": "第034-000110号",
      "license_date": null,
      "expire_date": "2029-01-31"
    },
    {
      "name": "森　三千夫",
      "name_kana": "",
      "business_type": "魚介類販売業",
      "address": "伊佐市大口元町１４－１５ （鹿児島市を除く鹿児島県内一円）",
      "lat": 32.058157,
      "lng": 130.608633,
      "geocoding_level": 3,
      "phone": "",
      "license_no": "第034-000111号",
      "license_date": null,
      "expire_date": "2029-01-31"
    },
    {
      "name": "野村　治男",
      "name_kana": "",
      "business_type": "麺類製造業",
      "address": "伊佐市菱刈下手２４０４－１",
      "lat": 32.024825714,
      "lng": 130.604008837,
      "geocoding_level": 8,
      "phone": "",
      "license_no": "第034-000112号",
      "license_date": null,
      "expire_date": "2029-01-31"
    },
    {
      "name": "向江　若狭",
      "name_kana": "",
      "business_type": "飲食店営業（その他）",
      "address": "伊佐市大口上町１５－４　鳥希ビル１階",
      "lat": 32.061379,
      "lng": 130.606795,
      "geocoding_level": 3,
      "phone": "",
      "license_no": "第034-000114号",
      "license_date": null,
      "expire_date": "2029-04-30"
    },
    {
      "name": "森　三千夫",
      "name_kana": "",
      "business_type": "魚介類販売業",
      "address": "伊佐市大口元町１４－１５ （鹿児島市を除く鹿児島県内一円）",
      "lat": 32.058157,
      "lng": 130.608633,
      "geocoding_level": 3,
      "phone": "",
      "license_no": "第034-000121号",
      "license_date": null,
      "expire_date": "2029-04-30"
    },
    {
      "name": "村中　裕子",
      "name_kana": "",
      "business_type": "飲食店営業（一般食堂・ﾚｽﾄﾗﾝ等）",
      "address": "伊佐市大口小木原９５５番地",
      "lat": 32.116794,
      "lng": 130.620284,
      "geocoding_level": 3,
      "phone": "",
      "license_no": "第034-000123号",
      "license_date": null,
      "expire_date": "2029-04-30"
    },
    {
      "name": "薗田　浩樹",
      "name_kana": "",
      "business_type": "そうざい製造業",
      "address": "伊佐市菱刈徳辺２２６７－１",
      "lat": 32.009605928,
      "lng": 130.658780511,
      "geocoding_level": 8,
      "phone": "",
      "license_no": "第034-000138号",
      "license_date": null,
      "expire_date": "2029-04-30"
    },
    {
      "name": "下西　喜一郎",
      "name_kana": "",
      "business_type": "飲食店営業（一般食堂・ﾚｽﾄﾗﾝ等）",
      "address": "伊佐市菱刈前目１８２６",
      "lat": 32.015091,
      "lng": 130.685798,
      "geocoding_level": 3,
      "phone": "",
      "license_no": "第035-000005号",
      "license_date": null,
      "expire_date": "2029-04-30"
    },
    {
      "name": "北渡瀬　敏三",
      "name_kana": "",
      "business_type": "飲食店営業（一般食堂・ﾚｽﾄﾗﾝ等）",
      "address": "伊佐市菱刈徳辺２２４４－１",
      "lat": 32.008119463,
      "lng": 130.659896744,
      "geocoding_level": 8,
      "phone": "",
      "license_no": "第035-000006号",
      "license_date": null,
      "expire_date": "2029-04-30"
    },
    {
      "name": "川口　光代",
      "name_kana": "",
      "business_type": "飲食店営業（仕出し屋・弁当屋）",
      "address": "伊佐市菱刈前目１８１９番１",
      "lat": 32.014637371,
      "lng": 130.639230675,
      "geocoding_level": 8,
      "phone": "",
      "license_no": "第035-000007号",
      "license_date": null,
      "expire_date": "2029-04-30"
    },
    {
      "name": "高松　利幸",
      "name_kana": "",
      "business_type": "飲食店営業（一般食堂・ﾚｽﾄﾗﾝ等）",
      "address": "伊佐市大口上町２－３",
      "lat": 32.061379,
      "lng": 130.606795,
      "geocoding_level": 3,
      "phone": "",
      "license_no": "第035-000008号",
      "license_date": null,
      "expire_date": "2029-04-30"
    },
    {
      "name": "永田　成人",
      "name_kana": "",
      "business_type": "飲食店営業（一般食堂・ﾚｽﾄﾗﾝ等）",
      "address": "伊佐市大口上町３６－９",
      "lat": 32.061379,
      "lng": 130.606795,
      "geocoding_level": 3,
      "phone": "",
      "license_no": "第035-000010号",
      "license_date": null,
      "expire_date": "2029-04-30"
    },
    {
      "name": "奥薗　勝美",
      "name_kana": "",
      "business_type": "飲食店営業（その他）",
      "address": "伊佐市大口下殿１１７８－１",
      "lat": 32.023935245,
      "lng": 130.596164925,
      "geocoding_level": 8,
      "phone": "",
      "license_no": "第035-000011号",
      "license_date": null,
      "expire_date": "2028-04-30"
    },
    {
      "name": "宮脇　和生",
      "name_kana": "",
      "business_type": "飲食店営業（その他）",
      "address": "伊佐市大口曽木５２２－２ （鹿児島市を除く県内一円）",
      "lat": 32.012658383,
      "lng": 130.601513645,
      "geocoding_level": 8,
      "phone": "",
      "license_no": "第035-000001号",
      "license_date": null,
      "expire_date": "2028-04-30"
    },
    {
      "name": "池上　小織",
      "name_kana": "",
      "business_type": "飲食店営業（旅館）",
      "address": "伊佐市大口大田６７",
      "lat": 32.075437,
      "lng": 130.604725,
      "geocoding_level": 3,
      "phone": "",
      "license_no": "第035-000012号",
      "license_date": null,
      "expire_date": "2028-04-30"
    },
    {
      "name": "西ノ原　弘",
      "name_kana": "",
      "business_type": "飲食店営業（その他）",
      "address": "伊佐市大口元町１３－３ (鹿児島市を除く県内一円)",
      "lat": 32.058157,
      "lng": 130.608633,
      "geocoding_level": 3,
      "phone": "",
      "license_no": "第035-000017号",
      "license_date": null,
      "expire_date": "2029-07-31"
    },
    {
      "name": "湯ノ上  誠",
      "name_kana": "",
      "business_type": "飲食店営業（その他）",
      "address": "伊佐市大口篠原８０５－１１ （鹿児島市を除く県内一円）",
      "lat": 32.068687861,
      "lng": 130.618173055,
      "geocoding_level": 8,
      "phone": "",
      "license_no": "第035-000018号",
      "license_date": null,
      "expire_date": "2028-07-31"
    },
    {
      "name": "日清医療食品  株式会社",
      "name_kana": "",
      "business_type": "飲食店営業（一般食堂・ﾚｽﾄﾗﾝ等）",
      "address": "伊佐市菱刈前目２１２５",
      "lat": 32.015091,
      "lng": 130.685798,
      "geocoding_level": 3,
      "phone": "",
      "license_no": "第032-000141号",
      "license_date": null,
      "expire_date": "2027-04-30"
    },
    {
      "name": "日清医療食品  株式会社",
      "name_kana": "",
      "business_type": "飲食店営業（一般食堂・ﾚｽﾄﾗﾝ等）",
      "address": "伊佐市大口大田６８",
      "lat": 32.075437,
      "lng": 130.604725,
      "geocoding_level": 3,
      "phone": "",
      "license_no": "第032-000145号",
      "license_date": null,
      "expire_date": "2027-04-30"
    },
    {
      "name": "大迫　美佐子",
      "name_kana": "",
      "business_type": "飲食店営業（その他）",
      "address": "伊佐市大口上町３３－１",
      "lat": 32.061379,
      "lng": 130.606795,
      "geocoding_level": 3,
      "phone": "",
      "license_no": "第035-000019号",
      "license_date": null,
      "expire_date": "2028-07-31"
    },
    {
      "name": "株式会社　檜乃香",
      "name_kana": "",
      "business_type": "菓子製造業",
      "address": "伊佐市菱刈南浦３２７９－９",
      "lat": 31.988323421000004,
      "lng": 130.632455642,
      "geocoding_level": 8,
      "phone": "",
      "license_no": "第033-000035号",
      "license_date": null,
      "expire_date": "2027-10-31"
    },
    {
      "name": "公益社団法人　伊佐市シルバー人材センター",
      "name_kana": "",
      "business_type": "飲食店営業（その他）",
      "address": "伊佐市大口上町３４番地１０",
      "lat": 32.061379,
      "lng": 130.606795,
      "geocoding_level": 3,
      "phone": "",
      "license_no": "第035-000022号",
      "license_date": null,
      "expire_date": "2029-07-31"
    },
    {
      "name": "コンパスグループ・ジャパン株式会社",
      "name_kana": "",
      "business_type": "飲食店営業（一般食堂・ﾚｽﾄﾗﾝ等）",
      "address": "伊佐市大口牛尾１７５５－２",
      "lat": 32.103722686,
      "lng": 130.621477406,
      "geocoding_level": 8,
      "phone": "",
      "license_no": "第035-000025号",
      "license_date": null,
      "expire_date": "2029-07-31"
    },
    {
      "name": "堀尾智春",
      "name_kana": "",
      "business_type": "飲食店営業（その他）",
      "address": "伊佐市大口上町１４－１２",
      "lat": 32.061379,
      "lng": 130.606795,
      "geocoding_level": 3,
      "phone": "",
      "license_no": "第035-000026号",
      "license_date": null,
      "expire_date": "2028-07-31"
    },
    {
      "name": "益園　洋司",
      "name_kana": "",
      "business_type": "飲食店営業（その他）",
      "address": "伊佐市大口目丸６２９－１ （鹿児島市を除く県内一円）",
      "lat": 32.056179743,
      "lng": 130.621262065,
      "geocoding_level": 8,
      "phone": "",
      "license_no": "第035-000027号",
      "license_date": null,
      "expire_date": "2029-07-31"
    },
    {
      "name": "永田　裕子",
      "name_kana": "",
      "business_type": "飲食店営業（その他）",
      "address": "伊佐市大口上町３２－２",
      "lat": 32.061379,
      "lng": 130.606795,
      "geocoding_level": 3,
      "phone": "",
      "license_no": "第035-000028号",
      "license_date": null,
      "expire_date": "2029-07-31"
    },
    {
      "name": "コンパスグループ・ジャパン株式会社",
      "name_kana": "",
      "business_type": "飲食店営業（一般食堂・ﾚｽﾄﾗﾝ等）",
      "address": "伊佐市大口里１５６４－５",
      "lat": 32.048652556,
      "lng": 130.610606011,
      "geocoding_level": 8,
      "phone": "",
      "license_no": "第035-000029号",
      "license_date": null,
      "expire_date": "2029-07-31"
    },
    {
      "name": "北山　　信子",
      "name_kana": "",
      "business_type": "飲食店営業（その他）",
      "address": "伊佐市菱刈田中８２２",
      "lat": 32.036582017,
      "lng": 130.646320268,
      "geocoding_level": 8,
      "phone": "",
      "license_no": "第035-000030号",
      "license_date": null,
      "expire_date": "2028-07-31"
    },
    {
      "name": "北山　　信子",
      "name_kana": "",
      "business_type": "食肉販売業",
      "address": "伊佐市菱刈田中８２２",
      "lat": 32.036582017,
      "lng": 130.646320268,
      "geocoding_level": 8,
      "phone": "",
      "license_no": "第035-000031号",
      "license_date": null,
      "expire_date": "2028-07-31"
    },
    {
      "name": "下原田　均",
      "name_kana": "",
      "business_type": "飲食店営業（一般食堂・ﾚｽﾄﾗﾝ等）",
      "address": "伊佐市大口原田１１２１－２",
      "lat": 32.043038955,
      "lng": 130.613602535,
      "geocoding_level": 8,
      "phone": "",
      "license_no": "第035-000032号",
      "license_date": null,
      "expire_date": "2028-07-31"
    },
    {
      "name": "下原田　均",
      "name_kana": "",
      "business_type": "飲食店営業（その他）",
      "address": "伊佐市大口原田１１２１－２ （鹿児島市を除く県内一円）",
      "lat": 32.043038955,
      "lng": 130.613602535,
      "geocoding_level": 8,
      "phone": "",
      "license_no": "第035-000033号",
      "license_date": null,
      "expire_date": "2028-07-31"
    },
    {
      "name": "有限会社なりざわ",
      "name_kana": "",
      "business_type": "食肉販売業",
      "address": "伊佐市大口堂崎５２５－３６",
      "lat": 32.032058229,
      "lng": 130.595949732,
      "geocoding_level": 8,
      "phone": "",
      "license_no": "第032-000047号",
      "license_date": null,
      "expire_date": "2026-07-31"
    },
    {
      "name": "株式会社　ニシムタ",
      "name_kana": "",
      "business_type": "食肉販売業",
      "address": "伊佐市大口大島１２７０番１号",
      "lat": 32.052613636,
      "lng": 130.599489234,
      "geocoding_level": 8,
      "phone": "",
      "license_no": "第034-000069号",
      "license_date": null,
      "expire_date": "2028-10-31"
    },
    {
      "name": "株式会社　増元精肉店",
      "name_kana": "",
      "business_type": "食肉販売業",
      "address": "伊佐市大口上町5－10",
      "lat": 32.061379,
      "lng": 130.606795,
      "geocoding_level": 3,
      "phone": "",
      "license_no": "第034-000032号",
      "license_date": null,
      "expire_date": "2028-07-31"
    },
    {
      "name": "大丸　浩二",
      "name_kana": "",
      "business_type": "飲食店営業（一般食堂・ﾚｽﾄﾗﾝ等）",
      "address": "伊佐市菱刈川北２１４６－１１",
      "lat": 31.984359208,
      "lng": 130.660574597,
      "geocoding_level": 8,
      "phone": "",
      "license_no": "第035-000044号",
      "license_date": null,
      "expire_date": "2028-10-31"
    },
    {
      "name": "新留　智子",
      "name_kana": "",
      "business_type": "飲食店営業（一般食堂・ﾚｽﾄﾗﾝ等）",
      "address": "伊佐市大口白木６９８",
      "lat": 32.06085,
      "lng": 130.54686800000002,
      "geocoding_level": 3,
      "phone": "",
      "license_no": "第035-000045号",
      "license_date": null,
      "expire_date": "2028-10-31"
    },
    {
      "name": "新留　智子",
      "name_kana": "",
      "business_type": "菓子製造業",
      "address": "伊佐市大口白木６９８",
      "lat": 32.06085,
      "lng": 130.54686800000002,
      "geocoding_level": 3,
      "phone": "",
      "license_no": "第035-000046号",
      "license_date": null,
      "expire_date": "2028-10-31"
    },
    {
      "name": "（株）グリーンネットワークとどろき",
      "name_kana": "",
      "business_type": "飲食店営業（一般食堂・ﾚｽﾄﾗﾝ等）",
      "address": "伊佐市菱刈南浦３３２７",
      "lat": 31.985265712,
      "lng": 130.629406287,
      "geocoding_level": 8,
      "phone": "",
      "license_no": "第035-000048号",
      "license_date": null,
      "expire_date": "2029-10-31"
    },
    {
      "name": "森　三千夫",
      "name_kana": "",
      "business_type": "飲食店営業（その他）",
      "address": "伊佐市大口元町１４－１５",
      "lat": 32.058157,
      "lng": 130.608633,
      "geocoding_level": 3,
      "phone": "",
      "license_no": "第035-000083号",
      "license_date": null,
      "expire_date": "2029-10-31"
    },
    {
      "name": "森　三千夫",
      "name_kana": "",
      "business_type": "魚介類販売業",
      "address": "伊佐市大口元町１４－１５",
      "lat": 32.058157,
      "lng": 130.608633,
      "geocoding_level": 3,
      "phone": "",
      "license_no": "第035-000084号",
      "license_date": null,
      "expire_date": "2029-10-31"
    },
    {
      "name": "有限会社　大宮司薬局",
      "name_kana": "",
      "business_type": "清涼飲料水製造業",
      "address": "伊佐市大口里３０３９－３",
      "lat": 32.062645973,
      "lng": 130.609199081,
      "geocoding_level": 8,
      "phone": "",
      "license_no": "第035-000087号",
      "license_date": null,
      "expire_date": "2029-10-31"
    },
    {
      "name": "有限会社　めるへん",
      "name_kana": "",
      "business_type": "飲食店営業（その他）",
      "address": "伊佐市大口里７１８－１",
      "lat": 32.056875206,
      "lng": 130.606441355,
      "geocoding_level": 8,
      "phone": "",
      "license_no": "第035-000088号",
      "license_date": null,
      "expire_date": "2029-10-31"
    },
    {
      "name": "井手原　奈美",
      "name_kana": "",
      "business_type": "飲食店営業（一般食堂・ﾚｽﾄﾗﾝ等）",
      "address": "伊佐市菱刈下手２７４３－１",
      "lat": 32.032366596,
      "lng": 130.615910862,
      "geocoding_level": 8,
      "phone": "",
      "license_no": "第035-000089号",
      "license_date": null,
      "expire_date": "2029-10-31"
    },
    {
      "name": "井手原　奈美",
      "name_kana": "",
      "business_type": "菓子製造業",
      "address": "伊佐市菱刈下手２７４３－１",
      "lat": 32.032366596,
      "lng": 130.615910862,
      "geocoding_level": 8,
      "phone": "",
      "license_no": "第035-000090号",
      "license_date": null,
      "expire_date": "2029-10-31"
    },
    {
      "name": "坂元  一臣",
      "name_kana": "",
      "business_type": "飲食店営業（その他）",
      "address": "伊佐市大口里７７５－２　１F",
      "lat": 32.060611,
      "lng": 130.612974,
      "geocoding_level": 3,
      "phone": "",
      "license_no": "第035-000078号",
      "license_date": null,
      "expire_date": "2028-10-31"
    },
    {
      "name": "株式会社　檜乃香",
      "name_kana": "",
      "business_type": "そうざい製造業",
      "address": "伊佐市菱刈南浦３２７９－９",
      "lat": 31.988323421000004,
      "lng": 130.632455642,
      "geocoding_level": 8,
      "phone": "",
      "license_no": "第035-000100号",
      "license_date": null,
      "expire_date": "2029-10-31"
    },
    {
      "name": "株式会社　檜乃香",
      "name_kana": "",
      "business_type": "漬物製造業",
      "address": "伊佐市菱刈南浦３２７９－９",
      "lat": 31.988323421000004,
      "lng": 130.632455642,
      "geocoding_level": 8,
      "phone": "",
      "license_no": "第035-000101号",
      "license_date": null,
      "expire_date": "2029-10-31"
    },
    {
      "name": "さくら会館株式会社",
      "name_kana": "",
      "business_type": "飲食店営業（仕出し屋・弁当屋）",
      "address": "伊佐市大口目丸５１－１",
      "lat": 32.054565316,
      "lng": 130.621867381,
      "geocoding_level": 8,
      "phone": "",
      "license_no": "第035-000106号",
      "license_date": null,
      "expire_date": "2030-01-31"
    },
    {
      "name": "株式会社　鹿農食品工業",
      "name_kana": "",
      "business_type": "清涼飲料水製造業",
      "address": "伊佐市大口曽木３１７２番地１",
      "lat": 31.999313657,
      "lng": 130.594791882,
      "geocoding_level": 8,
      "phone": "",
      "license_no": "第034-000003号",
      "license_date": null,
      "expire_date": "2028-04-30"
    },
    {
      "name": "有留　章智",
      "name_kana": "",
      "business_type": "飲食店営業（一般食堂・ﾚｽﾄﾗﾝ等）",
      "address": "伊佐市大口曽木１４９１－１",
      "lat": 32.006819859,
      "lng": 130.600921118,
      "geocoding_level": 8,
      "phone": "",
      "license_no": "第035-000107号",
      "license_date": null,
      "expire_date": "2029-01-31"
    },
    {
      "name": "有留　章智",
      "name_kana": "",
      "business_type": "菓子製造業",
      "address": "伊佐市大口曽木１４９１－１",
      "lat": 32.006819859,
      "lng": 130.600921118,
      "geocoding_level": 8,
      "phone": "",
      "license_no": "第035-000108号",
      "license_date": null,
      "expire_date": "2029-01-31"
    },
    {
      "name": "株式会社　迫田興産",
      "name_kana": "",
      "business_type": "菓子製造業",
      "address": "伊佐市大口目丸１３３番地１",
      "lat": 32.053363659,
      "lng": 130.62108389,
      "geocoding_level": 8,
      "phone": "",
      "license_no": "第035-000112号",
      "license_date": null,
      "expire_date": "2030-01-31"
    },
    {
      "name": "平江　いずみ",
      "name_kana": "",
      "business_type": "飲食店営業（一般食堂・ﾚｽﾄﾗﾝ等）",
      "address": "伊佐市大口堂崎丸山１４６－５",
      "lat": 32.031544,
      "lng": 130.599562,
      "geocoding_level": 3,
      "phone": "",
      "license_no": "第035-000113号",
      "license_date": null,
      "expire_date": "2030-01-31"
    },
    {
      "name": "株式会社　幸栄緑化産業",
      "name_kana": "",
      "business_type": "飲食店営業（仕出し屋・弁当屋）",
      "address": "伊佐市菱刈南浦２６２４",
      "lat": 31.965138,
      "lng": 130.630584,
      "geocoding_level": 3,
      "phone": "",
      "license_no": "第035-000114号",
      "license_date": null,
      "expire_date": "2029-01-31"
    },
    {
      "name": "株式会社　幸栄緑化産業",
      "name_kana": "",
      "business_type": "そうざい製造業",
      "address": "伊佐市菱刈南浦２６２４",
      "lat": 31.965138,
      "lng": 130.630584,
      "geocoding_level": 3,
      "phone": "",
      "license_no": "第035-000115号",
      "license_date": null,
      "expire_date": "2029-01-31"
    },
    {
      "name": "村岡　強志",
      "name_kana": "",
      "business_type": "飲食店営業（その他）",
      "address": "伊佐市大口里５７４－１０",
      "lat": 32.056559385,
      "lng": 130.603995784,
      "geocoding_level": 8,
      "phone": "",
      "license_no": "第035-000116号",
      "license_date": null,
      "expire_date": "2030-01-31"
    },
    {
      "name": "株式会社　シャッツフードカンパニー",
      "name_kana": "",
      "business_type": "飲食店営業（一般食堂・ﾚｽﾄﾗﾝ等）",
      "address": "伊佐市大口上町34－8",
      "lat": 32.061379,
      "lng": 130.606795,
      "geocoding_level": 3,
      "phone": "",
      "license_no": "第035-000117号",
      "license_date": null,
      "expire_date": "2030-01-31"
    },
    {
      "name": "株式会社  タケシタ",
      "name_kana": "",
      "business_type": "飲食店営業（一般食堂・ﾚｽﾄﾗﾝ等）",
      "address": "伊佐市大口元町１３－１２",
      "lat": 32.058157,
      "lng": 130.608633,
      "geocoding_level": 3,
      "phone": "",
      "license_no": "第033-000024号",
      "license_date": null,
      "expire_date": "2027-10-31"
    },
    {
      "name": "株式会社  タケシタ",
      "name_kana": "",
      "business_type": "菓子製造業",
      "address": "伊佐市大口元町１３－１２",
      "lat": 32.058157,
      "lng": 130.608633,
      "geocoding_level": 3,
      "phone": "",
      "license_no": "第033-000025号",
      "license_date": null,
      "expire_date": "2027-10-31"
    },
    {
      "name": "土生　さとみ",
      "name_kana": "",
      "business_type": "飲食店営業（一般食堂・ﾚｽﾄﾗﾝ等）",
      "address": "伊佐市菱刈前目６７５－２",
      "lat": 32.012291976,
      "lng": 130.639469977,
      "geocoding_level": 8,
      "phone": "",
      "license_no": "第035-000119号",
      "license_date": null,
      "expire_date": "2030-01-31"
    },
    {
      "name": "西ノ原　弘",
      "name_kana": "",
      "business_type": "飲食店営業（その他）",
      "address": "伊佐市大口元町１３－３ （鹿児島市を除く県内一円）",
      "lat": 32.058157,
      "lng": 130.608633,
      "geocoding_level": 3,
      "phone": "",
      "license_no": "第035-000120号",
      "license_date": null,
      "expire_date": "2029-01-31"
    },
    {
      "name": "株式会社　セルビスサービス",
      "name_kana": "",
      "business_type": "そうざい製造業",
      "address": "伊佐市大口宮人６３５－１１",
      "lat": 32.012190064,
      "lng": 130.575855248,
      "geocoding_level": 8,
      "phone": "",
      "license_no": "第034-000001号",
      "license_date": null,
      "expire_date": "2028-04-30"
    },
    {
      "name": "株式会社　セルビスサービス",
      "name_kana": "",
      "business_type": "飲食店営業（一般食堂・ﾚｽﾄﾗﾝ等）",
      "address": "伊佐市大口宮人６２８－６４",
      "lat": 32.01288776,
      "lng": 130.577601582,
      "geocoding_level": 8,
      "phone": "",
      "license_no": "第032-000035号",
      "license_date": null,
      "expire_date": "2026-07-31"
    },
    {
      "name": "株式会社　セルビスサービス",
      "name_kana": "",
      "business_type": "飲食店営業（一般食堂・ﾚｽﾄﾗﾝ等）",
      "address": "伊佐市大口宮人６３６－３",
      "lat": 32.013512851,
      "lng": 130.577042122,
      "geocoding_level": 8,
      "phone": "",
      "license_no": "第031-000174号",
      "license_date": null,
      "expire_date": "2026-01-31"
    },
    {
      "name": "株式会社　セルビスサービス",
      "name_kana": "",
      "business_type": "菓子製造業",
      "address": "伊佐市大口宮人６３６－３",
      "lat": 32.013512851,
      "lng": 130.577042122,
      "geocoding_level": 8,
      "phone": "",
      "license_no": "第031-000175号",
      "license_date": null,
      "expire_date": "2026-01-31"
    },
    {
      "name": "株式会社　セルビスサービス",
      "name_kana": "",
      "business_type": "飲食店営業（その他）",
      "address": "伊佐市大口宮人６２８－６４ （鹿児島市を除く県内一円）",
      "lat": 32.01288776,
      "lng": 130.577601582,
      "geocoding_level": 8,
      "phone": "",
      "license_no": "第032-000113号",
      "license_date": null,
      "expire_date": "2026-01-31"
    },
    {
      "name": "株式会社　セルビスサービス",
      "name_kana": "",
      "business_type": "飲食店営業（一般食堂・ﾚｽﾄﾗﾝ等）",
      "address": "伊佐市大口宮人６３５－１１",
      "lat": 32.012190064,
      "lng": 130.575855248,
      "geocoding_level": 8,
      "phone": "",
      "license_no": "第034-000132号",
      "license_date": null,
      "expire_date": "2029-04-30"
    },
    {
      "name": "株式会社　セルビスサービス",
      "name_kana": "",
      "business_type": "魚介類販売業",
      "address": "伊佐市大口宮人６３５－１１",
      "lat": 32.012190064,
      "lng": 130.575855248,
      "geocoding_level": 8,
      "phone": "",
      "license_no": "第035-000020号",
      "license_date": null,
      "expire_date": "2029-07-31"
    },
    {
      "name": "谷山　三好",
      "name_kana": "",
      "business_type": "飲食店営業（その他）",
      "address": "伊佐市大口上町１４－７",
      "lat": 32.061379,
      "lng": 130.606795,
      "geocoding_level": 3,
      "phone": "",
      "license_no": "第035-000121号",
      "license_date": null,
      "expire_date": "2030-04-30"
    },
    {
      "name": "中村　節子",
      "name_kana": "",
      "business_type": "漬物製造業",
      "address": "伊佐市菱刈川北１８１４－１",
      "lat": 31.992894541,
      "lng": 130.669440392,
      "geocoding_level": 8,
      "phone": "",
      "license_no": "第035-000124号",
      "license_date": null,
      "expire_date": "2029-04-30"
    },
    {
      "name": "満元  真巨",
      "name_kana": "",
      "business_type": "飲食店営業（その他）",
      "address": "伊佐市大口篠原２２０１－１ (鹿児島市を除く県内一円)",
      "lat": 32.076626543,
      "lng": 130.623108679,
      "geocoding_level": 8,
      "phone": "",
      "license_no": "第035-000126号",
      "license_date": null,
      "expire_date": "2029-04-30"
    },
    {
      "name": "中村　節子",
      "name_kana": "",
      "business_type": "食品の小分け業",
      "address": "伊佐市菱刈川北１８１４－１",
      "lat": 31.992894541,
      "lng": 130.669440392,
      "geocoding_level": 8,
      "phone": "",
      "license_no": "第035-000125号",
      "license_date": null,
      "expire_date": "2029-04-30"
    },
    {
      "name": "有限会社宮迫産業",
      "name_kana": "",
      "business_type": "飲食店営業（旅館）",
      "address": "伊佐市大口里４７９－１",
      "lat": 32.060466609,
      "lng": 130.604642398,
      "geocoding_level": 8,
      "phone": "",
      "license_no": "第032-000051号",
      "license_date": null,
      "expire_date": "2026-07-31"
    },
    {
      "name": "早水産業有限会社",
      "name_kana": "",
      "business_type": "飲食店営業（旅館）",
      "address": "伊佐市菱刈川北字古川２２８０－１４",
      "lat": 31.990654,
      "lng": 130.674139,
      "geocoding_level": 3,
      "phone": "",
      "license_no": "第034-000033号",
      "license_date": null,
      "expire_date": "2028-07-31"
    },
    {
      "name": "竹之内　信二",
      "name_kana": "",
      "business_type": "飲食店営業（旅館）",
      "address": "伊佐市大口上町１７番地１６",
      "lat": 32.061379,
      "lng": 130.606795,
      "geocoding_level": 3,
      "phone": "",
      "license_no": "第032-000043号",
      "license_date": null,
      "expire_date": "2026-07-31"
    },
    {
      "name": "株式会社  セルビスサービス",
      "name_kana": "",
      "business_type": "飲食店営業（一般食堂・ﾚｽﾄﾗﾝ等）",
      "address": "伊佐市大口宮人６３５",
      "lat": 32.024592,
      "lng": 130.564227,
      "geocoding_level": 3,
      "phone": "",
      "license_no": "第032-000064号",
      "license_date": null,
      "expire_date": "2026-07-31"
    },
    {
      "name": "長野　則夫",
      "name_kana": "",
      "business_type": "飲食店営業（旅館）",
      "address": "伊佐市菱刈川北２３２８－１２",
      "lat": 31.988461909,
      "lng": 130.659790287,
      "geocoding_level": 8,
      "phone": "",
      "license_no": "第032-000086号",
      "license_date": null,
      "expire_date": "2026-10-31"
    },
    {
      "name": "佐藤　一秀",
      "name_kana": "",
      "business_type": "飲食店営業（旅館）",
      "address": "伊佐市大口上町１６番地ノ５",
      "lat": 32.061379,
      "lng": 130.606795,
      "geocoding_level": 3,
      "phone": "",
      "license_no": "第032-000081号",
      "license_date": null,
      "expire_date": "2026-10-31"
    },
    {
      "name": "中村　さつ代",
      "name_kana": "",
      "business_type": "飲食店営業（一般食堂・ﾚｽﾄﾗﾝ等）",
      "address": "伊佐市菱刈荒田３０２２",
      "lat": 31.978663958,
      "lng": 130.624836841,
      "geocoding_level": 8,
      "phone": "",
      "license_no": "第034-000007号",
      "license_date": null,
      "expire_date": "2028-04-30"
    },
    {
      "name": "有限会社　山水",
      "name_kana": "",
      "business_type": "飲食店営業（旅館）",
      "address": "伊佐市菱刈川北２３２８－５",
      "lat": 31.987870843000003,
      "lng": 130.659705679,
      "geocoding_level": 8,
      "phone": "",
      "license_no": "第034-000077号",
      "license_date": null,
      "expire_date": "2028-10-31"
    },
    {
      "name": "株式会社  ながたや",
      "name_kana": "",
      "business_type": "飲食店営業（仕出し屋・弁当屋）",
      "address": "伊佐市大口里２８８－４",
      "lat": 32.060988903,
      "lng": 130.600610055,
      "geocoding_level": 8,
      "phone": "",
      "license_no": "第032-000097号",
      "license_date": null,
      "expire_date": "2027-01-31"
    },
    {
      "name": "株式会社　迫田興産",
      "name_kana": "",
      "business_type": "食肉販売業",
      "address": "伊佐市大口目丸１３３－１",
      "lat": 32.053363659,
      "lng": 130.62108389,
      "geocoding_level": 8,
      "phone": "",
      "license_no": "第032-000128号",
      "license_date": null,
      "expire_date": "2027-01-31"
    },
    {
      "name": "内田　ゆき子",
      "name_kana": "",
      "business_type": "飲食店営業（その他）",
      "address": "伊佐市大口上町１０番地１０",
      "lat": 32.061379,
      "lng": 130.606795,
      "geocoding_level": 3,
      "phone": "",
      "license_no": "第036-000001号",
      "license_date": null,
      "expire_date": "2029-04-30"
    },
    {
      "name": "株式会社　さつま屋商店",
      "name_kana": "",
      "business_type": "飲食店営業（一般食堂・ﾚｽﾄﾗﾝ等）",
      "address": "伊佐市大口大田字高柳牟田１１５０",
      "lat": 32.075437,
      "lng": 130.604725,
      "geocoding_level": 3,
      "phone": "",
      "license_no": "第036-000002号",
      "license_date": null,
      "expire_date": "2030-04-30"
    },
    {
      "name": "有限会社　山上武商会",
      "name_kana": "",
      "business_type": "麺類製造業",
      "address": "伊佐市大口大田１０４９－１",
      "lat": 32.080240527,
      "lng": 130.60857811000002,
      "geocoding_level": 8,
      "phone": "",
      "license_no": "第036-000003号",
      "license_date": null,
      "expire_date": "2030-04-30"
    },
    {
      "name": "陣之内　敏",
      "name_kana": "",
      "business_type": "食肉処理業",
      "address": "伊佐市大口平出水２１２",
      "lat": 32.080317818,
      "lng": 130.574054142,
      "geocoding_level": 8,
      "phone": "",
      "license_no": "第036-000004号",
      "license_date": null,
      "expire_date": "2030-04-30"
    },
    {
      "name": "陣之内　敏",
      "name_kana": "",
      "business_type": "食肉製品製造業",
      "address": "伊佐市大口平出水２１２",
      "lat": 32.080317818,
      "lng": 130.574054142,
      "geocoding_level": 8,
      "phone": "",
      "license_no": "第036-000005号",
      "license_date": null,
      "expire_date": "2030-04-30"
    },
    {
      "name": "有限会社  堀ノ内商会",
      "name_kana": "",
      "business_type": "食肉販売業",
      "address": "伊佐市大口里５番地１０",
      "lat": 32.065536568,
      "lng": 130.603460242,
      "geocoding_level": 8,
      "phone": "",
      "license_no": "第036-000006号",
      "license_date": null,
      "expire_date": "2030-04-30"
    },
    {
      "name": "本田　弘美",
      "name_kana": "",
      "business_type": "飲食店営業（一般食堂・ﾚｽﾄﾗﾝ等）",
      "address": "伊佐市大口里１８８２",
      "lat": 32.056470104,
      "lng": 130.61371337,
      "geocoding_level": 8,
      "phone": "",
      "license_no": "第036-000007号",
      "license_date": null,
      "expire_date": "2030-04-30"
    },
    {
      "name": "西﨑  久美子",
      "name_kana": "",
      "business_type": "密封包装食品製造業",
      "address": "伊佐市大口小木原１１９６－１",
      "lat": 32.092781716,
      "lng": 130.59076077,
      "geocoding_level": 8,
      "phone": "",
      "license_no": "第033-000042号",
      "license_date": null,
      "expire_date": "2028-01-31"
    },
    {
      "name": "大口酒造株式会社",
      "name_kana": "",
      "business_type": "酒類製造業",
      "address": "伊佐市菱刈田中廣瀬１６６０",
      "lat": 32.036541,
      "lng": 130.656441,
      "geocoding_level": 3,
      "phone": "",
      "license_no": "第034-000078号",
      "license_date": null,
      "expire_date": "2028-10-31"
    },
    {
      "name": "飯園　次子",
      "name_kana": "",
      "business_type": "漬物製造業",
      "address": "伊佐市菱刈前目１６５６",
      "lat": 32.016044112,
      "lng": 130.632428325,
      "geocoding_level": 8,
      "phone": "",
      "license_no": "第036-000011号",
      "license_date": null,
      "expire_date": "2029-07-31"
    },
    {
      "name": "丹波　ミチコ",
      "name_kana": "",
      "business_type": "漬物製造業",
      "address": "伊佐市菱刈前目４０３４－５",
      "lat": 32.023147389,
      "lng": 130.6778652,
      "geocoding_level": 8,
      "phone": "",
      "license_no": "第036-000012号",
      "license_date": null,
      "expire_date": "2029-07-31"
    },
    {
      "name": "小田原　清人",
      "name_kana": "",
      "business_type": "水産製品製造業",
      "address": "伊佐市大口小木原１７８９",
      "lat": 32.116794,
      "lng": 130.620284,
      "geocoding_level": 3,
      "phone": "",
      "license_no": "第036-000014号",
      "license_date": null,
      "expire_date": "2030-07-31"
    },
    {
      "name": "社会福祉法人　慈和会",
      "name_kana": "",
      "business_type": "漬物製造業",
      "address": "伊佐市大口大田１２４の１",
      "lat": 32.066317108,
      "lng": 130.601999104,
      "geocoding_level": 8,
      "phone": "",
      "license_no": "第036-000015号",
      "license_date": null,
      "expire_date": "2030-07-31"
    },
    {
      "name": "株式会社  シャッツフードカンパニー",
      "name_kana": "",
      "business_type": "密封包装食品製造業",
      "address": "伊佐市大口上町３７－１７",
      "lat": 32.061379,
      "lng": 130.606795,
      "geocoding_level": 3,
      "phone": "",
      "license_no": "第036-000016号",
      "license_date": null,
      "expire_date": "2030-07-31"
    },
    {
      "name": "山口  淑乃",
      "name_kana": "",
      "business_type": "飲食店営業（仕出し屋・弁当屋）",
      "address": "伊佐市大口上町８－６",
      "lat": 32.061379,
      "lng": 130.606795,
      "geocoding_level": 3,
      "phone": "",
      "license_no": "第036-000019号",
      "license_date": null,
      "expire_date": "2030-07-31"
    },
    {
      "name": "寺尾　仁美",
      "name_kana": "",
      "business_type": "飲食店営業（その他）",
      "address": "伊佐市大口上町２４－８－２",
      "lat": 32.061379,
      "lng": 130.606795,
      "geocoding_level": 3,
      "phone": "",
      "license_no": "第036-000020号",
      "license_date": null,
      "expire_date": "2029-07-31"
    },
    {
      "name": "松村　甚吉",
      "name_kana": "",
      "business_type": "飲食店営業（一般食堂・ﾚｽﾄﾗﾝ等）",
      "address": "伊佐市大口原田３３８",
      "lat": 32.052001189,
      "lng": 130.632242605,
      "geocoding_level": 8,
      "phone": "",
      "license_no": "第036-000021号",
      "license_date": null,
      "expire_date": "2030-07-31"
    },
    {
      "name": "早水　トミ子",
      "name_kana": "",
      "business_type": "飲食店営業（一般食堂・ﾚｽﾄﾗﾝ等）",
      "address": "伊佐市大口青木１８８９－１",
      "lat": 32.067139489,
      "lng": 130.656498308,
      "geocoding_level": 8,
      "phone": "",
      "license_no": "第036-000022号",
      "license_date": null,
      "expire_date": "2029-07-31"
    },
    {
      "name": "藤崎　弘文",
      "name_kana": "",
      "business_type": "飲食店営業（その他）",
      "address": "伊佐市大口里2548番１",
      "lat": 32.066562479,
      "lng": 130.607814503,
      "geocoding_level": 8,
      "phone": "",
      "license_no": "第036-000023号",
      "license_date": null,
      "expire_date": "2030-07-31"
    },
    {
      "name": "有限会社宮迫産業",
      "name_kana": "",
      "business_type": "飲食店営業（その他）",
      "address": "伊佐市大口里４７９－１",
      "lat": 32.060466609,
      "lng": 130.604642398,
      "geocoding_level": 8,
      "phone": "",
      "license_no": "第036-000024号",
      "license_date": null,
      "expire_date": "2030-07-31"
    },
    {
      "name": "村岡　鈴子",
      "name_kana": "",
      "business_type": "飲食店営業（その他）",
      "address": "伊佐市大口里６８１－１４",
      "lat": 32.056302339,
      "lng": 130.603485638,
      "geocoding_level": 8,
      "phone": "",
      "license_no": "第036-000025号",
      "license_date": null,
      "expire_date": "2030-07-31"
    },
    {
      "name": "永峰  まゆみ",
      "name_kana": "",
      "business_type": "飲食店営業（一般食堂・ﾚｽﾄﾗﾝ等）",
      "address": "伊佐市菱刈重留１３９０の２",
      "lat": 32.031751,
      "lng": 130.63351600000001,
      "geocoding_level": 3,
      "phone": "",
      "license_no": "第036-000027号",
      "license_date": null,
      "expire_date": "2030-07-31"
    },
    {
      "name": "岩﨑　さとみ",
      "name_kana": "",
      "business_type": "菓子製造業",
      "address": "伊佐市菱刈荒田３２３９－３",
      "lat": 31.98793584,
      "lng": 130.627910468,
      "geocoding_level": 8,
      "phone": "",
      "license_no": "第036-000028号",
      "license_date": null,
      "expire_date": "2030-07-31"
    },
    {
      "name": "大隅　哲也",
      "name_kana": "",
      "business_type": "飲食店営業（旅館）",
      "address": "伊佐市菱刈南浦３４８１－１",
      "lat": 31.989278706000004,
      "lng": 130.633352178,
      "geocoding_level": 8,
      "phone": "",
      "license_no": "第036-000039号",
      "license_date": null,
      "expire_date": "2029-10-31"
    },
    {
      "name": "新田　敏子",
      "name_kana": "",
      "business_type": "そうざい製造業",
      "address": "伊佐市菱刈前目２５２－３",
      "lat": 32.007032822,
      "lng": 130.63602639,
      "geocoding_level": 8,
      "phone": "",
      "license_no": "第036-000040号",
      "license_date": null,
      "expire_date": "2030-10-31"
    },
    {
      "name": "新田　敏子",
      "name_kana": "",
      "business_type": "みそ又はしょうゆ製造業",
      "address": "伊佐市菱刈前目２５２－３",
      "lat": 32.007032822,
      "lng": 130.63602639,
      "geocoding_level": 8,
      "phone": "",
      "license_no": "第036-000041号",
      "license_date": null,
      "expire_date": "2030-10-31"
    },
    {
      "name": "猩々農園株式会社",
      "name_kana": "",
      "business_type": "菓子製造業",
      "address": "伊佐市大口山野１５５９",
      "lat": 32.101556787,
      "lng": 130.545217404,
      "geocoding_level": 8,
      "phone": "",
      "license_no": "第036-000044号",
      "license_date": null,
      "expire_date": "2030-10-31"
    },
    {
      "name": "株式会社　セルビスサービス",
      "name_kana": "",
      "business_type": "清涼飲料水製造業",
      "address": "伊佐市大口宮人６３５－１１",
      "lat": 32.012190064,
      "lng": 130.575855248,
      "geocoding_level": 8,
      "phone": "",
      "license_no": "第036-000045号",
      "license_date": null,
      "expire_date": "2030-10-31"
    },
    {
      "name": "平成物産株式会社",
      "name_kana": "",
      "business_type": "飲食店営業（仕出し屋・弁当屋）",
      "address": "伊佐市大口大島１２７０番地１号",
      "lat": 32.052613636,
      "lng": 130.599489234,
      "geocoding_level": 8,
      "phone": "",
      "license_no": "第036-000055号",
      "license_date": null,
      "expire_date": "2030-10-31"
    },
    {
      "name": "松下　和久",
      "name_kana": "",
      "business_type": "魚介類販売業",
      "address": "伊佐市大口元町８－８",
      "lat": 32.058157,
      "lng": 130.608633,
      "geocoding_level": 3,
      "phone": "",
      "license_no": "第036-000058号",
      "license_date": null,
      "expire_date": "2030-10-31"
    },
    {
      "name": "村岡　勇一",
      "name_kana": "",
      "business_type": "飲食店営業（その他）",
      "address": "伊佐市大口里６８１－１４ （鹿児島市を除く県内一円）",
      "lat": 32.056302339,
      "lng": 130.603485638,
      "geocoding_level": 8,
      "phone": "",
      "license_no": "第036-000066号",
      "license_date": null,
      "expire_date": "2029-10-31"
    },
    {
      "name": "大塚　征輝",
      "name_kana": "",
      "business_type": "飲食店営業（一般食堂・ﾚｽﾄﾗﾝ等）",
      "address": "伊佐市大口大田７０５",
      "lat": 32.073114567,
      "lng": 130.602285518,
      "geocoding_level": 8,
      "phone": "",
      "license_no": "第036-000067号",
      "license_date": null,
      "expire_date": "2030-10-31"
    },
    {
      "name": "樋渡　一博",
      "name_kana": "",
      "business_type": "飲食店営業（一般食堂・ﾚｽﾄﾗﾝ等）",
      "address": "伊佐市菱刈重留１３９０の１",
      "lat": 32.037547853,
      "lng": 130.630502089,
      "geocoding_level": 8,
      "phone": "",
      "license_no": "第036-000068号",
      "license_date": null,
      "expire_date": "2030-10-31"
    },
    {
      "name": "久保田　堅太郎",
      "name_kana": "",
      "business_type": "飲食店営業（一般食堂・ﾚｽﾄﾗﾝ等）",
      "address": "伊佐市菱刈川北２７１３－１１",
      "lat": 31.993892172,
      "lng": 130.65810347,
      "geocoding_level": 8,
      "phone": "",
      "license_no": "第036-000060号",
      "license_date": null,
      "expire_date": "2030-10-31"
    },
    {
      "name": "松浦　寛七",
      "name_kana": "",
      "business_type": "飲食店営業（一般食堂・ﾚｽﾄﾗﾝ等）",
      "address": "伊佐市大口上町５－１３",
      "lat": 32.061379,
      "lng": 130.606795,
      "geocoding_level": 3,
      "phone": "",
      "license_no": "第036-000062号",
      "license_date": null,
      "expire_date": "2030-10-31"
    },
    {
      "name": "株式会社　エーコープ鹿児島",
      "name_kana": "",
      "business_type": "飲食店営業（仕出し屋・弁当屋）",
      "address": "伊佐市菱刈前目字堂山６７２番地２",
      "lat": 32.015091,
      "lng": 130.685798,
      "geocoding_level": 3,
      "phone": "",
      "license_no": "第036-000063号",
      "license_date": null,
      "expire_date": "2030-10-31"
    },
    {
      "name": "株式会社　エーコープ鹿児島",
      "name_kana": "",
      "business_type": "食肉販売業",
      "address": "伊佐市菱刈前目字堂山６７２番地２",
      "lat": 32.015091,
      "lng": 130.685798,
      "geocoding_level": 3,
      "phone": "",
      "license_no": "第036-000064号",
      "license_date": null,
      "expire_date": "2030-10-31"
    },
    {
      "name": "株式会社　エーコープ鹿児島",
      "name_kana": "",
      "business_type": "魚介類販売業",
      "address": "伊佐市菱刈前目字堂山６７２番地２",
      "lat": 32.015091,
      "lng": 130.685798,
      "geocoding_level": 3,
      "phone": "",
      "license_no": "第036-000065号",
      "license_date": null,
      "expire_date": "2030-10-31"
    },
    {
      "name": "上平　清美",
      "name_kana": "",
      "business_type": "食肉処理業",
      "address": "伊佐市菱刈前目１９８６番地２",
      "lat": 32.013526847,
      "lng": 130.64217293,
      "geocoding_level": 8,
      "phone": "",
      "license_no": "第035-000052号",
      "license_date": null,
      "expire_date": "2029-10-31"
    },
    {
      "name": "鳥巣　和代",
      "name_kana": "",
      "business_type": "飲食店営業（一般食堂・ﾚｽﾄﾗﾝ等）",
      "address": "鹿児島県伊佐市大口上町5－15",
      "lat": 32.061379,
      "lng": 130.606795,
      "geocoding_level": 3,
      "phone": "",
      "license_no": "第036-000090号",
      "license_date": null,
      "expire_date": "2030-01-31"
    },
    {
      "name": "長町　政俊",
      "name_kana": "",
      "business_type": "飲食店営業（その他）",
      "address": "伊佐市大口上町４５－１６",
      "lat": 32.061379,
      "lng": 130.606795,
      "geocoding_level": 3,
      "phone": "",
      "license_no": "第036-000091号",
      "license_date": null,
      "expire_date": "2031-01-31"
    },
    {
      "name": "株式会社やまびこの郷",
      "name_kana": "",
      "business_type": "飲食店営業（一般食堂・ﾚｽﾄﾗﾝ等）",
      "address": "伊佐市大口元町１３－１２",
      "lat": 32.058157,
      "lng": 130.608633,
      "geocoding_level": 3,
      "phone": "",
      "license_no": "第036-000095号",
      "license_date": null,
      "expire_date": "2031-01-31"
    },
    {
      "name": "前田　洋子",
      "name_kana": "",
      "business_type": "飲食店営業（その他）",
      "address": "伊佐市大口原田６１１－２（鹿児島市を除く県内一円）",
      "lat": 32.050586004,
      "lng": 130.62416778,
      "geocoding_level": 8,
      "phone": "",
      "license_no": "第036-000093号",
      "license_date": null,
      "expire_date": "2030-01-31"
    },
    {
      "name": "有限会社  なりざわ",
      "name_kana": "",
      "business_type": "漬物製造業",
      "address": "伊佐市大口堂崎５２５－３６",
      "lat": 32.032058229,
      "lng": 130.595949732,
      "geocoding_level": 8,
      "phone": "",
      "license_no": "第036-000094号",
      "license_date": null,
      "expire_date": "2031-01-31"
    },
    {
      "name": "池上　由紀乃",
      "name_kana": "",
      "business_type": "菓子製造業",
      "address": "伊佐市大口元町１３－１２",
      "lat": 32.058157,
      "lng": 130.608633,
      "geocoding_level": 3,
      "phone": "",
      "license_no": "第036-000096号",
      "license_date": null,
      "expire_date": "2031-01-31"
    },
    {
      "name": "マルイ食品株式会社",
      "name_kana": "",
      "business_type": "食肉処理業",
      "address": "伊佐市大口小木原３６２－１６８",
      "lat": 32.087528041,
      "lng": 130.597540635,
      "geocoding_level": 8,
      "phone": "",
      "license_no": "第031-000178号",
      "license_date": null,
      "expire_date": "2026-01-31"
    },
    {
      "name": "西﨑  久美子",
      "name_kana": "",
      "business_type": "菓子製造業",
      "address": "伊佐市大口小木原１１９６－１",
      "lat": 32.092781716,
      "lng": 130.59076077,
      "geocoding_level": 8,
      "phone": "",
      "license_no": "第036-000099号",
      "license_date": null,
      "expire_date": "2030-01-31"
    },
    {
      "name": "川畑　重郎",
      "name_kana": "",
      "business_type": "魚介類販売業",
      "address": "伊佐市大口大田６８８－８",
      "lat": 32.07442664,
      "lng": 130.601707226,
      "geocoding_level": 8,
      "phone": "",
      "license_no": "第036-000100号",
      "license_date": null,
      "expire_date": "2031-01-31"
    },
    {
      "name": "舞薗　昭治",
      "name_kana": "",
      "business_type": "菓子製造業",
      "address": "伊佐市大口里３００５",
      "lat": 32.062939534,
      "lng": 130.609334372,
      "geocoding_level": 8,
      "phone": "",
      "license_no": "第036-000101号",
      "license_date": null,
      "expire_date": "2031-01-31"
    },
    {
      "name": "有限会社宮迫産業",
      "name_kana": "",
      "business_type": "飲食店営業（旅館）",
      "address": "伊佐市大口里４７９－１",
      "lat": 32.060466609,
      "lng": 130.604642398,
      "geocoding_level": 8,
      "phone": "",
      "license_no": "第036-000103号",
      "license_date": null,
      "expire_date": "2031-01-31"
    },
    {
      "name": "株式会社　イーティーズ",
      "name_kana": "",
      "business_type": "飲食店営業（仕出し屋・弁当屋）",
      "address": "伊佐市大口里７５０－１",
      "lat": 32.05807500000001,
      "lng": 130.606707316,
      "geocoding_level": 8,
      "phone": "",
      "license_no": "第036-000104号",
      "license_date": null,
      "expire_date": "2031-01-31"
    },