{
  "meta": {
    "updated": 1783906731,
    "sources": [
      {
        "source": "長野県食品営業許可施設",
        "license": "要確認"
      },
      {
        "source": "厚生労働省 食品衛生申請等システム（オープンデータ）",
        "license": "公共データ利用規約（第1.0版, PDL1.0）"
      }
    ]
  },
  "data": [
    {
      "name": "蕎麦屋やまさん",
      "name_kana": "",
      "business_type": "麺類製造業",
      "address": "小県郡青木村奈良本７６１－８",
      "lat": 36.339777,
      "lng": 138.081844,
      "geocoding_level": 3,
      "phone": "",
      "license_no": "第03261824号",
      "license_date": "2019-11-18",
      "expire_date": "2026-06-30"
    },
    {
      "name": "俵屋",
      "name_kana": "",
      "business_type": "飲食店営業",
      "address": "小県郡青木村村松１５４－２",
      "lat": 36.38073,
      "lng": 138.127969,
      "geocoding_level": 3,
      "phone": "",
      "license_no": "第03137401号",
      "license_date": "2020-06-30",
      "expire_date": "2026-06-30"
    },
    {
      "name": "和院",
      "name_kana": "",
      "business_type": "飲食店営業",
      "address": "小県郡青木村天神１６２",
      "lat": 36.369998,
      "lng": 138.128698,
      "geocoding_level": 2,
      "phone": "",
      "license_no": "第03126611号",
      "license_date": "2020-06-30",
      "expire_date": "2026-06-30"
    },
    {
      "name": "リフレッシュパ－クあおき",
      "name_kana": "",
      "business_type": "飲食店営業",
      "address": "小県郡青木村沓掛",
      "lat": 36.336781,
      "lng": 138.113512,
      "geocoding_level": 3,
      "phone": "",
      "license_no": "第03140114号",
      "license_date": "2020-06-30",
      "expire_date": "2026-06-30"
    },
    {
      "name": "青木村郷土美術館喫茶",
      "name_kana": "",
      "business_type": "飲食店営業",
      "address": "小県郡青木村当郷２０５１－１",
      "lat": 36.381220484,
      "lng": 138.148912078,
      "geocoding_level": 8,
      "phone": "",
      "license_no": "第03140281号",
      "license_date": "2020-06-30",
      "expire_date": "2026-06-30"
    },
    {
      "name": "沓掛　製菓舗",
      "name_kana": "",
      "business_type": "飲食店営業",
      "address": "小県郡青木村下奈良本７３９",
      "lat": 36.354117,
      "lng": 138.110597,
      "geocoding_level": 3,
      "phone": "",
      "license_no": "第03184080号",
      "license_date": "2020-06-30",
      "expire_date": "2026-06-30"
    },
    {
      "name": "戀渡屋",
      "name_kana": "",
      "business_type": "飲食店営業",
      "address": "小県郡青木村村松２９－２",
      "lat": 36.38073,
      "lng": 138.127969,
      "geocoding_level": 3,
      "phone": "",
      "license_no": "第03263323号",
      "license_date": "2020-07-17",
      "expire_date": "2026-06-30"
    },
    {
      "name": "戀渡屋",
      "name_kana": "",
      "business_type": "アイスクリーム類製造業",
      "address": "小県郡青木村村松２９－２",
      "lat": 36.38073,
      "lng": 138.127969,
      "geocoding_level": 3,
      "phone": "",
      "license_no": "第03263331号",
      "license_date": "2020-07-17",
      "expire_date": "2026-06-30"
    },
    {
      "name": "戀渡屋",
      "name_kana": "",
      "business_type": "菓子製造業",
      "address": "小県郡青木村村松２９－２",
      "lat": 36.38073,
      "lng": 138.127969,
      "geocoding_level": 3,
      "phone": "",
      "license_no": "第03263348号",
      "license_date": "2020-07-17",
      "expire_date": "2026-06-30"
    },
    {
      "name": "ワタリドリのカフェ",
      "name_kana": "",
      "business_type": "飲食店営業",
      "address": "小県郡青木村夫神６６０",
      "lat": 36.363314,
      "lng": 138.125142,
      "geocoding_level": 3,
      "phone": "",
      "license_no": "第03265413号",
      "license_date": "2021-04-26",
      "expire_date": "2027-06-30"
    },
    {
      "name": "驛カフェ　ＲＥＳＦＥＢＥＲ（レースフェーベル）",
      "name_kana": "",
      "business_type": "飲食店営業",
      "address": "小県郡青木村田沢１３－１",
      "lat": 36.384184,
      "lng": 138.093719,
      "geocoding_level": 3,
      "phone": "",
      "license_no": "第03265477号",
      "license_date": "2021-04-27",
      "expire_date": "2026-06-30"
    },
    {
      "name": "一歩",
      "name_kana": "",
      "business_type": "喫茶店営業",
      "address": "小県郡青木村田沢５８",
      "lat": 36.384184,
      "lng": 138.093719,
      "geocoding_level": 3,
      "phone": "",
      "license_no": "第03263946号",
      "license_date": "2020-10-16",
      "expire_date": "2027-06-30"
    },
    {
      "name": "塩漬けの会",
      "name_kana": "",
      "business_type": "漬物製造業",
      "address": "小県郡青木村村松30-1",
      "lat": 36.38073,
      "lng": 138.127969,
      "geocoding_level": 3,
      "phone": "",
      "license_no": "第03265954号",
      "license_date": "2021-06-25",
      "expire_date": "2027-06-30"
    },
    {
      "name": "こまゆみ食堂",
      "name_kana": "",
      "business_type": "飲食店営業",
      "address": "小県郡青木村大字村松２６番地１",
      "lat": 36.38073,
      "lng": 138.127969,
      "geocoding_level": 3,
      "phone": "",
      "license_no": "第03255718号",
      "license_date": "2023-06-30",
      "expire_date": "2028-06-30"
    },
    {
      "name": "塩漬けの会",
      "name_kana": "",
      "business_type": "漬物製造業",
      "address": "小県郡青木村村松３０－１",
      "lat": 36.38073,
      "lng": 138.127969,
      "geocoding_level": 3,
      "phone": "",
      "license_no": "第03273207号",
      "license_date": "2024-05-24",
      "expire_date": "2030-06-30"
    },
    {
      "name": "ｈａｎａｔｏｋｉ",
      "name_kana": "",
      "business_type": "飲食店営業",
      "address": "小県郡青木村田沢2888-4",
      "lat": 36.384184,
      "lng": 138.093719,
      "geocoding_level": 3,
      "phone": "",
      "license_no": "第03265922号",
      "license_date": "2021-06-25",
      "expire_date": "2026-06-30"
    },
    {
      "name": "駒",
      "name_kana": "",
      "business_type": "飲食店営業",
      "address": "小県郡青木村村松208-1",
      "lat": 36.38073,
      "lng": 138.127969,
      "geocoding_level": 3,
      "phone": "",
      "license_no": "第03044281号",
      "license_date": "2021-06-30",
      "expire_date": "2026-06-30"
    },
    {
      "name": "義民そばや",
      "name_kana": "",
      "business_type": "飲食店営業",
      "address": "小県郡青木村夫神277",
      "lat": 36.363314,
      "lng": 138.125142,
      "geocoding_level": 3,
      "phone": "",
      "license_no": "第03167960号",
      "license_date": "2021-06-30",
      "expire_date": "2027-06-30"
    },
    {
      "name": "沓掛温泉　大本の湯　満山荘",
      "name_kana": "",
      "business_type": "飲食店営業",
      "address": "小県郡青木村沓掛434",
      "lat": 36.336781,
      "lng": 138.113512,
      "geocoding_level": 3,
      "phone": "",
      "license_no": "第03250298号",
      "license_date": "2021-06-30",
      "expire_date": "2026-06-30"
    },
    {
      "name": "みかえりの郷　あおき",
      "name_kana": "",
      "business_type": "菓子製造業",
      "address": "小県郡青木村村松30-1",
      "lat": 36.38073,
      "lng": 138.127969,
      "geocoding_level": 3,
      "phone": "",
      "license_no": "第03218884号",
      "license_date": "2021-06-30",
      "expire_date": "2027-06-30"
    },
    {
      "name": "みかえりの郷　あおき",
      "name_kana": "",
      "business_type": "密封包装食品製造業",
      "address": "小県郡青木村村松30-1",
      "lat": 36.38073,
      "lng": 138.127969,
      "geocoding_level": 3,
      "phone": "",
      "license_no": "第03218902号",
      "license_date": "2021-06-30",
      "expire_date": "2027-06-30"
    },
    {
      "name": "天然酵母パン　木まま屋",
      "name_kana": "",
      "business_type": "飲食店営業",
      "address": "小県郡青木村村松1985-2",
      "lat": 36.374398466,
      "lng": 138.12604487,
      "geocoding_level": 8,
      "phone": "",
      "license_no": "第03250801号",
      "license_date": "2021-06-30",
      "expire_date": "2026-06-30"
    },
    {
      "name": "天然酵母パン　木まま屋",
      "name_kana": "",
      "business_type": "菓子製造業",
      "address": "小県郡青木村村松1985-2",
      "lat": 36.374398466,
      "lng": 138.12604487,
      "geocoding_level": 8,
      "phone": "",
      "license_no": "第03250818号",
      "license_date": "2021-06-30",
      "expire_date": "2026-06-30"
    },
    {
      "name": "天然酵母パン　木まま屋",
      "name_kana": "",
      "business_type": "飲食店営業",
      "address": "小県郡青木村村松1985-2",
      "lat": 36.374398466,
      "lng": 138.12604487,
      "geocoding_level": 8,
      "phone": "",
      "license_no": "第03268039号",
      "license_date": "2022-06-03",
      "expire_date": "2027-06-30"
    },
    {
      "name": "道の駅　あおき",
      "name_kana": "",
      "business_type": "調理機能を有する自動販売機（要許可）",
      "address": "小県郡青木村村松30-2",
      "lat": 36.38073,
      "lng": 138.127969,
      "geocoding_level": 3,
      "phone": "",
      "license_no": "第03205844号",
      "license_date": "2021-11-30",
      "expire_date": "2026-11-30"
    },
    {
      "name": "喫茶　かいかん",
      "name_kana": "",
      "business_type": "飲食店営業",
      "address": "小県郡青木村田沢3252",
      "lat": 36.384184,
      "lng": 138.093719,
      "geocoding_level": 3,
      "phone": "",
      "license_no": "第03206411号",
      "license_date": "2021-06-30",
      "expire_date": "2026-06-30"
    },
    {
      "name": "信州うえだ農業協同組合　青木りんごジュース加工施設",
      "name_kana": "",
      "business_type": "清涼飲料水製造業",
      "address": "小県郡青木村当郷258-2",
      "lat": 36.373319264,
      "lng": 138.142687353,
      "geocoding_level": 8,
      "phone": "",
      "license_no": "第03166925号",
      "license_date": "2021-06-30",
      "expire_date": "2027-06-30"
    },
    {
      "name": "青木村活性化施設　みかえりの郷",
      "name_kana": "",
      "business_type": "食用油脂製造業",
      "address": "小県郡青木村村松30番地1",
      "lat": 36.38073,
      "lng": 138.127969,
      "geocoding_level": 3,
      "phone": "",
      "license_no": "第03266173号",
      "license_date": "2021-07-30",
      "expire_date": "2028-06-30"
    },
    {
      "name": "ＪＡ信州うえだ青木支所（農協祭）",
      "name_kana": "",
      "business_type": "飲食店営業",
      "address": "小県郡青木村田沢９２－５",
      "lat": 36.384184,
      "lng": 138.093719,
      "geocoding_level": 3,
      "phone": "",
      "license_no": "第03115068号",
      "license_date": "2025-06-30",
      "expire_date": "2030-06-30"
    },
    {
      "name": "株式会社竹内製作所青木工場従業員食堂",
      "name_kana": "",
      "business_type": "飲食店営業",
      "address": "小県郡青木村当郷２４７",
      "lat": 36.38733400000001,
      "lng": 138.139946,
      "geocoding_level": 3,
      "phone": "",
      "license_no": "第03271221号",
      "license_date": "2023-08-10",
      "expire_date": "2030-06-30"
    },
    {
      "name": "日軽松尾工業（株）奈良本工場社員食堂",
      "name_kana": "",
      "business_type": "飲食店営業",
      "address": "小県郡青木村奈良本１７８７－５",
      "lat": 36.339777,
      "lng": 138.081844,
      "geocoding_level": 3,
      "phone": "",
      "license_no": "第03206009号",
      "license_date": "2024-06-28",
      "expire_date": "2030-06-30"
    },
    {
      "name": "ファミリーマート信州青木村店",
      "name_kana": "",
      "business_type": "飲食店営業",
      "address": "小県郡青木村当郷１３４",
      "lat": 36.38733400000001,
      "lng": 138.139946,
      "geocoding_level": 3,
      "phone": "",
      "license_no": "第03238068号",
      "license_date": "2023-06-30",
      "expire_date": "2028-06-30"
    },
    {
      "name": "たこ六",
      "name_kana": "",
      "business_type": "飲食店営業",
      "address": "小県郡青木村田沢156-39-50",
      "lat": 36.384184,
      "lng": 138.093719,
      "geocoding_level": 3,
      "phone": "",
      "license_no": "第03268174号",
      "license_date": "2022-06-27",
      "expire_date": "2027-06-30"
    },
    {
      "name": "たこ六",
      "name_kana": "",
      "business_type": "飲食店営業",
      "address": "小県郡青木村田沢１５６－３９－５０",
      "lat": 36.384184,
      "lng": 138.093719,
      "geocoding_level": 3,
      "phone": "",
      "license_no": "第03274191号",
      "license_date": "2024-09-20",
      "expire_date": "2030-06-30"
    },
    {
      "name": "はるまきガーデンテラス",
      "name_kana": "",
      "business_type": "菓子製造業",
      "address": "小県郡青木村村松2151",
      "lat": 36.376445904,
      "lng": 138.122903003,
      "geocoding_level": 8,
      "phone": "",
      "license_no": "第03268200号",
      "license_date": "2022-07-01",
      "expire_date": "2029-06-30"
    },
    {
      "name": "株式会社沓掛冷食",
      "name_kana": "",
      "business_type": "冷凍食品製造業",
      "address": "小県郡青木村村松２１５１",
      "lat": 36.376445904,
      "lng": 138.122903003,
      "geocoding_level": 8,
      "phone": "",
      "license_no": "第03044558号",
      "license_date": "2022-06-30",
      "expire_date": "2028-06-30"
    },
    {
      "name": "株式会社沓掛冷食",
      "name_kana": "",
      "business_type": "そうざい製造業",
      "address": "小県郡青木村村松２１５１",
      "lat": 36.376445904,
      "lng": 138.122903003,
      "geocoding_level": 8,
      "phone": "",
      "license_no": "第03044736号",
      "license_date": "2022-06-30",
      "expire_date": "2028-06-30"
    },
    {
      "name": "六鍵",
      "name_kana": "",
      "business_type": "飲食店営業",
      "address": "小県郡青木村田沢2673",
      "lat": 36.384184,
      "lng": 138.093719,
      "geocoding_level": 3,
      "phone": "",
      "license_no": "第03268295号",
      "license_date": "2022-07-08",
      "expire_date": "2028-06-30"
    },
    {
      "name": "淡水魚かおる屋",
      "name_kana": "",
      "business_type": "飲食店営業",
      "address": "小県郡青木村奈良本３３０",
      "lat": 36.339777,
      "lng": 138.081844,
      "geocoding_level": 3,
      "phone": "",
      "license_no": "第03144220号",
      "license_date": "2022-06-30",
      "expire_date": "2028-06-30"
    },
    {
      "name": "淡水魚かおる屋",
      "name_kana": "",
      "business_type": "魚介類販売業",
      "address": "小県郡青木村奈良本３３０",
      "lat": 36.339777,
      "lng": 138.081844,
      "geocoding_level": 3,
      "phone": "",
      "license_no": "第03144237号",
      "license_date": "2022-06-30",
      "expire_date": "2028-06-30"
    },
    {
      "name": "淡水魚　かおる屋",
      "name_kana": "",
      "business_type": "そうざい製造業",
      "address": "小県郡青木村奈良本３３０",
      "lat": 36.339777,
      "lng": 138.081844,
      "geocoding_level": 3,
      "phone": "",
      "license_no": "第03224912号",
      "license_date": "2022-06-30",
      "expire_date": "2028-06-30"
    },
    {
      "name": "信州青木村御食事処　恵",
      "name_kana": "",
      "business_type": "飲食店営業",
      "address": "小県郡青木村田沢２４１１－１",
      "lat": 36.372414092,
      "lng": 138.108029786,
      "geocoding_level": 8,
      "phone": "",
      "license_no": "第03195777号",
      "license_date": "2022-06-30",
      "expire_date": "2028-06-30"
    },
    {
      "name": "木子里",
      "name_kana": "",
      "business_type": "飲食店営業",
      "address": "小県郡青木村夫神６３－９",
      "lat": 36.363314,
      "lng": 138.125142,
      "geocoding_level": 3,
      "phone": "",
      "license_no": "第03223689号",
      "license_date": "2022-06-30",
      "expire_date": "2028-06-30"
    },
    {
      "name": "そば屋　さかい",
      "name_kana": "",
      "business_type": "飲食店営業",
      "address": "小県郡青木村当郷１０６－１",
      "lat": 36.374612327,
      "lng": 138.152036107,
      "geocoding_level": 8,
      "phone": "",
      "license_no": "第03187201号",
      "license_date": "2022-06-30",
      "expire_date": "2027-06-30"
    },
    {
      "name": "セブンイレブン　信州青木村店",
      "name_kana": "",
      "business_type": "飲食店営業",
      "address": "小県郡青木村大字村松字大沖沢１５３－１",
      "lat": 36.38073,
      "lng": 138.127969,
      "geocoding_level": 3,
      "phone": "",
      "license_no": "第03233021号",
      "license_date": "2022-06-30",
      "expire_date": "2027-06-30"
    },
    {
      "name": "こみやま食堂",
      "name_kana": "",
      "business_type": "飲食店営業",
      "address": "小県郡青木村田沢１９４４",
      "lat": 36.388118653,
      "lng": 138.095581442,
      "geocoding_level": 8,
      "phone": "",
      "license_no": "第03233943号",
      "license_date": "2022-06-30",
      "expire_date": "2027-06-30"
    },
    {
      "name": "たい八",
      "name_kana": "",
      "business_type": "菓子製造業",
      "address": "小県郡青木村沓掛１３１０－１",
      "lat": 36.336781,
      "lng": 138.113512,
      "geocoding_level": 3,
      "phone": "",
      "license_no": "第03184760号",
      "license_date": "2022-06-30",
      "expire_date": "2027-06-30"
    },
    {
      "name": "福の島　ファミリー",
      "name_kana": "",
      "business_type": "飲食店営業",
      "address": "小県郡青木村夫神７１８",
      "lat": 36.363314,
      "lng": 138.125142,
      "geocoding_level": 3,
      "phone": "",
      "license_no": "第03268780号",
      "license_date": "2022-09-06",
      "expire_date": "2028-06-30"
    },
    {
      "name": "Ｎｏｂａｒａ　Ｈｏｍｅｓｔｅａｄ　Ｂｒｅｗｅｒｙ",
      "name_kana": "",
      "business_type": "酒類製造業",
      "address": "小県郡青木村大字奈良本208-7",
      "lat": 36.339777,
      "lng": 138.081844,
      "geocoding_level": 3,
      "phone": "",
      "license_no": "第03269155号",
      "license_date": "2022-10-07",
      "expire_date": "2028-06-30"
    },
    {
      "name": "Ｎｏｂａｒａ  Ｈｏｍｅｓｔｅａｄ  Ｂｒｅｗｅｒｙ",
      "name_kana": "",
      "business_type": "飲食店営業",
      "address": "小県郡青木村奈良本２０８－７",
      "lat": 36.339777,
      "lng": 138.081844,
      "geocoding_level": 3,
      "phone": "",
      "license_no": "第03271890号",
      "license_date": "2023-11-08",
      "expire_date": "2029-06-30"
    },
    {
      "name": "ＭＩＺＵＭＡＴＣＨ",
      "name_kana": "",
      "business_type": "飲食店営業",
      "address": "小県郡青木村田沢３１７２-３",
      "lat": 36.384184,
      "lng": 138.093719,
      "geocoding_level": 3,
      "phone": "",
      "license_no": "第03269988号",
      "license_date": "2023-03-14",
      "expire_date": "2028-06-30"
    },
    {
      "name": "Ｙｏｓｈｉｔｏｍｏ",
      "name_kana": "",
      "business_type": "飲食店営業",
      "address": "小県郡青木村",
      "lat": 36.369998,
      "lng": 138.128698,
      "geocoding_level": 2,
      "phone": "",
      "license_no": "第03270314号",
      "license_date": "2023-04-28",
      "expire_date": "2028-04-30"
    },
    {
      "name": "ＹＯＳＨＩＴＯＭＯ",
      "name_kana": "",
      "business_type": "菓子製造業",
      "address": "小県郡青木村村松１００２",
      "lat": 36.371536082,
      "lng": 138.131969244,
      "geocoding_level": 8,
      "phone": "",
      "license_no": "第03234575号",
      "license_date": "2025-06-30",
      "expire_date": "2031-06-30"
    },
    {
      "name": "ＢＵＳＣＯＮＲＯ",
      "name_kana": "",
      "business_type": "飲食店営業",
      "address": "小県郡青木村田沢３２８６-４",
      "lat": 36.384184,
      "lng": 138.093719,
      "geocoding_level": 3,
      "phone": "",
      "license_no": "第03270392号",
      "license_date": "2023-05-12",
      "expire_date": "2028-05-31"
    },
    {
      "name": "ＢＵＲＧＥＲ　ＴＯＵＲ",
      "name_kana": "",
      "business_type": "飲食店営業",
      "address": "小県郡青木村田沢３２８６－４",
      "lat": 36.384184,
      "lng": 138.093719,
      "geocoding_level": 3,
      "phone": "",
      "license_no": "第03274031号",
      "license_date": "2024-09-09",
      "expire_date": "2030-06-30"
    },
    {
      "name": "萬屋　八丁",
      "name_kana": "",
      "business_type": "飲食店営業",
      "address": "小県郡青木村村松５６－１",
      "lat": 36.38073,
      "lng": 138.127969,
      "geocoding_level": 3,
      "phone": "",
      "license_no": "第03251417号",
      "license_date": "2023-06-30",
      "expire_date": "2029-06-30"
    },
    {
      "name": "（有）米屋増田商店",
      "name_kana": "",
      "business_type": "そうざい製造業",
      "address": "小県郡青木村田沢１０２",
      "lat": 36.384184,
      "lng": 138.093719,
      "geocoding_level": 3,
      "phone": "",
      "license_no": "第03169661号",
      "license_date": "2023-06-30",
      "expire_date": "2028-06-30"
    },
    {
      "name": "（有）米屋増田商店",
      "name_kana": "",
      "business_type": "魚介類販売業",
      "address": "小県郡青木村田沢１０２",
      "lat": 36.384184,
      "lng": 138.093719,
      "geocoding_level": 3,
      "phone": "",
      "license_no": "第03169686号",
      "license_date": "2023-06-30",
      "expire_date": "2028-06-30"
    },
    {
      "name": "（有）米屋増田商店",
      "name_kana": "",
      "business_type": "食肉販売業",
      "address": "小県郡青木村田沢１０２",
      "lat": 36.384184,
      "lng": 138.093719,
      "geocoding_level": 3,
      "phone": "",
      "license_no": "第03169679号",
      "license_date": "2023-06-30",
      "expire_date": "2028-06-30"
    },
    {
      "name": "居酒屋くつかけ",
      "name_kana": "",
      "business_type": "飲食店営業",
      "address": "小県郡青木村田沢１２８－８",
      "lat": 36.384184,
      "lng": 138.093719,
      "geocoding_level": 3,
      "phone": "",
      "license_no": "第03169281号",
      "license_date": "2023-06-30",
      "expire_date": "2028-06-30"
    },
    {
      "name": "クロスロードあおき　バウム工房",
      "name_kana": "",
      "business_type": "菓子製造業",
      "address": "小県郡青木村田沢字立石３２２５－６",
      "lat": 36.384184,
      "lng": 138.093719,
      "geocoding_level": 3,
      "phone": "",
      "license_no": "第03227755号",
      "license_date": "2023-06-30",
      "expire_date": "2029-06-30"
    },
    {
      "name": "そば処　あさ川",
      "name_kana": "",
      "business_type": "飲食店営業",
      "address": "小県郡青木村大字当郷字東日向２０５４－１",
      "lat": 36.38733400000001,
      "lng": 138.139946,
      "geocoding_level": 3,
      "phone": "",
      "license_no": "第03271470号",
      "license_date": "2023-09-15",
      "expire_date": "2030-06-30"
    },
    {
      "name": "山城屋リゾート",
      "name_kana": "",
      "business_type": "飲食店営業",
      "address": "小県郡青木村田沢２６９０－１",
      "lat": 36.368958794,
      "lng": 138.105009534,
      "geocoding_level": 8,
      "phone": "",
      "license_no": "第03271996号",
      "license_date": "2023-11-24",
      "expire_date": "2030-06-30"
    },
    {
      "name": "Ｔｅｒｒｅ　ｓａｉｎｔｅ　ｄｅ　ＡＯＫＩ",
      "name_kana": "",
      "business_type": "飲食店営業",
      "address": "小県郡青木村田沢２６９０－１",
      "lat": 36.368958794,
      "lng": 138.105009534,
      "geocoding_level": 8,
      "phone": "",
      "license_no": "第03276623号",
      "license_date": "2025-09-19",
      "expire_date": "2032-06-30"
    },
    {
      "name": "(株)キャステク",
      "name_kana": "",
      "business_type": "調理機能を有する自動販売機（要許可）",
      "address": "小県郡青木村夫神1282",
      "lat": 36.363314,
      "lng": 138.125142,
      "geocoding_level": 3,
      "phone": "",
      "license_no": "第03242044号",
      "license_date": "2024-06-28",
      "expire_date": "2029-06-30"
    },
    {
      "name": "やまさん",
      "name_kana": "",
      "business_type": "飲食店営業",
      "address": "小県郡青木村奈良本７６１－８",
      "lat": 36.339777,
      "lng": 138.081844,
      "geocoding_level": 3,
      "phone": "",
      "license_no": "第03259321号",
      "license_date": "2025-06-30",
      "expire_date": "2031-06-30"
    },
    {
      "name": "ヴィエント",
      "name_kana": "",
      "business_type": "飲食店営業",
      "address": "小県郡青木村沓掛沖１２７４－６",
      "lat": 36.336781,
      "lng": 138.113512,
      "geocoding_level": 3,
      "phone": "",
      "license_no": "第03234211号",
      "license_date": "2024-06-28",
      "expire_date": "2030-06-30"
    },
    {
      "name": "タチアカネ号",
      "name_kana": "",
      "business_type": "飲食店営業",
      "address": "小県郡青木村大字田沢１１１番地",
      "lat": 36.384184,
      "lng": 138.093719,
      "geocoding_level": 3,
      "phone": "",
      "license_no": "第03258283号",
      "license_date": "2024-06-28",
      "expire_date": "2029-06-30"
    },
    {
      "name": "あおきふるさと体験館",
      "name_kana": "",
      "business_type": "飲食店営業",
      "address": "小県郡青木村村松３０－２",
      "lat": 36.38073,
      "lng": 138.127969,
      "geocoding_level": 3,
      "phone": "",
      "license_no": "第03195994号",
      "license_date": "2024-06-28",
      "expire_date": "2029-06-30"
    },
    {
      "name": "あおきふるさと体験館",
      "name_kana": "",
      "business_type": "飲食店営業",
      "address": "小県郡青木村村松３０－２",
      "lat": 36.38073,
      "lng": 138.127969,
      "geocoding_level": 3,
      "phone": "",
      "license_no": "第03196007号",
      "license_date": "2024-06-28",
      "expire_date": "2029-06-30"
    },
    {
      "name": "おやきの山本",
      "name_kana": "",
      "business_type": "菓子製造業",
      "address": "小県郡青木村当郷２３３",
      "lat": 36.38733400000001,
      "lng": 138.139946,
      "geocoding_level": 3,
      "phone": "",
      "license_no": "第03243649号",
      "license_date": "2024-06-28",
      "expire_date": "2029-06-30"
    },
    {
      "name": "ファンキー・シャトー（株）",
      "name_kana": "",
      "business_type": "酒類製造業",
      "address": "小県郡青木村村松１４９１－１",
      "lat": 36.38073,
      "lng": 138.127969,
      "geocoding_level": 3,
      "phone": "",
      "license_no": "第03230858号",
      "license_date": "2024-06-28",
      "expire_date": "2030-06-30"
    },
    {
      "name": "和泉家旅館",
      "name_kana": "",
      "business_type": "飲食店営業",
      "address": "小県郡青木村田沢2695",
      "lat": 36.384184,
      "lng": 138.093719,
      "geocoding_level": 3,
      "phone": "",
      "license_no": "第03189661号",
      "license_date": "2021-06-30",
      "expire_date": "2027-06-30"
    },
    {
      "name": "ジェイエイ　青木店",
      "name_kana": "",
      "business_type": "飲食店営業",
      "address": "小県郡青木村田沢９２－５",
      "lat": 36.384184,
      "lng": 138.093719,
      "geocoding_level": 3,
      "phone": "",
      "license_no": "第03203680号",
      "license_date": "2024-06-28",
      "expire_date": "2030-06-30"
    },
    {
      "name": "ジェイエイ　青木店",
      "name_kana": "",
      "business_type": "魚介類販売業",
      "address": "小県郡青木村田沢９２－５",
      "lat": 36.384184,
      "lng": 138.093719,
      "geocoding_level": 3,
      "phone": "",
      "license_no": "第03203657号",
      "license_date": "2024-06-28",
      "expire_date": "2030-06-30"
    },
    {
      "name": "日帰り温泉　ふるさと",
      "name_kana": "",
      "business_type": "飲食店営業",
      "address": "小県郡青木村沓掛３１０－８",
      "lat": 36.336781,
      "lng": 138.113512,
      "geocoding_level": 3,
      "phone": "",
      "license_no": "第03257772号",
      "license_date": "2025-06-30",
      "expire_date": "2031-06-30"
    },
    {
      "name": "ますや旅館",
      "name_kana": "",
      "business_type": "飲食店営業",
      "address": "小県郡青木村田沢２６８６",
      "lat": 36.369303821,
      "lng": 138.105139447,
      "geocoding_level": 8,
      "phone": "",
      "license_no": "第03044387号",
      "license_date": "2025-06-30",
      "expire_date": "2031-06-30"
    },
    {
      "name": "そば処　ますだ屋",
      "name_kana": "",
      "business_type": "飲食店営業",
      "address": "小県郡青木村田沢３３２１",
      "lat": 36.384184,
      "lng": 138.093719,
      "geocoding_level": 3,
      "phone": "",
      "license_no": "第03180704号",
      "license_date": "2025-06-30",
      "expire_date": "2031-06-30"
    },
    {
      "name": "味処　千楽",
      "name_kana": "",
      "business_type": "飲食店営業",
      "address": "小県郡青木村沓掛４２７",
      "lat": 36.336781,
      "lng": 138.113512,
      "geocoding_level": 3,
      "phone": "",
      "license_no": "第03235766号",
      "license_date": "2025-06-30",
      "expire_date": "2031-06-30"
    },
    {
      "name": "富士屋",
      "name_kana": "",
      "business_type": "飲食店営業",
      "address": "小県郡青木村田沢２８６８－１",
      "lat": 36.384184,
      "lng": 138.093719,
      "geocoding_level": 3,
      "phone": "",
      "license_no": "第03044370号",
      "license_date": "2025-06-30",
      "expire_date": "2031-06-30"
    },
    {
      "name": "沓掛製菓舗",
      "name_kana": "",
      "business_type": "菓子製造業",
      "address": "小県郡青木村奈良本７３９",
      "lat": 36.339777,
      "lng": 138.081844,
      "geocoding_level": 3,
      "phone": "",
      "license_no": "第03104075号",
      "license_date": "2025-06-30",
      "expire_date": "2031-06-30"
    },
    {
      "name": "まあるい里山工房",
      "name_kana": "",
      "business_type": "菓子製造業",
      "address": "小県郡青木村当郷1084-1",
      "lat": 36.38953155,
      "lng": 138.133158341,
      "geocoding_level": 8,
      "phone": "",
      "license_no": "第03268879号",
      "license_date": "2022-09-09",
      "expire_date": "2028-06-30"
    },
    {
      "name": "まあるい里山工房",
      "name_kana": "",
      "business_type": "そうざい製造業",
      "address": "小県郡青木村当郷1084-1",
      "lat": 36.38953155,
      "lng": 138.133158341,
      "geocoding_level": 8,
      "phone": "",
      "license_no": "第03268886号",
      "license_date": "2022-09-09",
      "expire_date": "2028-06-30"
    },
    {
      "name": "まあるい里山工房",
      "name_kana": "",
      "business_type": "飲食店営業",
      "address": "小県郡青木村当郷１０８４－１",
      "lat": 36.38953155,
      "lng": 138.133158341,
      "geocoding_level": 8,
      "phone": "",
      "license_no": "第03272501号",
      "license_date": "2024-03-15",
      "expire_date": "2029-06-30"
    },
    {
      "name": "たこ六",
      "name_kana": "",
      "business_type": "菓子製造業",
      "address": "小県郡青木村奈良本３９－１３",
      "lat": 36.339777,
      "lng": 138.081844,
      "geocoding_level": 3,
      "phone": "",
      "license_no": "第03277337号",
      "license_date": "2026-01-23",
      "expire_date": "2031-06-30"
    },
    {
      "name": "たこ六",
      "name_kana": "",
      "business_type": "そうざい製造業",
      "address": "小県郡青木村奈良本３９-１３",
      "lat": 36.339777,
      "lng": 138.081844,
      "geocoding_level": 3,
      "phone": "",
      "license_no": "第03277344号",
      "license_date": "2026-01-23",
      "expire_date": "2031-06-30"
    },
    {
      "name": "ＭａｓＡｏｋｉ　Ｂａｋｅｒｙ",
      "name_kana": "",
      "business_type": "菓子製造業",
      "address": "小県郡青木村奈良本３８０－５",
      "lat": 36.339777,
      "lng": 138.081844,
      "geocoding_level": 3,
      "phone": "",
      "license_no": "第03273350号",
      "license_date": "2024-06-07",
      "expire_date": "2030-06-30"
    },
    {
      "name": "ＭａｓＡｏｋｉ　Ｂａｋｅｒｙ",
      "name_kana": "",
      "business_type": "飲食店営業",
      "address": "小県郡青木村奈良本３８０－５",
      "lat": 36.339777,
      "lng": 138.081844,
      "geocoding_level": 3,
      "phone": "",
      "license_no": "第03273342号",
      "license_date": "2024-06-07",
      "expire_date": "2030-06-30"
    },
    {
      "name": "竹内製作所　青木工場1F",
      "name_kana": "タケウチセイサクジョアオキコウジョウイチエフ",
      "business_type": "⑤ コップ式自動販売機（自動洗浄・屋内設置）",
      "address": "長野県小県郡青木村当郷247",
      "lat": 36.373396,
      "lng": 138.145011,
      "geocoding_level": null,
      "phone": "",
      "license_no": "",
      "license_date": null,
      "expire_date": null
    },
    {
      "name": "竹内製作所　青木工場3F",
      "name_kana": "タケウチセイサクジョアオキコウジョウサンエフ",
      "business_type": "⑤ コップ式自動販売機（自動洗浄・屋内設置）",
      "address": "長野県小県郡青木村当郷247",
      "lat": 36.373396,
      "lng": 138.145011,
      "geocoding_level": null,
      "phone": "",
      "license_no": "",
      "license_date": null,
      "expire_date": null
    },
    {
      "name": "田沢ふれあい温泉センター",
      "name_kana": "タザワフレアイオンセンセンター",
      "business_type": "⑤ コップ式自動販売機（自動洗浄・屋内設置）",
      "address": "長野県小県郡青木村田沢2694",
      "lat": 36.379171,
      "lng": 138.090276,
      "geocoding_level": null,
      "phone": "",
      "license_no": "",
      "license_date": null,
      "expire_date": null
    },
    {
      "name": "信州武蔵野房",
      "name_kana": "シンシュウムサシノボウ",
      "business_type": "⑰ 農産保存食料品製造・加工業",
      "address": "長野県小県郡青木村田沢48-2",
      "lat": 36.368805,
      "lng": 138.131416,
      "geocoding_level": null,
      "phone": "",
      "license_no": "",
      "license_date": null,
      "expire_date": null
    },
    {
      "name": "井上志織",
      "name_kana": "イノウエシオリ",
      "business_type": "⑰ 農産保存食料品製造・加工業",
      "address": "長野県小県郡青木村当郷2089",
      "lat": 36.378392,
      "lng": 138.149153,
      "geocoding_level": null,
      "phone": "",
      "license_no": "",
      "license_date": null,
      "expire_date": null
    },
    {
      "name": "塩漬けの会",
      "name_kana": "シオヅケノカイ",
      "business_type": "㉙ 漬物製造業",
      "address": "長野県小県郡青木村村松30-1",
      "lat": 36.372703,
      "lng": 138.140646,
      "geocoding_level": null,
      "phone": "0268-49-0333",
      "license_no": "03265954",
      "license_date": "2021-06-25",
      "expire_date": "2027-06-30"
    },
    {
      "name": "こまゆみ食堂",
      "name_kana": "コマユミショクドウ",
      "business_type": "① 飲食店営業",
      "address": "長野県小県郡青木村大字村松２６番地１",
      "lat": 36.372593,
      "lng": 138.140133,
      "geocoding_level": null,
      "phone": "0268-49-0333",
      "license_no": "03255718",
      "license_date": "2023-06-30",
      "expire_date": "2028-06-30"
    },
    {
      "name": "塩漬けの会",
      "name_kana": "シオヅケノカイ",
      "business_type": "㉙ 漬物製造業",
      "address": "長野県小県郡青木村村松３０－１",
      "lat": 36.372703,
      "lng": 138.140646,
      "geocoding_level": null,
      "phone": "0268-49-0333",
      "license_no": "03273207",
      "license_date": "2024-05-24",
      "expire_date": "2030-06-30"
    },
    {
      "name": "ｈａｎａｔｏｋｉ",
      "name_kana": "ハナトキ",
      "business_type": "① 飲食店営業",
      "address": "長野県小県郡青木村田沢2888-4",
      "lat": 36.370926,
      "lng": 138.109061,
      "geocoding_level": null,
      "phone": "080-1284-1678",
      "license_no": "03265922",
      "license_date": "2021-06-25",
      "expire_date": "2026-06-30"
    },
    {
      "name": "駒",
      "name_kana": "コマ",
      "business_type": "① 飲食店営業",
      "address": "長野県小県郡青木村村松208-1",
      "lat": 36.370678,
      "lng": 138.133484,
      "geocoding_level": null,
      "phone": "0268-49-3154",
      "license_no": "03044281",
      "license_date": "2021-06-30",
      "expire_date": "2026-06-30"
    },
    {
      "name": "義民そばや",
      "name_kana": "ギミンソバヤ",
      "business_type": "① 飲食店営業",
      "address": "長野県小県郡青木村夫神277",
      "lat": 36.365719,
      "lng": 138.12561,
      "geocoding_level": null,
      "phone": "0268-49-2145",
      "license_no": "03167960",
      "license_date": "2021-06-30",
      "expire_date": "2027-06-30"
    },
    {
      "name": "沓掛温泉　大本の湯　満山荘",
      "name_kana": "クツカケオンセン　オオモトノユ　マンザンソウ",
      "business_type": "① 飲食店営業",
      "address": "長野県小県郡青木村沓掛434",
      "lat": 36.349595,
      "lng": 138.113579,
      "geocoding_level": null,
      "phone": "0268-49-2002",
      "license_no": "03250298",
      "license_date": "2021-06-30",
      "expire_date": "2026-06-30"
    },
    {
      "name": "みかえりの郷　あおき",
      "name_kana": "ミカエリノサト　アオキ",
      "business_type": "⑪ 菓子製造業",
      "address": "長野県小県郡青木村村松30-1",
      "lat": 36.372703,
      "lng": 138.140646,
      "geocoding_level": null,
      "phone": "0268-49-1700",
      "license_no": "03218884",
      "license_date": "2021-06-30",
      "expire_date": "2027-06-30"
    },
    {
      "name": "みかえりの郷　あおき",
      "name_kana": "ミカエリノサト　アオキ",
      "business_type": "㉚ 密封包装食品製造業",
      "address": "長野県小県郡青木村村松30-1",
      "lat": 36.372703,
      "lng": 138.140646,
      "geocoding_level": null,
      "phone": "0268-49-1700",
      "license_no": "03218902",
      "license_date": "2021-06-30",
      "expire_date": "2027-06-30"
    },
    {
      "name": "天然酵母パン　木まま屋",
      "name_kana": "テンネンコウボパン　キママヤ",
      "business_type": "① 飲食店営業",
      "address": "長野県小県郡青木村村松1985-2",
      "lat": 36.374592,
      "lng": 138.126011,
      "geocoding_level": null,
      "phone": "",
      "license_no": "03250801",
      "license_date": "2021-06-30",
      "expire_date": "2026-06-30"
    },
    {
      "name": "天然酵母パン　木まま屋",
      "name_kana": "テンネンコウボパン　キママヤ",
      "business_type": "⑪ 菓子製造業",
      "address": "長野県小県郡青木村村松1985-2",
      "lat": 36.374592,
      "lng": 138.126011,
      "geocoding_level": null,
      "phone": "",
      "license_no": "03250818",
      "license_date": "2021-06-30",
      "expire_date": "2026-06-30"
    },
    {
      "name": "天然酵母パン　木まま屋",
      "name_kana": "テンネンコウボパン　キママヤ",
      "business_type": "① 飲食店営業",
      "address": "長野県小県郡青木村村松1985-2",
      "lat": 36.374592,
      "lng": 138.126011,
      "geocoding_level": null,
      "phone": "090-8093-1570",
      "license_no": "03268039",
      "license_date": "2022-06-03",
      "expire_date": "2027-06-30"
    },
    {
      "name": "道の駅　あおき",
      "name_kana": "ミチノエキ　アオキ",
      "business_type": "② 調理機能を有する自動販売機（要許可）",
      "address": "長野県小県郡青木村村松30-2",
      "lat": 36.372703,
      "lng": 138.140646,
      "geocoding_level": null,
      "phone": "",
      "license_no": "03205844",
      "license_date": "2021-11-30",
      "expire_date": "2026-11-30"
    },
    {
      "name": "喫茶　かいかん",
      "name_kana": "キッサ　カイカン",
      "business_type": "① 飲食店営業",
      "address": "長野県小県郡青木村田沢3252",
      "lat": 36.370383,
      "lng": 138.122302,
      "geocoding_level": null,
      "phone": "0268-49-2224",
      "license_no": "03206411",
      "license_date": "2021-06-30",
      "expire_date": "2026-06-30"
    },
    {
      "name": "青木村立青木小学校",
      "name_kana": "アオキソンリツアオキショウガッコウ",
      "business_type": "㉖ 集団給食施設",
      "address": "長野県小県郡青木村田沢92",
      "lat": 36.368028,
      "lng": 138.129388,
      "geocoding_level": null,
      "phone": "0268-49-2009",
      "license_no": "",
      "license_date": null,
      "expire_date": null
    },
    {
      "name": "青木村立青木中学校",
      "name_kana": "アオキソンリツアオキチュウガッコウ",
      "business_type": "㉖ 集団給食施設",
      "address": "長野県小県郡青木村村松1840",
      "lat": 36.370777,
      "lng": 138.12762,
      "geocoding_level": null,
      "phone": "0268-49-2028",
      "license_no": "",
      "license_date": null,
      "expire_date": null
    },
    {
      "name": "信州うえだ農業協同組合　青木りんごジュース加工施設",
      "name_kana": "シンシュウウエダノウギョウキョウドウクミアイ　アオキリンゴジュースカコウシセツ",
      "business_type": "⑭ 清涼飲料水製造業",
      "address": "長野県小県郡青木村当郷258-2",
      "lat": 36.388164,
      "lng": 138.137439,
      "geocoding_level": null,
      "phone": "0268-49-3123",
      "license_no": "03166925",
      "license_date": "2021-06-30",
      "expire_date": "2027-06-30"
    },
    {
      "name": "青木村活性化施設　みかえりの郷",
      "name_kana": "アオキムラカッセイカシセツ　ミカエリノサト",
      "business_type": "⑲ 食用油脂製造業",
      "address": "長野県小県郡青木村村松30番地1",
      "lat": 36.372703,
      "lng": 138.140646,
      "geocoding_level": null,
      "phone": "0268-49-1700",
      "license_no": "03266173",
      "license_date": "2021-07-30",
      "expire_date": "2028-06-30"
    },
    {
      "name": "ＪＡ信州うえだ青木支所（農協祭）",
      "name_kana": "ジェイエイシンシュウウエダアオキシショノウキョウサイ",
      "business_type": "① 飲食店営業",
      "address": "長野県小県郡青木村田沢９２－５",
      "lat": 36.369248,
      "lng": 138.126873,
      "geocoding_level": null,
      "phone": "0268-49-3121",
      "license_no": "03115068",
      "license_date": "2025-06-30",
      "expire_date": "2030-06-30"
    },
    {
      "name": "増田久義",
      "name_kana": "マスダヒサヨシ",
      "business_type": "⑰ 農産保存食料品製造・加工業",
      "address": "長野県小県郡青木村村松279-1",
      "lat": 36.370745,
      "lng": 138.136607,
      "geocoding_level": null,
      "phone": "0268-49-2055",
      "license_no": "",
      "license_date": null,
      "expire_date": null
    },
    {
      "name": "金井養蜂場",
      "name_kana": "カナイヨウホウジョウ",
      "business_type": "⑰ 農産保存食料品製造・加工業",
      "address": "長野県小県郡青木村夫神1527-5",
      "lat": 36.366706,
      "lng": 138.136654,
      "geocoding_level": null,
      "phone": "0268-49-2730",
      "license_no": "",
      "license_date": null,
      "expire_date": null
    },
    {
      "name": "青木村保育園",
      "name_kana": "アオキムラホイクエン",
      "business_type": "㉖ 集団給食施設",
      "address": "長野県小県郡青木村田沢3294",
      "lat": 36.369249,
      "lng": 138.124403,
      "geocoding_level": null,
      "phone": "0268-49-2063",
      "license_no": "",
      "license_date": null,
      "expire_date": null
    },
    {
      "name": "株式会社竹内製作所青木工場従業員食堂",
      "name_kana": "カブシキガイシャタケウチセイサクジョアオキコウジョウジュウギョウインショクドウ",
      "business_type": "① 飲食店営業",
      "address": "長野県小県郡青木村当郷２４７",
      "lat": 36.373396,
      "lng": 138.145011,
      "geocoding_level": null,
      "phone": "0268-75-0411",
      "license_no": "03271221",
      "license_date": "2023-08-10",
      "expire_date": "2030-06-30"
    },
    {
      "name": "日軽松尾工業（株）奈良本工場社員食堂",
      "name_kana": "ニッケイマツオコウギョウカブシキガイシャ　ナラモトコウジョウシャインショクドウ",
      "business_type": "① 飲食店営業",
      "address": "長野県小県郡青木村奈良本１７８７－５",
      "lat": 36.342384,
      "lng": 138.096913,
      "geocoding_level": null,
      "phone": "0268-49-2080",
      "license_no": "03206009",
      "license_date": "2024-06-28",
      "expire_date": "2030-06-30"
    },
    {
      "name": "ファミリーマート信州青木村店",
      "name_kana": "ファミリーマートシンシュウアオキムラテン",
      "business_type": "① 魚介類販売業（包装済みの魚介類のみの販売）",
      "address": "長野県小県郡青木村当郷134",
      "lat": 36.374664,
      "lng": 138.150007,
      "geocoding_level": null,
      "phone": "0268-37-3018",
      "license_no": "",
      "license_date": null,
      "expire_date": null
    },
    {
      "name": "ファミリーマート信州青木村店",
      "name_kana": "ファミリーマートシンシュウアオキムラテン",
      "business_type": "② 食肉販売業（包装済みの食肉のみの販売）",
      "address": "長野県小県郡青木村当郷134",
      "lat": 36.374664,
      "lng": 138.150007,
      "geocoding_level": null,
      "phone": "0268-37-3018",
      "license_no": "",
      "license_date": null,
      "expire_date": null
    },
    {
      "name": "ファミリーマート信州青木村店",
      "name_kana": "ファミリーマートシンシュウアオキムラテン",
      "business_type": "③ 乳類販売業",
      "address": "長野県小県郡青木村当郷134",
      "lat": 36.374664,
      "lng": 138.150007,
      "geocoding_level": null,
      "phone": "0268-37-3018",
      "license_no": "",
      "license_date": null,
      "expire_date": null
    },
    {
      "name": "ファミリーマート信州青木村店",
      "name_kana": "ファミリーマートシンシュウアオキムラテン",
      "business_type": "⑩ コンビニエンスストア",
      "address": "長野県小県郡青木村当郷134",
      "lat": 36.374664,
      "lng": 138.150007,
      "geocoding_level": null,
      "phone": "0268-37-3018",
      "license_no": "",
      "license_date": null,
      "expire_date": null
    },
    {
      "name": "ファミリーマート信州青木村店",
      "name_kana": "ファミリーマートシンシュウアオキムラテン",
      "business_type": "① 飲食店営業",
      "address": "長野県小県郡青木村当郷１３４",
      "lat": 36.374664,
      "lng": 138.150007,
      "geocoding_level": null,
      "phone": "0268-37-3018",
      "license_no": "03238068",
      "license_date": "2023-06-30",
      "expire_date": "2028-06-30"
    },
    {
      "name": "特別養護老人ホームラポートあおき",
      "name_kana": "トクベツヨウゴロウジンホームラポートアオキ",
      "business_type": "㉖ 集団給食施設",
      "address": "長野県小県郡青木村田沢3402-1",
      "lat": 36.369202,
      "lng": 138.121452,
      "geocoding_level": null,
      "phone": "0268491111",
      "license_no": "",
      "license_date": null,
      "expire_date": null
    },
    {
      "name": "春喜",
      "name_kana": "ハルキ",
      "business_type": "㉑ 製茶業",
      "address": "長野県小県郡青木村村松1035",
      "lat": 36.372869,
      "lng": 138.131574,
      "geocoding_level": null,
      "phone": "",
      "license_no": "",
      "license_date": null,
      "expire_date": null
    },
    {
      "name": "沓掛果樹園",
      "name_kana": "クツカケカジュエン",
      "business_type": "⑰ 農産保存食料品製造・加工業",
      "address": "長野県小県郡青木村村松1822",
      "lat": 36.371763,
      "lng": 138.129029,
      "geocoding_level": null,
      "phone": "0268-49-2808",
      "license_no": "",
      "license_date": null,
      "expire_date": null
    },
    {
      "name": "たこ六",
      "name_kana": "タコロク",
      "business_type": "① 飲食店営業",
      "address": "長野県小県郡青木村田沢156-39-50",
      "lat": 36.371272,
      "lng": 138.124688,
      "geocoding_level": null,
      "phone": "",
      "license_no": "03268174",
      "license_date": "2022-06-27",
      "expire_date": "2027-06-30"
    },
    {
      "name": "たこ六",
      "name_kana": "タコロク",
      "business_type": "① 飲食店営業",
      "address": "長野県小県郡青木村田沢１５６－３９－５０",
      "lat": 36.371272,
      "lng": 138.124688,
      "geocoding_level": null,
      "phone": "",
      "license_no": "03274191",
      "license_date": "2024-09-20",
      "expire_date": "2030-06-30"
    },
    {
      "name": "はるまきガーデンテラス",
      "name_kana": "ハルマキガーデンテラス",
      "business_type": "⑪ 菓子製造業",
      "address": "長野県小県郡青木村村松2151",
      "lat": 36.376497,
      "lng": 138.122899,
      "geocoding_level": null,
      "phone": "0268-49-2454",
      "license_no": "03268200",
      "license_date": "2022-07-01",
      "expire_date": "2029-06-30"
    },
    {
      "name": "株式会社沓掛冷食",
      "name_kana": "カブシキガイシャクツカケレイショク",
      "business_type": "㉗ 冷凍食品製造業",
      "address": "長野県小県郡青木村村松２１５１",
      "lat": 36.376497,
      "lng": 138.122899,
      "geocoding_level": null,
      "phone": "0268-49-2454",
      "license_no": "03044558",
      "license_date": "2022-06-30",
      "expire_date": "2028-06-30"
    },
    {
      "name": "株式会社沓掛冷食",
      "name_kana": "カブシキガイシャクツカケレイショク",
      "business_type": "㉕ そうざい製造業",
      "address": "長野県小県郡青木村村松２１５１",
      "lat": 36.376497,
      "lng": 138.122899,
      "geocoding_level": null,
      "phone": "0268-49-2454",
      "license_no": "03044736",
      "license_date": "2022-06-30",
      "expire_date": "2028-06-30"
    },
    {
      "name": "六鍵",
      "name_kana": "ロッキー",
      "business_type": "① 飲食店営業",
      "address": "長野県小県郡青木村田沢2673",
      "lat": 36.379171,
      "lng": 138.090276,
      "geocoding_level": null,
      "phone": "090-1828-4684",
      "license_no": "03268295",
      "license_date": "2022-07-08",
      "expire_date": "2028-06-30"
    },
    {
      "name": "香以山",
      "name_kana": "カイザン",
      "business_type": "⑰ 農産保存食料品製造・加工業",
      "address": "長野県小県郡青木村大字当郷1867",
      "lat": 36.381022,
      "lng": 138.144696,
      "geocoding_level": null,
      "phone": "0268-49-3176",
      "license_no": "",
      "license_date": null,
      "expire_date": null
    },
    {
      "name": "淡水魚かおる屋",
      "name_kana": "タンスイギョカオルヤ",
      "business_type": "① 飲食店営業",
      "address": "長野県小県郡青木村奈良本３３０",
      "lat": 36.359221,
      "lng": 138.112358,
      "geocoding_level": null,
      "phone": "0268-49-2618",
      "license_no": "03144220",
      "license_date": "2022-06-30",
      "expire_date": "2028-06-30"
    },
    {
      "name": "淡水魚かおる屋",
      "name_kana": "タンスイギョカオルヤ",
      "business_type": "④ 魚介類販売業",
      "address": "長野県小県郡青木村奈良本３３０",
      "lat": 36.359221,
      "lng": 138.112358,
      "geocoding_level": null,
      "phone": "0268-49-2618",
      "license_no": "03144237",
      "license_date": "2022-06-30",
      "expire_date": "2028-06-30"
    },
    {
      "name": "淡水魚　かおる屋",
      "name_kana": "タンスイギョ　カオルヤ",
      "business_type": "㉕ そうざい製造業",
      "address": "長野県小県郡青木村奈良本３３０",
      "lat": 36.359221,
      "lng": 138.112358,
      "geocoding_level": null,
      "phone": "0268-49-2618",
      "license_no": "03224912",
      "license_date": "2022-06-30",
      "expire_date": "2028-06-30"
    },
    {
      "name": "淡水魚　かおる屋",
      "name_kana": "タンスイギョ　カオルヤ",
      "business_type": "⑦ 野菜果物販売業",
      "address": "長野県小県郡青木村奈良本330",
      "lat": 36.359221,
      "lng": 138.112358,
      "geocoding_level": null,
      "phone": "0268-49-2618",
      "license_no": "",
      "license_date": null,
      "expire_date": null
    },
    {
      "name": "信州青木村御食事処　恵",
      "name_kana": "シンシュウアオキムラオショクジドコロ　メグミ",
      "business_type": "① 飲食店営業",
      "address": "長野県小県郡青木村田沢２４１１－１",
      "lat": 36.379171,
      "lng": 138.090276,
      "geocoding_level": null,
      "phone": "0268-49-1167",
      "license_no": "03195777",
      "license_date": "2022-06-30",
      "expire_date": "2028-06-30"
    },
    {
      "name": "木子里",
      "name_kana": "キコリ",
      "business_type": "① 飲食店営業",
      "address": "長野県小県郡青木村夫神６３－９",
      "lat": 36.357011,
      "lng": 138.127507,
      "geocoding_level": null,
      "phone": "0268-49-0908",
      "license_no": "03223689",
      "license_date": "2022-06-30",
      "expire_date": "2028-06-30"
    },
    {
      "name": "そば屋　さかい",
      "name_kana": "ソバヤ　サカイ",
      "business_type": "① 飲食店営業",
      "address": "長野県小県郡青木村当郷１０６－１",
      "lat": 36.374581,
      "lng": 138.151951,
      "geocoding_level": null,
      "phone": "0268-49-3255",
      "license_no": "03187201",
      "license_date": "2022-06-30",
      "expire_date": "2027-06-30"
    },
    {
      "name": "セブンイレブン　信州青木村店",
      "name_kana": "セブンイレブン　シンシュウアオキムラテン",
      "business_type": "① 飲食店営業",
      "address": "長野県小県郡青木村大字村松字大沖沢１５３－１",
      "lat": 36.379171,
      "lng": 138.090276,
      "geocoding_level": null,
      "phone": "0268-49-3654",
      "license_no": "03233021",
      "license_date": "2022-06-30",
      "expire_date": "2027-06-30"
    },
    {
      "name": "こみやま食堂",
      "name_kana": "コミヤマショクドウ",
      "business_type": "① 飲食店営業",
      "address": "長野県小県郡青木村田沢１９４４",
      "lat": 36.388088,
      "lng": 138.09559,
      "geocoding_level": null,
      "phone": "0268-49-3243",
      "license_no": "03233943",
      "license_date": "2022-06-30",
      "expire_date": "2027-06-30"
    },
    {
      "name": "たい八",
      "name_kana": "タイハチ",
      "business_type": "⑪ 菓子製造業",
      "address": "長野県小県郡青木村沓掛１３１０－１",
      "lat": 36.348429,
      "lng": 138.10983,
      "geocoding_level": null,
      "phone": "0268-49-2225",
      "license_no": "03184760",
      "license_date": "2022-06-30",
      "expire_date": "2027-06-30"
    },
    {
      "name": "福の島　ファミリー",
      "name_kana": "フクノシマ　ファミリー",
      "business_type": "① 飲食店営業",
      "address": "長野県小県郡青木村夫神７１８",
      "lat": 36.357011,
      "lng": 138.127507,
      "geocoding_level": null,
      "phone": "",
      "license_no": "03268780",
      "license_date": "2022-09-06",
      "expire_date": "2028-06-30"
    },
    {
      "name": "山陰の味覚",
      "name_kana": "サンインノミカク",
      "business_type": "① 魚介類販売業（包装済みの魚介類のみの販売）",
      "address": "長野県小県郡青木村村松26-1",
      "lat": 36.372881,
      "lng": 138.140117,
      "geocoding_level": null,
      "phone": "",
      "license_no": "",
      "license_date": null,
      "expire_date": null
    },
    {
      "name": "Ｎｏｂａｒａ　Ｈｏｍｅｓｔｅａｄ　Ｂｒｅｗｅｒｙ",
      "name_kana": "ノバラ　ホームステッド　ブルワリー",
      "business_type": "㉑ 酒類製造業",
      "address": "長野県小県郡青木村大字奈良本208-7",
      "lat": 36.345668,
      "lng": 138.085314,
      "geocoding_level": null,
      "phone": "0268-75-5183",
      "license_no": "03269155",
      "license_date": "2022-10-07",
      "expire_date": "2028-06-30"
    },
    {
      "name": "Ｎｏｂａｒａ  Ｈｏｍｅｓｔｅａｄ  Ｂｒｅｗｅｒｙ",
      "name_kana": "ノバラ　ホームステッド　ブルワリー",
      "business_type": "① 飲食店営業",
      "address": "長野県小県郡青木村奈良本２０８－７",
      "lat": 36.361085,
      "lng": 138.111547,
      "geocoding_level": null,
      "phone": "0268-75-5183",
      "license_no": "03271890",
      "license_date": "2023-11-08",
      "expire_date": "2029-06-30"
    },
    {
      "name": "癒しの森　ＭＵ",
      "name_kana": "イヤシノモリ　ムー",
      "business_type": "⑰ 農産保存食料品製造・加工業",
      "address": "長野県小県郡青木村村松１８５６-３",
      "lat": 36.371735,
      "lng": 138.127086,
      "geocoding_level": null,
      "phone": "080-5040-9987",
      "license_no": "",
      "license_date": null,
      "expire_date": null
    },
    {
      "name": "道の駅　あおき",
      "name_kana": "ミチノエキ　アオキ",
      "business_type": "⑦ 野菜果物販売業",
      "address": "長野県小県郡青木村村松２６-１",
      "lat": 36.372881,
      "lng": 138.140117,
      "geocoding_level": null,
      "phone": "",
      "license_no": "",
      "license_date": null,
      "expire_date": null
    },
    {
      "name": "道の駅　あおき",
      "name_kana": "ミチノエキ　アオキ",
      "business_type": "⑬ その他の食料・飲料販売業",
      "address": "長野県小県郡青木村村松２６-１",
      "lat": 36.372881,
      "lng": 138.140117,
      "geocoding_level": null,
      "phone": "",
      "license_no": "",
      "license_date": null,
      "expire_date": null
    },
    {
      "name": "花見　郁夫",
      "name_kana": "ハナミ　イクオ",
      "business_type": "⑰ 農産保存食料品製造・加工業",
      "address": "長野県小県郡青木村夫神１５４３",
      "lat": 36.366317,
      "lng": 138.136457,
      "geocoding_level": null,
      "phone": "",
      "license_no": "",
      "license_date": null,
      "expire_date": null
    },
    {
      "name": "Ｙｏｓｈｉｔｏｍｏ",
      "name_kana": "ヨシトモ",
      "business_type": "① 飲食店営業",
      "address": "長野県小県郡青木村",
      "lat": 36.370148,
      "lng": 138.128518,
      "geocoding_level": null,
      "phone": "",
      "license_no": "03270314",
      "license_date": "2023-04-28",
      "expire_date": "2028-04-30"
    },
    {
      "name": "ＹＯＳＨＩＴＯＭＯ",
      "name_kana": "ヨシトモ",
      "business_type": "⑳ 精穀・製粉業",
      "address": "長野県小県郡青木村村松１００２",
      "lat": 36.371744,
      "lng": 138.132054,
      "geocoding_level": null,
      "phone": "0268-71-0226",
      "license_no": "",
      "license_date": null,
      "expire_date": null
    },
    {
      "name": "ＹＯＳＨＩＴＯＭＯ",
      "name_kana": "ヨシトモ",
      "business_type": "⑪ 菓子製造業",
      "address": "長野県小県郡青木村村松１００２",
      "lat": 36.371744,
      "lng": 138.132054,
      "geocoding_level": null,
      "phone": "0268-71-0226",
      "license_no": "03234575",
      "license_date": "2025-06-30",
      "expire_date": "2031-06-30"
    },
    {
      "name": "ＢＵＲＧＥＲ　ＴＯＵＲ",
      "name_kana": "バーガツアー",
      "business_type": "① 飲食店営業",
      "address": "長野県小県郡青木村田沢３２８６－４",
      "lat": 36.369298,
      "lng": 138.125223,
      "geocoding_level": null,
      "phone": "090-4442-7668",
      "license_no": "03274031",
      "license_date": "2024-09-09",
      "expire_date": "2030-06-30"
    },
    {
      "name": "萬屋　八丁",
      "name_kana": "ヨロズヤ　ハッチョウ",
      "business_type": "① 飲食店営業",
      "address": "長野県小県郡青木村村松５６－１",
      "lat": 36.371831,
      "lng": 138.140501,
      "geocoding_level": null,
      "phone": "0268-75-8078",
      "license_no": "03251417",
      "license_date": "2023-06-30",
      "expire_date": "2029-06-30"
    },
    {
      "name": "（有）米屋増田商店",
      "name_kana": "ユウゲンガイシャ　ヨネヤマスダショウテン",
      "business_type": "㉕ そうざい製造業",
      "address": "長野県小県郡青木村田沢１０２",
      "lat": 36.369767,
      "lng": 138.128232,
      "geocoding_level": null,
      "phone": "0268-49-2010",
      "license_no": "03169661",
      "license_date": "2023-06-30",
      "expire_date": "2028-06-30"
    },
    {
      "name": "（有）米屋増田商店",
      "name_kana": "ユウゲンガイシャヨネヤマスダショウテン",
      "business_type": "④ 魚介類販売業",
      "address": "長野県小県郡青木村田沢１０２",
      "lat": 36.369767,
      "lng": 138.128232,
      "geocoding_level": null,
      "phone": "0268-49-2010",
      "license_no": "03169686",
      "license_date": "2023-06-30",
      "expire_date": "2028-06-30"
    },
    {
      "name": "（有）米屋増田商店",
      "name_kana": "ユウゲンガイシャヨネヤマスダショウテン",
      "business_type": "③ 食肉販売業",
      "address": "長野県小県郡青木村田沢１０２",
      "lat": 36.369767,
      "lng": 138.128232,
      "geocoding_level": null,
      "phone": "0268-49-2010",
      "license_no": "03169679",
      "license_date": "2023-06-30",
      "expire_date": "2028-06-30"
    },
    {
      "name": "居酒屋くつかけ",
      "name_kana": "イザカヤクツカケ",
      "business_type": "① 飲食店営業",
      "address": "長野県小県郡青木村田沢１２８－８",
      "lat": 36.369659,
      "lng": 138.126039,
      "geocoding_level": null,
      "phone": "0268-49-2239",
      "license_no": "03169281",
      "license_date": "2023-06-30",
      "expire_date": "2028-06-30"
    },
    {
      "name": "クロスロードあおき　バウム工房",
      "name_kana": "クロスロードアオキ　バウムコウボウ",
      "business_type": "⑪ 菓子製造業",
      "address": "長野県小県郡青木村田沢字立石３２２５－６",
      "lat": 36.379171,
      "lng": 138.090276,
      "geocoding_level": null,
      "phone": "0268-49-0604",
      "license_no": "03227755",
      "license_date": "2023-06-30",
      "expire_date": "2029-06-30"
    },
    {
      "name": "山城屋リゾート",
      "name_kana": "ヤマシロヤリゾート",
      "business_type": "① 飲食店営業",
      "address": "長野県小県郡青木村田沢２６９０－１",
      "lat": 36.368546,
      "lng": 138.105183,
      "geocoding_level": null,
      "phone": "0268-75-8821",
      "license_no": "03271996",
      "license_date": "2023-11-24",
      "expire_date": "2030-06-30"
    },
    {
      "name": "(株)キャステク",
      "name_kana": "キャステク",
      "business_type": "⑫ 自動販売機による販売業（コップ式自動販売機（自動洗浄・屋内設置）及び営業許可の対象となる自動販売機を除く）",
      "address": "長野県小県郡青木村夫神1282",
      "lat": 36.36541,
      "lng": 138.128698,
      "geocoding_level": null,
      "phone": "",
      "license_no": "",
      "license_date": null,
      "expire_date": null
    },
    {
      "name": "(株)キャステク",
      "name_kana": "キャステク",
      "business_type": "② 調理機能を有する自動販売機（要許可）",
      "address": "長野県小県郡青木村夫神1282",
      "lat": 36.36541,
      "lng": 138.128698,
      "geocoding_level": null,
      "phone": "",
      "license_no": "03242044",
      "license_date": "2024-06-28",
      "expire_date": "2029-06-30"
    },
    {
      "name": "おやきの山本",
      "name_kana": "オヤキノヤマモト",
      "business_type": "⑪ 菓子製造業",
      "address": "長野県小県郡青木村当郷２３３",
      "lat": 36.373626,
      "lng": 138.146323,
      "geocoding_level": null,
      "phone": "0268-37-3636",
      "license_no": "03243649",
      "license_date": "2024-06-28",
      "expire_date": "2029-06-30"
    },
    {
      "name": "ますや旅館",
      "name_kana": "マスヤリョカン",
      "business_type": "① 飲食店営業",
      "address": "長野県小県郡青木村田沢２６８６",
      "lat": 36.369276,
      "lng": 138.105016,
      "geocoding_level": null,
      "phone": "0268-49-2001",
      "license_no": "03044387",
      "license_date": "2025-06-30",
      "expire_date": "2031-06-30"
    },
    {
      "name": "富士屋",
      "name_kana": "フジヤ",
      "business_type": "① 飲食店営業",
      "address": "長野県小県郡青木村田沢２８６８－１",
      "lat": 36.379171,
      "lng": 138.090276,
      "geocoding_level": null,
      "phone": "0268-49-3111",
      "license_no": "03044370",
      "license_date": "2025-06-30",
      "expire_date": "2031-06-30"
    },
    {
      "name": "沓掛製菓舗",
      "name_kana": "クツカケセイカホ",
      "business_type": "⑪ 菓子製造業",
      "address": "長野県小県郡青木村奈良本７３９",
      "lat": 36.352673,
      "lng": 138.111223,
      "geocoding_level": null,
      "phone": "0268-49-2107",
      "license_no": "03104075",
      "license_date": "2025-06-30",
      "expire_date": "2031-06-30"
    },
    {
      "name": "ＭａｓＡｏｋｉ　Ｂａｋｅｒｙ",
      "name_kana": "マサオキ　ベーカリー",
      "business_type": "⑪ 菓子製造業",
      "address": "長野県小県郡青木村奈良本３８０－５",
      "lat": 36.358369,
      "lng": 138.11396,
      "geocoding_level": null,
      "phone": "080-5674-8511",
      "license_no": "03273350",
      "license_date": "2024-06-07",
      "expire_date": "2030-06-30"
    },
    {
      "name": "ＭａｓＡｏｋｉ　Ｂａｋｅｒｙ",
      "name_kana": "マサオキ　ベーカリー",
      "business_type": "① 飲食店営業",
      "address": "長野県小県郡青木村奈良本３８０－５",
      "lat": 36.358369,
      "lng": 138.11396,
      "geocoding_level": null,
      "phone": "080-5674-8511",
      "license_no": "03273342",
      "license_date": "2024-06-07",
      "expire_date": "2030-06-30"
    }
  ]
}
