{
  "meta": {
    "updated": 1783906731,
    "sources": [
      {
        "source": "福島県食品営業許可施設一覧",
        "license": "CC BY 2.1 JP"
      },
      {
        "source": "厚生労働省 食品衛生申請等システム（オープンデータ）",
        "license": "公共データ利用規約（第1.0版, PDL1.0）"
      }
    ]
  },
  "data": [
    {
      "name": "有限会社三島屋",
      "name_kana": "",
      "business_type": "飲食店営業",
      "address": "伊達市長岡１",
      "lat": 37.81818,
      "lng": 140.502244,
      "geocoding_level": 3,
      "phone": "024-583-2042",
      "license_no": "2-24",
      "license_date": null,
      "expire_date": null
    },
    {
      "name": "カラオケ．スナック．ゴン太",
      "name_kana": "",
      "business_type": "飲食店営業",
      "address": "伊達市伏黒字八反田５１",
      "lat": 37.819095,
      "lng": 140.562894,
      "geocoding_level": 2,
      "phone": "024-583-2364",
      "license_no": "2-7",
      "license_date": null,
      "expire_date": null
    },
    {
      "name": "松葉屋",
      "name_kana": "",
      "business_type": "飲食店営業",
      "address": "伊達市本町８－４",
      "lat": 37.818456549,
      "lng": 140.501531351,
      "geocoding_level": 8,
      "phone": "024-583-2048",
      "license_no": "2-25",
      "license_date": null,
      "expire_date": null
    },
    {
      "name": "松葉屋",
      "name_kana": "",
      "business_type": "魚介類販売業",
      "address": "伊達市本町８－４",
      "lat": 37.818456549,
      "lng": 140.501531351,
      "geocoding_level": 8,
      "phone": "024-583-2048",
      "license_no": "2-26",
      "license_date": null,
      "expire_date": null
    },
    {
      "name": "本間精肉店",
      "name_kana": "",
      "business_type": "飲食店営業",
      "address": "伊達市本町１６－２",
      "lat": 37.818744058,
      "lng": 140.50156246000003,
      "geocoding_level": 8,
      "phone": "024-583-2310",
      "license_no": "2-10",
      "license_date": null,
      "expire_date": null
    },
    {
      "name": "本間精肉店",
      "name_kana": "",
      "business_type": "食肉販売業",
      "address": "伊達市本町１６－２",
      "lat": 37.818744058,
      "lng": 140.50156246000003,
      "geocoding_level": 8,
      "phone": "024-583-2310",
      "license_no": "2-11",
      "license_date": null,
      "expire_date": null
    },
    {
      "name": "ショーケーフーズ有限会社",
      "name_kana": "",
      "business_type": "飲食店営業",
      "address": "伊達市南堀１３－８",
      "lat": 37.818393221,
      "lng": 140.49905755,
      "geocoding_level": 8,
      "phone": "024-583-3120",
      "license_no": "2-11",
      "license_date": null,
      "expire_date": null
    },
    {
      "name": "ショーケーフーズ有限会社",
      "name_kana": "",
      "business_type": "菓子製造業",
      "address": "伊達市南堀１３－８",
      "lat": 37.818393221,
      "lng": 140.49905755,
      "geocoding_level": 8,
      "phone": "024-583-3120",
      "license_no": "2-62",
      "license_date": null,
      "expire_date": null
    },
    {
      "name": "玉泉堂菓子店",
      "name_kana": "",
      "business_type": "菓子製造業",
      "address": "伊達市梁川町字本町２７－１",
      "lat": 37.853237975,
      "lng": 140.605359471,
      "geocoding_level": 8,
      "phone": "024-577-0358",
      "license_no": "2-12",
      "license_date": null,
      "expire_date": null
    },
    {
      "name": "山城食品株式会社",
      "name_kana": "",
      "business_type": "食肉処理業",
      "address": "伊達市梁川町字八筋９",
      "lat": 37.819095,
      "lng": 140.562894,
      "geocoding_level": 2,
      "phone": "024-577-1135",
      "license_no": "2-11",
      "license_date": null,
      "expire_date": null
    },
    {
      "name": "山城食品株式会社",
      "name_kana": "",
      "business_type": "そうざい製造業",
      "address": "伊達市梁川町字八筋９",
      "lat": 37.819095,
      "lng": 140.562894,
      "geocoding_level": 2,
      "phone": "024-577-1135",
      "license_no": "2-164",
      "license_date": null,
      "expire_date": null
    },
    {
      "name": "有限会社佐藤商店",
      "name_kana": "",
      "business_type": "飲食店営業",
      "address": "伊達市梁川町細谷字道林下１２９",
      "lat": 37.819095,
      "lng": 140.562894,
      "geocoding_level": 2,
      "phone": "024-577-0723",
      "license_no": "2-12",
      "license_date": null,
      "expire_date": null
    },
    {
      "name": "有限会社佐藤商店",
      "name_kana": "",
      "business_type": "魚介類販売業",
      "address": "伊達市梁川町細谷字道林下１２９",
      "lat": 37.819095,
      "lng": 140.562894,
      "geocoding_level": 2,
      "phone": "024-577-0723",
      "license_no": "2-13",
      "license_date": null,
      "expire_date": null
    },
    {
      "name": "有限会社佐藤商店",
      "name_kana": "",
      "business_type": "食肉販売業",
      "address": "伊達市梁川町細谷字道林下１２９",
      "lat": 37.819095,
      "lng": 140.562894,
      "geocoding_level": 2,
      "phone": "024-577-0723",
      "license_no": "2-14",
      "license_date": null,
      "expire_date": null
    },
    {
      "name": "一條豆腐店",
      "name_kana": "",
      "business_type": "豆腐製造業",
      "address": "伊達市梁川町五十沢字柴崎４９－２",
      "lat": 37.819095,
      "lng": 140.562894,
      "geocoding_level": 2,
      "phone": "024-577-3061",
      "license_no": "2-13",
      "license_date": null,
      "expire_date": null
    },
    {
      "name": "鮮魚　丹季",
      "name_kana": "",
      "business_type": "飲食店営業",
      "address": "伊達市梁川町字右城町２５－１",
      "lat": 37.857439781,
      "lng": 140.607496087,
      "geocoding_level": 8,
      "phone": "024-577-0029",
      "license_no": "2-212",
      "license_date": null,
      "expire_date": null
    },
    {
      "name": "鮮魚　丹季",
      "name_kana": "",
      "business_type": "魚介類販売業",
      "address": "伊達市梁川町字右城町２５－１",
      "lat": 37.857439781,
      "lng": 140.607496087,
      "geocoding_level": 8,
      "phone": "024-577-0029",
      "license_no": "2-165",
      "license_date": null,
      "expire_date": null
    },
    {
      "name": "福のれん",
      "name_kana": "",
      "business_type": "飲食店営業",
      "address": "伊達市梁川町広瀬町１３",
      "lat": 37.84921462,
      "lng": 140.603529576,
      "geocoding_level": 8,
      "phone": "024-577-0481",
      "license_no": "2-166",
      "license_date": null,
      "expire_date": null
    },
    {
      "name": "福のれん",
      "name_kana": "",
      "business_type": "菓子製造業",
      "address": "伊達市梁川町広瀬町１３",
      "lat": 37.84921462,
      "lng": 140.603529576,
      "geocoding_level": 8,
      "phone": "024-577-0481",
      "license_no": "2-167",
      "license_date": null,
      "expire_date": null
    },
    {
      "name": "味処栄寿し",
      "name_kana": "",
      "business_type": "飲食店営業",
      "address": "伊達市梁川町広瀬町９６",
      "lat": 37.849408427,
      "lng": 140.6026701,
      "geocoding_level": 8,
      "phone": "024-577-1213",
      "license_no": "2-168",
      "license_date": null,
      "expire_date": null
    },
    {
      "name": "新よね",
      "name_kana": "",
      "business_type": "飲食店営業",
      "address": "伊達市梁川町字北本町３－５",
      "lat": 37.855651098,
      "lng": 140.6047575,
      "geocoding_level": 8,
      "phone": "024-577-0073",
      "license_no": "2-312",
      "license_date": null,
      "expire_date": null
    },
    {
      "name": "鉄板焼居酒屋しょう助",
      "name_kana": "",
      "business_type": "飲食店営業",
      "address": "伊達市梁川町字南本町４０－２",
      "lat": 37.854879127,
      "lng": 140.602812049,
      "geocoding_level": 8,
      "phone": "024-577-6481",
      "license_no": "2-14",
      "license_date": null,
      "expire_date": null
    },
    {
      "name": "新富",
      "name_kana": "",
      "business_type": "飲食店営業",
      "address": "伊達市梁川町柳田字町尻８－１",
      "lat": 37.819095,
      "lng": 140.562894,
      "geocoding_level": 2,
      "phone": "024-577-5095",
      "license_no": "2-15",
      "license_date": null,
      "expire_date": null
    },
    {
      "name": "マザーヤマキ",
      "name_kana": "",
      "business_type": "飲食店営業",
      "address": "伊達市梁川町字中町３０－２",
      "lat": 37.853627807,
      "lng": 140.606233505,
      "geocoding_level": 8,
      "phone": "024-577-6626",
      "license_no": "2-228",
      "license_date": null,
      "expire_date": null
    },
    {
      "name": "マザーヤマキ",
      "name_kana": "",
      "business_type": "菓子製造業",
      "address": "伊達市梁川町字中町３０－２",
      "lat": 37.853627807,
      "lng": 140.606233505,
      "geocoding_level": 8,
      "phone": "024-577-6626",
      "license_no": "2-18",
      "license_date": null,
      "expire_date": null
    },
    {
      "name": "有限会社大橋パン店",
      "name_kana": "",
      "business_type": "菓子製造業",
      "address": "伊達市保原町字七丁目６",
      "lat": 37.819095,
      "lng": 140.562894,
      "geocoding_level": 2,
      "phone": "024-576-2608",
      "license_no": "2-64",
      "license_date": null,
      "expire_date": null
    },
    {
      "name": "カラオケバス",
      "name_kana": "",
      "business_type": "飲食店営業",
      "address": "伊達市保原町中瀬字日の出１９",
      "lat": 37.845034585,
      "lng": 140.568281969,
      "geocoding_level": 8,
      "phone": "024-575-1595",
      "license_no": "2-27",
      "license_date": null,
      "expire_date": null
    },
    {
      "name": "遠藤菓子舗",
      "name_kana": "",
      "business_type": "菓子製造業",
      "address": "伊達市保原町二井田字八百地９１－５",
      "lat": 37.838749866,
      "lng": 140.57754149200002,
      "geocoding_level": 8,
      "phone": "024-576-4060",
      "license_no": "2-15",
      "license_date": null,
      "expire_date": null
    },
    {
      "name": "有限会社本家舟山",
      "name_kana": "",
      "business_type": "みそ又はしょうゆ製造業",
      "address": "伊達市保原町二井田字桐木３７",
      "lat": 37.831462516,
      "lng": 140.574480908,
      "geocoding_level": 8,
      "phone": "024-575-3090",
      "license_no": "2-19",
      "license_date": null,
      "expire_date": null
    },
    {
      "name": "札幌ラーメンどさん子大将",
      "name_kana": "",
      "business_type": "飲食店営業",
      "address": "伊達市保原町柱田字宮ノ内９５－２",
      "lat": 37.805065487,
      "lng": 140.573206586,
      "geocoding_level": 8,
      "phone": "024-575-4566",
      "license_no": "2-21",
      "license_date": null,
      "expire_date": null
    },
    {
      "name": "肉のむらい",
      "name_kana": "",
      "business_type": "飲食店営業",
      "address": "伊達市保原町柱田字宮ノ内９２－２",
      "lat": 37.805440562,
      "lng": 140.572991185,
      "geocoding_level": 8,
      "phone": "024-575-2840",
      "license_no": "2-66",
      "license_date": null,
      "expire_date": null
    },
    {
      "name": "肉のむらい",
      "name_kana": "",
      "business_type": "食肉販売業",
      "address": "伊達市保原町柱田字宮ノ内９２－２",
      "lat": 37.805440562,
      "lng": 140.572991185,
      "geocoding_level": 8,
      "phone": "024-575-2840",
      "license_no": "2-67",
      "license_date": null,
      "expire_date": null
    },
    {
      "name": "東栄食品株式会社",
      "name_kana": "",
      "business_type": "食品の冷凍又は冷蔵業",
      "address": "伊達市保原町大泉字道下３９－１",
      "lat": 37.821038934,
      "lng": 140.575967648,
      "geocoding_level": 8,
      "phone": "024-575-4168",
      "license_no": "2-16",
      "license_date": null,
      "expire_date": null
    },
    {
      "name": "東栄食品株式会社",
      "name_kana": "",
      "business_type": "食肉処理業",
      "address": "伊達市保原町大泉字道下３９－１",
      "lat": 37.821038934,
      "lng": 140.575967648,
      "geocoding_level": 8,
      "phone": "024-575-4168",
      "license_no": "2-16",
      "license_date": null,
      "expire_date": null
    },
    {
      "name": "大泉屋",
      "name_kana": "",
      "business_type": "飲食店営業",
      "address": "伊達市保原町大泉字平地内２８－２",
      "lat": 37.825767652,
      "lng": 140.566571066,
      "geocoding_level": 8,
      "phone": "024-576-4373",
      "license_no": "2-17",
      "license_date": null,
      "expire_date": null
    },
    {
      "name": "大泉屋",
      "name_kana": "",
      "business_type": "菓子製造業",
      "address": "伊達市保原町大泉字平地内２８－２",
      "lat": 37.825767652,
      "lng": 140.566571066,
      "geocoding_level": 8,
      "phone": "024-576-4373",
      "license_no": "2-17",
      "license_date": null,
      "expire_date": null
    },
    {
      "name": "よろず",
      "name_kana": "",
      "business_type": "飲食店営業",
      "address": "伊達市保原町字千刈１－７",
      "lat": 37.812677409,
      "lng": 140.55196524,
      "geocoding_level": 8,
      "phone": "024-576-2721",
      "license_no": "2-68",
      "license_date": null,
      "expire_date": null
    },
    {
      "name": "上州屋食品",
      "name_kana": "",
      "business_type": "納豆製造業",
      "address": "伊達市保原町字四丁目２３",
      "lat": 37.817804783,
      "lng": 140.551938906,
      "geocoding_level": 8,
      "phone": "024-576-2716",
      "license_no": "2-18",
      "license_date": null,
      "expire_date": null
    },
    {
      "name": "ＫＩＳＳＡＣＯ　ＫＵＲＡ",
      "name_kana": "",
      "business_type": "飲食店営業",
      "address": "伊達市保原町字四丁目１９－５",
      "lat": 37.81860955,
      "lng": 140.55321852000003,
      "geocoding_level": 8,
      "phone": "024-575-2471",
      "license_no": "2-19",
      "license_date": null,
      "expire_date": null
    },
    {
      "name": "スナックミスタードン",
      "name_kana": "",
      "business_type": "飲食店営業",
      "address": "伊達市保原町字六丁目２　２Ｆ",
      "lat": 37.819095,
      "lng": 140.562894,
      "geocoding_level": 2,
      "phone": "024-575-1831",
      "license_no": "2-69",
      "license_date": null,
      "expire_date": null
    },
    {
      "name": "どさんこ保原店",
      "name_kana": "",
      "business_type": "飲食店営業",
      "address": "伊達市保原町字十丁目１１－３",
      "lat": 37.823436989,
      "lng": 140.554799992,
      "geocoding_level": 8,
      "phone": "024-575-2664",
      "license_no": "2-70",
      "license_date": null,
      "expire_date": null
    },
    {
      "name": "かたひら食堂",
      "name_kana": "",
      "business_type": "飲食店営業",
      "address": "伊達市保原町字宮下４４－１",
      "lat": 37.819434254,
      "lng": 140.554449224,
      "geocoding_level": 8,
      "phone": "024-576-2046",
      "license_no": "2-20",
      "license_date": null,
      "expire_date": null
    },
    {
      "name": "山田桃福",
      "name_kana": "",
      "business_type": "飲食店営業",
      "address": "伊達市保原町字中村町６０－１",
      "lat": 37.815491597,
      "lng": 140.555228823,
      "geocoding_level": 8,
      "phone": "024-563-3204",
      "license_no": "2-23",
      "license_date": null,
      "expire_date": null
    },
    {
      "name": "玉鈴醤油株式会社",
      "name_kana": "",
      "business_type": "みそ又はしょうゆ製造業",
      "address": "伊達市保原町字泉町２３",
      "lat": 37.822589398,
      "lng": 140.545028883,
      "geocoding_level": 8,
      "phone": "024-576-2355",
      "license_no": "2-21",
      "license_date": null,
      "expire_date": null
    },
    {
      "name": "大黒屋菓子店",
      "name_kana": "",
      "business_type": "菓子製造業",
      "address": "伊達市保原町所沢字大黒内２０",
      "lat": 37.819095,
      "lng": 140.562894,
      "geocoding_level": 2,
      "phone": "024-576-3015",
      "license_no": "2-71",
      "license_date": null,
      "expire_date": null
    },
    {
      "name": "やなぎ屋",
      "name_kana": "",
      "business_type": "飲食店営業",
      "address": "伊達市保原町字内町１５",
      "lat": 37.819095,
      "lng": 140.562894,
      "geocoding_level": 2,
      "phone": "024-575-3344",
      "license_no": "2-22",
      "license_date": null,
      "expire_date": null
    },
    {
      "name": "桑島食堂",
      "name_kana": "",
      "business_type": "飲食店営業",
      "address": "伊達市霊山町掛田字西裏５４",
      "lat": 37.819095,
      "lng": 140.562894,
      "geocoding_level": 2,
      "phone": "024-586-1216",
      "license_no": "2-313",
      "license_date": null,
      "expire_date": null
    },
    {
      "name": "髙橋醤油店",
      "name_kana": "",
      "business_type": "みそ又はしょうゆ製造業",
      "address": "伊達市霊山町掛田字日向前１３",
      "lat": 37.819095,
      "lng": 140.562894,
      "geocoding_level": 2,
      "phone": "024-586-1821",
      "license_no": "2-171",
      "license_date": null,
      "expire_date": null
    },
    {
      "name": "平澤屋食堂",
      "name_kana": "",
      "business_type": "飲食店営業",
      "address": "伊達市霊山町掛田字段居１４－１５",
      "lat": 37.819095,
      "lng": 140.562894,
      "geocoding_level": 2,
      "phone": "024-586-1272",
      "license_no": "2-213",
      "license_date": null,
      "expire_date": null
    },
    {
      "name": "大黒屋魚店",
      "name_kana": "",
      "business_type": "飲食店営業",
      "address": "伊達市霊山町掛田字中町８",
      "lat": 37.819095,
      "lng": 140.562894,
      "geocoding_level": 2,
      "phone": "024-586-1081",
      "license_no": "1-55",
      "license_date": null,
      "expire_date": null
    },
    {
      "name": "大黒屋魚店",
      "name_kana": "",
      "business_type": "魚介類販売業",
      "address": "伊達市霊山町掛田字中町８",
      "lat": 37.819095,
      "lng": 140.562894,
      "geocoding_level": 2,
      "phone": "024-586-1081",
      "license_no": "2-24",
      "license_date": null,
      "expire_date": null
    },
    {
      "name": "リピーターの宿・みさと",
      "name_kana": "",
      "business_type": "飲食店営業",
      "address": "伊達市霊山町下小国字広畑４５－７",
      "lat": 37.76995574800001,
      "lng": 140.59136487,
      "geocoding_level": 8,
      "phone": "024-586-1828",
      "license_no": "2-314",
      "license_date": null,
      "expire_date": null
    },
    {
      "name": "有限会社橘内商店",
      "name_kana": "",
      "business_type": "食肉処理業",
      "address": "伊達市霊山町石田字入部沢５",
      "lat": 37.819095,
      "lng": 140.562894,
      "geocoding_level": 2,
      "phone": "024-586-1431",
      "license_no": "2-173",
      "license_date": null,
      "expire_date": null
    },
    {
      "name": "有限会社橘内商店",
      "name_kana": "",
      "business_type": "食肉製品製造業",
      "address": "伊達市霊山町石田字入部沢５",
      "lat": 37.819095,
      "lng": 140.562894,
      "geocoding_level": 2,
      "phone": "024-586-1431",
      "license_no": "2-229",
      "license_date": null,
      "expire_date": null
    },
    {
      "name": "有限会社橘内商店",
      "name_kana": "",
      "business_type": "そうざい製造業",
      "address": "伊達市霊山町石田字入部沢５",
      "lat": 37.819095,
      "lng": 140.562894,
      "geocoding_level": 2,
      "phone": "024-586-1431",
      "license_no": "2-230",
      "license_date": null,
      "expire_date": null
    },
    {
      "name": "有限会社橘内商店",
      "name_kana": "",
      "business_type": "冷凍食品製造業",
      "address": "伊達市霊山町石田字入部沢５",
      "lat": 37.819095,
      "lng": 140.562894,
      "geocoding_level": 2,
      "phone": "024-586-1431",
      "license_no": "2-172",
      "license_date": null,
      "expire_date": null
    },
    {
      "name": "まるだい荘",
      "name_kana": "",
      "business_type": "飲食店営業",
      "address": "伊達市月舘町月舘字町６２",
      "lat": 37.737123276,
      "lng": 140.61034067800003,
      "geocoding_level": 8,
      "phone": "024-572-2339",
      "license_no": "2-316",
      "license_date": null,
      "expire_date": null
    },
    {
      "name": "お食事処みずの",
      "name_kana": "",
      "business_type": "飲食店営業",
      "address": "伊達市霊山町石田字天沢１７－１",
      "lat": 37.819095,
      "lng": 140.562894,
      "geocoding_level": 2,
      "phone": "0245-86-3339",
      "license_no": "2-27",
      "license_date": null,
      "expire_date": null
    },
    {
      "name": "やなぎや",
      "name_kana": "",
      "business_type": "飲食店営業",
      "address": "伊達市梁川町字上町７８－１",
      "lat": 37.859186925,
      "lng": 140.612379726,
      "geocoding_level": 8,
      "phone": "024-577-0115",
      "license_no": "2-28",
      "license_date": null,
      "expire_date": null
    },
    {
      "name": "やなぎや",
      "name_kana": "",
      "business_type": "魚介類販売業",
      "address": "伊達市梁川町字上町７８－１",
      "lat": 37.859186925,
      "lng": 140.612379726,
      "geocoding_level": 8,
      "phone": "024-577-0115",
      "license_no": "2-29",
      "license_date": null,
      "expire_date": null
    },
    {
      "name": "居酒屋みちのく",
      "name_kana": "",
      "business_type": "飲食店営業",
      "address": "伊達市保原町字七丁目６－１０",
      "lat": 37.821073882,
      "lng": 140.552767495,
      "geocoding_level": 8,
      "phone": "024-575-0990",
      "license_no": "2-72",
      "license_date": null,
      "expire_date": null
    },
    {
      "name": "レストラン愛華夢",
      "name_kana": "",
      "business_type": "飲食店営業",
      "address": "伊達市霊山町下小国字力持８５－１",
      "lat": 37.770415311,
      "lng": 140.590796864,
      "geocoding_level": 8,
      "phone": "024-586-3139",
      "license_no": "2-174",
      "license_date": null,
      "expire_date": null
    },
    {
      "name": "舘ノ腰糀屋",
      "name_kana": "",
      "business_type": "みそ又はしょうゆ製造業",
      "address": "伊達市月舘町月舘字舘ノ腰６０",
      "lat": 37.730249253,
      "lng": 140.604221372,
      "geocoding_level": 8,
      "phone": "024-572-2551",
      "license_no": "2-233",
      "license_date": null,
      "expire_date": null
    },
    {
      "name": "パーシモンカントリークラブ",
      "name_kana": "",
      "business_type": "飲食店営業",
      "address": "伊達市霊山町下小国字東海間入２３・クラブハウス２階",
      "lat": 37.819095,
      "lng": 140.562894,
      "geocoding_level": 2,
      "phone": "024-586-1100",
      "license_no": "2-235",
      "license_date": null,
      "expire_date": null
    },
    {
      "name": "有限会社しのぶミート",
      "name_kana": "",
      "business_type": "食肉販売業",
      "address": "伊達市保原町二井田字形辺８７",
      "lat": 37.834412749,
      "lng": 140.584007036,
      "geocoding_level": 8,
      "phone": "024-576-2087",
      "license_no": "2-74",
      "license_date": null,
      "expire_date": null
    },
    {
      "name": "株式会社福島ハイエッグ",
      "name_kana": "",
      "business_type": "そうざい製造業",
      "address": "伊達市保原町字千刈４－３",
      "lat": 37.811405792,
      "lng": 140.551902101,
      "geocoding_level": 8,
      "phone": "024-575-2155",
      "license_no": "2-25",
      "license_date": null,
      "expire_date": null
    },
    {
      "name": "亀寿司",
      "name_kana": "",
      "business_type": "飲食店営業",
      "address": "伊達市保原町字宮下１４－６",
      "lat": 37.821521188000006,
      "lng": 140.55474298400003,
      "geocoding_level": 8,
      "phone": "024-576-2774",
      "license_no": "2-26",
      "license_date": null,
      "expire_date": null
    },
    {
      "name": "あぶくま食品株式会社",
      "name_kana": "",
      "business_type": "そうざい製造業",
      "address": "伊達市保原町字清水町３４－２",
      "lat": 37.838760077,
      "lng": 140.555707264,
      "geocoding_level": 8,
      "phone": "024-575-1171",
      "license_no": "2-31",
      "license_date": null,
      "expire_date": null
    },
    {
      "name": "あぶくま食品株式会社",
      "name_kana": "",
      "business_type": "漬物製造業",
      "address": "伊達市保原町字清水町３４－２",
      "lat": 37.838760077,
      "lng": 140.555707264,
      "geocoding_level": 8,
      "phone": "024-575-1171",
      "license_no": "1-28",
      "license_date": null,
      "expire_date": null
    },
    {
      "name": "ふくしま未来農業協同組合　月舘支店",
      "name_kana": "",
      "business_type": "そうざい製造業",
      "address": "伊達市月舘町布川字新屋敷１８－１",
      "lat": 37.738644122,
      "lng": 140.614004534,
      "geocoding_level": 8,
      "phone": "024-572-2444",
      "license_no": "2-32",
      "license_date": null,
      "expire_date": null
    },
    {
      "name": "居酒屋きゃにおん",
      "name_kana": "",
      "business_type": "飲食店営業",
      "address": "伊達市梁川町青葉町３４",
      "lat": 37.847405479,
      "lng": 140.602763229,
      "geocoding_level": 8,
      "phone": "024-577-6870",
      "license_no": "2-33",
      "license_date": null,
      "expire_date": null
    },
    {
      "name": "ルーシー",
      "name_kana": "",
      "business_type": "飲食店営業",
      "address": "伊達市保原町字東野崎４４－６",
      "lat": 37.815284087,
      "lng": 140.556655051,
      "geocoding_level": 8,
      "phone": "024-576-3873",
      "license_no": "2-34",
      "license_date": null,
      "expire_date": null
    },
    {
      "name": "清果園",
      "name_kana": "",
      "business_type": "清涼飲料水製造業",
      "address": "伊達市霊山町下小国字荒屋敷２５",
      "lat": 37.819095,
      "lng": 140.562894,
      "geocoding_level": 2,
      "phone": "024-586-2860",
      "license_no": "2-175",
      "license_date": null,
      "expire_date": null
    },
    {
      "name": "クリスカ",
      "name_kana": "",
      "business_type": "菓子製造業",
      "address": "伊達市梁川町広瀬町２３",
      "lat": 37.849724445,
      "lng": 140.60383332,
      "geocoding_level": 8,
      "phone": "024-577-7456",
      "license_no": "2-27",
      "license_date": null,
      "expire_date": null
    },
    {
      "name": "日の丸亭保原店",
      "name_kana": "",
      "business_type": "飲食店営業",
      "address": "伊達市保原町字六丁目１６",
      "lat": 37.819095,
      "lng": 140.562894,
      "geocoding_level": 2,
      "phone": "024-575-1435",
      "license_no": "2-29",
      "license_date": null,
      "expire_date": null
    },
    {
      "name": "すし割烹くじゃく・お惣菜　ミンワ",
      "name_kana": "",
      "business_type": "飲食店営業",
      "address": "伊達市前川原３－１",
      "lat": 37.819614629,
      "lng": 140.506199557,
      "geocoding_level": 8,
      "phone": "024-584-3050",
      "license_no": "2-75",
      "license_date": null,
      "expire_date": null
    },
    {
      "name": "すし割烹くじゃく・お惣菜　ミンワ",
      "name_kana": "",
      "business_type": "そうざい製造業",
      "address": "伊達市前川原３－１",
      "lat": 37.819614629,
      "lng": 140.506199557,
      "geocoding_level": 8,
      "phone": "024-584-3050",
      "license_no": "1-98",
      "license_date": null,
      "expire_date": null
    },
    {
      "name": "キユーピータマゴ株式会社福島工場",
      "name_kana": "",
      "business_type": "そうざい製造業",
      "address": "伊達市保原町字千刈１０－１",
      "lat": 37.811827477,
      "lng": 140.552813608,
      "geocoding_level": 8,
      "phone": "024-576-2600",
      "license_no": "2-35",
      "license_date": null,
      "expire_date": null
    },
    {
      "name": "キユーピータマゴ株式会社福島工場",
      "name_kana": "",
      "business_type": "液卵製造業",
      "address": "伊達市保原町字千刈１０－１",
      "lat": 37.811827477,
      "lng": 140.552813608,
      "geocoding_level": 8,
      "phone": "024-576-2600",
      "license_no": "1-128",
      "license_date": null,
      "expire_date": null
    },
    {
      "name": "スナック　ティンカーベル",
      "name_kana": "",
      "business_type": "飲食店営業",
      "address": "伊達市保原町字宮下２８－１",
      "lat": 37.820128,
      "lng": 140.555127115,
      "geocoding_level": 8,
      "phone": "024-575-1829",
      "license_no": "2-99",
      "license_date": null,
      "expire_date": null
    },
    {
      "name": "月舘カラオケ道場",
      "name_kana": "",
      "business_type": "飲食店営業",
      "address": "伊達市月舘町月舘字松橋川原４－６",
      "lat": 37.728468191,
      "lng": 140.60618355,
      "geocoding_level": 8,
      "phone": "",
      "license_no": "2-322",
      "license_date": null,
      "expire_date": null
    },
    {
      "name": "中華料理ちんめん",
      "name_kana": "",
      "business_type": "飲食店営業",
      "address": "伊達市梁川町幸町１３８",
      "lat": 37.84891919500001,
      "lng": 140.60039937,
      "geocoding_level": 8,
      "phone": "024-577-1322",
      "license_no": "2-176",
      "license_date": null,
      "expire_date": null
    },
    {
      "name": "有限会社つかべ",
      "name_kana": "",
      "business_type": "飲食店営業",
      "address": "伊達市梁川町粟野字前１００－５",
      "lat": 37.819095,
      "lng": 140.562894,
      "geocoding_level": 2,
      "phone": "024-577-3559",
      "license_no": "2-30",
      "license_date": null,
      "expire_date": null
    },
    {
      "name": "有限会社つかべ",
      "name_kana": "",
      "business_type": "魚介類販売業",
      "address": "伊達市梁川町粟野字前１００－５",
      "lat": 37.819095,
      "lng": 140.562894,
      "geocoding_level": 2,
      "phone": "024-577-3559",
      "license_no": "2-37",
      "license_date": null,
      "expire_date": null
    },
    {
      "name": "有限会社つかべ",
      "name_kana": "",
      "business_type": "漬物製造業",
      "address": "伊達市梁川町粟野字前１００－５",
      "lat": 37.819095,
      "lng": 140.562894,
      "geocoding_level": 2,
      "phone": "024-577-3559",
      "license_no": "1-42",
      "license_date": null,
      "expire_date": null
    },
    {
      "name": "スナック貴賓館",
      "name_kana": "",
      "business_type": "飲食店営業",
      "address": "伊達市右城１５－１　ＳＴビル１Ｆ－Ａ",
      "lat": 37.820096,
      "lng": 140.502565,
      "geocoding_level": 3,
      "phone": "024-584-3253",
      "license_no": "2-31",
      "license_date": null,
      "expire_date": null
    },
    {
      "name": "（株）ヨークベニマル伊達店",
      "name_kana": "",
      "business_type": "食肉販売業",
      "address": "伊達市前川原５５",
      "lat": 37.820891864,
      "lng": 140.506662978,
      "geocoding_level": 8,
      "phone": "024-583-4171",
      "license_no": "2-22",
      "license_date": null,
      "expire_date": null
    },
    {
      "name": "（株）ヨークベニマル伊達店",
      "name_kana": "",
      "business_type": "魚介類販売業",
      "address": "伊達市前川原５５",
      "lat": 37.820891864,
      "lng": 140.506662978,
      "geocoding_level": 8,
      "phone": "024-583-4171",
      "license_no": "2-76",
      "license_date": null,
      "expire_date": null
    },
    {
      "name": "ヨークベニマル伊達店",
      "name_kana": "",
      "business_type": "菓子製造業",
      "address": "伊達市前川原５５　ヨークベニマル伊達店内",
      "lat": 37.820891864,
      "lng": 140.506662978,
      "geocoding_level": 8,
      "phone": "024-583-4171",
      "license_no": "2-78",
      "license_date": null,
      "expire_date": null
    },
    {
      "name": "ファンズだて店",
      "name_kana": "",
      "business_type": "飲食店営業",
      "address": "伊達市沓形３５",
      "lat": 37.822639,
      "lng": 140.496542,
      "geocoding_level": 3,
      "phone": "024-583-5727",
      "license_no": "2-79",
      "license_date": null,
      "expire_date": null
    },
    {
      "name": "ファンズだて店",
      "name_kana": "",
      "business_type": "飲食店営業",
      "address": "伊達市沓形３５",
      "lat": 37.822639,
      "lng": 140.496542,
      "geocoding_level": 3,
      "phone": "024-583-5727",
      "license_no": "2-38",
      "license_date": null,
      "expire_date": null
    },
    {
      "name": "ファンズだて店",
      "name_kana": "",
      "business_type": "菓子製造業",
      "address": "伊達市沓形３５",
      "lat": 37.822639,
      "lng": 140.496542,
      "geocoding_level": 3,
      "phone": "024-583-5727",
      "license_no": "2-80",
      "license_date": null,
      "expire_date": null
    },
    {
      "name": "ファンズだて店",
      "name_kana": "",
      "business_type": "魚介類販売業",
      "address": "伊達市沓形３５",
      "lat": 37.822639,
      "lng": 140.496542,
      "geocoding_level": 3,
      "phone": "024-583-5727",
      "license_no": "2-81",
      "license_date": null,
      "expire_date": null
    },
    {
      "name": "ファンズだて店",
      "name_kana": "",
      "business_type": "食肉販売業",
      "address": "伊達市沓形３５",
      "lat": 37.822639,
      "lng": 140.496542,
      "geocoding_level": 3,
      "phone": "024-583-5727",
      "license_no": "2-82",
      "license_date": null,
      "expire_date": null
    },
    {
      "name": "石田屋菓子店",
      "name_kana": "",
      "business_type": "菓子製造業",
      "address": "伊達市霊山町石田字中瀬３８",
      "lat": 37.819095,
      "lng": 140.562894,
      "geocoding_level": 2,
      "phone": "024-586-1065",
      "license_no": "2-24",
      "license_date": null,
      "expire_date": null
    },
    {
      "name": "有限会社中桝屋商店冷凍食品製造部",
      "name_kana": "",
      "business_type": "そうざい製造業",
      "address": "伊達市霊山町掛田字西裏６９－２",
      "lat": 37.819095,
      "lng": 140.562894,
      "geocoding_level": 2,
      "phone": "024-586-3551",
      "license_no": "2-239",
      "license_date": null,
      "expire_date": null
    },
    {
      "name": "有限会社中桝屋商店冷凍食品製造部",
      "name_kana": "",
      "business_type": "冷凍食品製造業",
      "address": "伊達市霊山町掛田字西裏６９－２",
      "lat": 37.819095,
      "lng": 140.562894,
      "geocoding_level": 2,
      "phone": "024-586-3551",
      "license_no": "2-238",
      "license_date": null,
      "expire_date": null
    },
    {
      "name": "さとう豆富店",
      "name_kana": "",
      "business_type": "豆腐製造業",
      "address": "伊達市梁川町字中町２０－７",
      "lat": 37.854837801,
      "lng": 140.606137797,
      "geocoding_level": 8,
      "phone": "",
      "license_no": "2-240",
      "license_date": null,
      "expire_date": null
    },
    {
      "name": "村上麹店",
      "name_kana": "",
      "business_type": "みそ又はしょうゆ製造業",
      "address": "伊達市保原町大泉字小作逢３９",
      "lat": 37.819095,
      "lng": 140.562894,
      "geocoding_level": 2,
      "phone": "024-576-2392",
      "license_no": "2-83",
      "license_date": null,
      "expire_date": null
    },
    {
      "name": "有限会社丸銀",
      "name_kana": "",
      "business_type": "飲食店営業",
      "address": "伊達市月舘町布川字赤井堂８",
      "lat": 37.819095,
      "lng": 140.562894,
      "geocoding_level": 2,
      "phone": "024-572-2039",
      "license_no": "2-178",
      "license_date": null,
      "expire_date": null
    },
    {
      "name": "有限会社丸銀",
      "name_kana": "",
      "business_type": "魚介類販売業",
      "address": "伊達市月舘町布川字赤井堂８",
      "lat": 37.819095,
      "lng": 140.562894,
      "geocoding_level": 2,
      "phone": "024-572-2039",
      "license_no": "2-179",
      "license_date": null,
      "expire_date": null
    },
    {
      "name": "ローソン伊達田町店",
      "name_kana": "",
      "business_type": "飲食店営業",
      "address": "伊達市田町５０－７",
      "lat": 37.816408377,
      "lng": 140.499761567,
      "geocoding_level": 8,
      "phone": "024-583-2665",
      "license_no": "2-34",
      "license_date": null,
      "expire_date": null
    },
    {
      "name": "有限会社滝口商店",
      "name_kana": "",
      "business_type": "飲食店営業",
      "address": "伊達市保原町字七丁目９",
      "lat": 37.819095,
      "lng": 140.562894,
      "geocoding_level": 2,
      "phone": "024-576-2905",
      "license_no": "2-84",
      "license_date": null,
      "expire_date": null
    },
    {
      "name": "有限会社滝口商店",
      "name_kana": "",
      "business_type": "魚介類販売業",
      "address": "伊達市保原町字七丁目９",
      "lat": 37.819095,
      "lng": 140.562894,
      "geocoding_level": 2,
      "phone": "024-576-2905",
      "license_no": "2-85",
      "license_date": null,
      "expire_date": null
    },
    {
      "name": "ロイヤルホテルほていや",
      "name_kana": "",
      "business_type": "飲食店営業",
      "address": "伊達市保原町字六丁目１２－１",
      "lat": 37.819494557,
      "lng": 140.553314542,
      "geocoding_level": 8,
      "phone": "024-575-2256",
      "license_no": "2-86",
      "license_date": null,
      "expire_date": null
    },
    {
      "name": "株式会社西友　保原店",
      "name_kana": "",
      "business_type": "魚介類販売業",
      "address": "伊達市保原町字九丁目５",
      "lat": 37.822625197,
      "lng": 140.554863282,
      "geocoding_level": 8,
      "phone": "024-575-4111",
      "license_no": "2-100",
      "license_date": null,
      "expire_date": null
    },
    {
      "name": "株式会社西友　保原店　若菜",
      "name_kana": "",
      "business_type": "飲食店営業",
      "address": "伊達市保原町字九丁目５",
      "lat": 37.822625197,
      "lng": 140.554863282,
      "geocoding_level": 8,
      "phone": "024-575-4111",
      "license_no": "2-39",
      "license_date": null,
      "expire_date": null
    },
    {
      "name": "手造りの味　あきる野",
      "name_kana": "",
      "business_type": "飲食店営業",
      "address": "伊達市月舘町月舘字町１４",
      "lat": 37.819095,
      "lng": 140.562894,
      "geocoding_level": 2,
      "phone": "024-572-2320",
      "license_no": "2-36",
      "license_date": null,
      "expire_date": null
    },
    {
      "name": "かどしょう",
      "name_kana": "",
      "business_type": "飲食店営業",
      "address": "伊達市梁川町字右城町７０－３",
      "lat": 37.856285174,
      "lng": 140.607614427,
      "geocoding_level": 8,
      "phone": "024-577-0012",
      "license_no": "2-37",
      "license_date": null,
      "expire_date": null
    },
    {
      "name": "お好み亭",
      "name_kana": "",
      "business_type": "飲食店営業",
      "address": "伊達市馬場口４５",
      "lat": 37.823457,
      "lng": 140.501339,
      "geocoding_level": 3,
      "phone": "024-583-2975",
      "license_no": "2-40",
      "license_date": null,
      "expire_date": null
    },
    {
      "name": "（株）松本製菓",
      "name_kana": "",
      "business_type": "菓子製造業",
      "address": "伊達市伏黒字南本場５－１",
      "lat": 37.829055065,
      "lng": 140.514690623,
      "geocoding_level": 8,
      "phone": "024-584-3211",
      "license_no": "2-40",
      "license_date": null,
      "expire_date": null
    },
    {
      "name": "麺次郎",
      "name_kana": "",
      "business_type": "飲食店営業",
      "address": "伊達市保原町字東野崎４１－５",
      "lat": 37.815755825,
      "lng": 140.556262165,
      "geocoding_level": 8,
      "phone": "024-575-1505",
      "license_no": "2-25",
      "license_date": null,
      "expire_date": null
    },
    {
      "name": "ＥＶＥＲＹＦＯＯＤ（１３３８）事業所",
      "name_kana": "",
      "business_type": "飲食店営業",
      "address": "伊達市保原町字東野崎１３５　富士通アイソテック　福島食堂",
      "lat": 37.819095,
      "lng": 140.562894,
      "geocoding_level": 2,
      "phone": "024-574-2295",
      "license_no": "2-45",
      "license_date": null,
      "expire_date": null
    },
    {
      "name": "食堂よしかわ",
      "name_kana": "",
      "business_type": "飲食店営業",
      "address": "伊達市梁川町希望ケ丘２５",
      "lat": 37.86426076,
      "lng": 140.611581061,
      "geocoding_level": 8,
      "phone": "024-577-2261",
      "license_no": "2-46",
      "license_date": null,
      "expire_date": null
    },
    {
      "name": "福島紅葉漬株式会社",
      "name_kana": "",
      "business_type": "水産製品製造業",
      "address": "伊達市梁川町希望ケ丘１０",
      "lat": 37.864228832,
      "lng": 140.610952876,
      "geocoding_level": 8,
      "phone": "024-577-0658",
      "license_no": "2-180",
      "license_date": null,
      "expire_date": null
    },
    {
      "name": "株式会社中外フーズ",
      "name_kana": "",
      "business_type": "食品の冷凍又は冷蔵業",
      "address": "伊達市梁川町やながわ工業団地１－１",
      "lat": 37.859789,
      "lng": 140.590202,
      "geocoding_level": 3,
      "phone": "024-527-2500",
      "license_no": "2-339",
      "license_date": null,
      "expire_date": null
    },
    {
      "name": "株式会社中外フーズ",
      "name_kana": "",
      "business_type": "そうざい製造業",
      "address": "伊達市梁川町やながわ工業団地１－１",
      "lat": 37.859789,
      "lng": 140.590202,
      "geocoding_level": 3,
      "phone": "024-527-2500",
      "license_no": "2-340",
      "license_date": null,
      "expire_date": null
    },
    {
      "name": "株式会社中外フーズ",
      "name_kana": "",
      "business_type": "水産製品製造業",
      "address": "伊達市梁川町やながわ工業団地１－１",
      "lat": 37.859789,
      "lng": 140.590202,
      "geocoding_level": 3,
      "phone": "024-527-2500",
      "license_no": "1-177",
      "license_date": null,
      "expire_date": null
    },
    {
      "name": "中華料理ちんめん",
      "name_kana": "",
      "business_type": "飲食店営業",
      "address": "伊達市伏黒字上宮本６－３",
      "lat": 37.820258113,
      "lng": 140.522723251,
      "geocoding_level": 8,
      "phone": "024-583-4100",
      "license_no": "2-49",
      "license_date": null,
      "expire_date": null
    },
    {
      "name": "大扇",
      "name_kana": "",
      "business_type": "飲食店営業",
      "address": "伊達市保原町字六丁目１２－３",
      "lat": 37.819480226,
      "lng": 140.553958127,
      "geocoding_level": 8,
      "phone": "024-575-2147",
      "license_no": "2-87",
      "license_date": null,
      "expire_date": null
    },
    {
      "name": "（有）片平ジャージー自然牧場霊山店",
      "name_kana": "",
      "business_type": "飲食店営業",
      "address": "伊達市霊山町石田字川面１－１",
      "lat": 37.819095,
      "lng": 140.562894,
      "geocoding_level": 2,
      "phone": "024-589-2375",
      "license_no": "2-181",
      "license_date": null,
      "expire_date": null
    },
    {
      "name": "（有）片平ジャージー自然牧場霊山店",
      "name_kana": "",
      "business_type": "アイスクリーム類製造業",
      "address": "伊達市霊山町石田字川面１－１",
      "lat": 37.819095,
      "lng": 140.562894,
      "geocoding_level": 2,
      "phone": "024-589-2375",
      "license_no": "2-182",
      "license_date": null,
      "expire_date": null
    },
    {
      "name": "中華よこはま",
      "name_kana": "",
      "business_type": "飲食店営業",
      "address": "伊達市保原町字舟橋７９－１",
      "lat": 37.818184469,
      "lng": 140.56196603,
      "geocoding_level": 8,
      "phone": "024-576-4582",
      "license_no": "2-42",
      "license_date": null,
      "expire_date": null
    },
    {
      "name": "小料理葉都枝",
      "name_kana": "",
      "business_type": "飲食店営業",
      "address": "伊達市保原町字七丁目６－２",
      "lat": 37.821038457,
      "lng": 140.553095153,
      "geocoding_level": 8,
      "phone": "024-575-1838",
      "license_no": "2-52",
      "license_date": null,
      "expire_date": null
    },
    {
      "name": "俺夢家",
      "name_kana": "",
      "business_type": "飲食店営業",
      "address": "伊達市梁川町桜町１３０",
      "lat": 37.850010141,
      "lng": 140.605099281,
      "geocoding_level": 8,
      "phone": "024-577-1010",
      "license_no": "2-185",
      "license_date": null,
      "expire_date": null
    },
    {
      "name": "ローソン梁川陽光台店",
      "name_kana": "",
      "business_type": "飲食店営業",
      "address": "伊達市梁川町陽光台４－８",
      "lat": 37.836382404,
      "lng": 140.596240406,
      "geocoding_level": 8,
      "phone": "024-577-3500",
      "license_no": "2-186",
      "license_date": null,
      "expire_date": null
    },
    {
      "name": "ヤマキ",
      "name_kana": "",
      "business_type": "みそ又はしょうゆ製造業",
      "address": "伊達市霊山町掛田字町田３７－１",
      "lat": 37.819095,
      "lng": 140.562894,
      "geocoding_level": 2,
      "phone": "",
      "license_no": "2-244",
      "license_date": null,
      "expire_date": null
    },
    {
      "name": "ヤマキ",
      "name_kana": "",
      "business_type": "密封包装食品製造業",
      "address": "伊達市霊山町掛田字町田３７－１",
      "lat": 37.819095,
      "lng": 140.562894,
      "geocoding_level": 2,
      "phone": "",
      "license_no": "2-332",
      "license_date": null,
      "expire_date": null
    },
    {
      "name": "有限会社藤川屋",
      "name_kana": "",
      "business_type": "菓子製造業",
      "address": "伊達市梁川町字田町２１",
      "lat": 37.85184807,
      "lng": 140.604639235,
      "geocoding_level": 8,
      "phone": "024-577-0270",
      "license_no": "2-187",
      "license_date": null,
      "expire_date": null
    },
    {
      "name": "個室と肉と洋風酒場　ｒａｋｕｇａｋｉ",
      "name_kana": "",
      "business_type": "飲食店営業",
      "address": "伊達市保原町字六丁目１６－１どんとこいビル２Ｆ",
      "lat": 37.819857985,
      "lng": 140.553577778,
      "geocoding_level": 8,
      "phone": "024-575-1607",
      "license_no": "2-88",
      "license_date": null,
      "expire_date": null
    },
    {
      "name": "長正魚店",
      "name_kana": "",
      "business_type": "魚介類販売業",
      "address": "伊達市保原町字七丁目６",
      "lat": 37.819095,
      "lng": 140.562894,
      "geocoding_level": 2,
      "phone": "024-575-3822",
      "license_no": "2-89",
      "license_date": null,
      "expire_date": null
    },
    {
      "name": "割烹時代寿し",
      "name_kana": "",
      "business_type": "飲食店営業",
      "address": "伊達市梁川町字中町７－１",
      "lat": 37.854658722,
      "lng": 140.60575181,
      "geocoding_level": 8,
      "phone": "024-577-5252",
      "license_no": "2-43",
      "license_date": null,
      "expire_date": null
    },
    {
      "name": "りょうぜん　紅彩館",
      "name_kana": "",
      "business_type": "飲食店営業",
      "address": "伊達市霊山町石田字宝司沢９－１",
      "lat": 37.819095,
      "lng": 140.562894,
      "geocoding_level": 2,
      "phone": "024-589-2233",
      "license_no": "2-218",
      "license_date": null,
      "expire_date": null
    },
    {
      "name": "すし竹",
      "name_kana": "",
      "business_type": "飲食店営業",
      "address": "伊達市保原町字赤橋４４－３",
      "lat": 37.816981036,
      "lng": 140.557545014,
      "geocoding_level": 8,
      "phone": "024-575-2920",
      "license_no": "2-91",
      "license_date": null,
      "expire_date": null
    },
    {
      "name": "吉野家　４号線伊達店",
      "name_kana": "",
      "business_type": "飲食店営業",
      "address": "伊達市坂ノ上８－１",
      "lat": 37.817472412,
      "lng": 140.502643958,
      "geocoding_level": 8,
      "phone": "024-551-2741",
      "license_no": "2-92",
      "license_date": null,
      "expire_date": null
    },
    {
      "name": "かんのや菓子店",
      "name_kana": "",
      "business_type": "菓子製造業",
      "address": "伊達市保原町富沢字下川原７２",
      "lat": 37.785326622,
      "lng": 140.555038836,
      "geocoding_level": 8,
      "phone": "024-576-3016",
      "license_no": "2-35",
      "license_date": null,
      "expire_date": null
    },
    {
      "name": "俺の家",
      "name_kana": "",
      "business_type": "飲食店営業",
      "address": "伊達市岡前１１－５",
      "lat": 37.821927,
      "lng": 140.50534,
      "geocoding_level": 3,
      "phone": "024-583-2558",
      "license_no": "2-53",
      "license_date": null,
      "expire_date": null
    },
    {
      "name": "メリィブレッド",
      "name_kana": "",
      "business_type": "飲食店営業",
      "address": "伊達市保原町字赤橋８５－１２",
      "lat": 37.816819266,
      "lng": 140.559009696,
      "geocoding_level": 8,
      "phone": "024-575-2822",
      "license_no": "2-44",
      "license_date": null,
      "expire_date": null
    },
    {
      "name": "メリィブレッド",
      "name_kana": "",
      "business_type": "菓子製造業",
      "address": "伊達市保原町字赤橋８５－１２",
      "lat": 37.816819266,
      "lng": 140.559009696,
      "geocoding_level": 8,
      "phone": "024-575-2822",
      "license_no": "2-32",
      "license_date": null,
      "expire_date": null
    },
    {
      "name": "中国パブスナック浪漫",
      "name_kana": "",
      "business_type": "飲食店営業",
      "address": "伊達市保原町字七丁目５　セブンコアビル２Ｆ",
      "lat": 37.819095,
      "lng": 140.562894,
      "geocoding_level": 2,
      "phone": "024-574-4366",
      "license_no": "2-37",
      "license_date": null,
      "expire_date": null
    },
    {
      "name": "株式会社アレフ福島工場",
      "name_kana": "",
      "business_type": "食肉処理業",
      "address": "伊達市梁川町やながわ工業団地１－３６",
      "lat": 37.859789,
      "lng": 140.590202,
      "geocoding_level": 3,
      "phone": "024-527-1600",
      "license_no": "2-38",
      "license_date": null,
      "expire_date": null
    },
    {
      "name": "株式会社アレフ福島工場",
      "name_kana": "",
      "business_type": "そうざい製造業",
      "address": "伊達市梁川町やながわ工業団地１－３６",
      "lat": 37.859789,
      "lng": 140.590202,
      "geocoding_level": 3,
      "phone": "024-527-1600",
      "license_no": "2-39",
      "license_date": null,
      "expire_date": null
    },
    {
      "name": "こころ斎苑　伊達",
      "name_kana": "",
      "business_type": "飲食店営業",
      "address": "伊達市根田５８－１",
      "lat": 37.825702473,
      "lng": 140.495010497,
      "geocoding_level": 8,
      "phone": "024-551-1011",
      "license_no": "2-40",
      "license_date": null,
      "expire_date": null
    },
    {
      "name": "ちねり",
      "name_kana": "",
      "business_type": "飲食店営業",
      "address": "伊達市保原町二井田字畑中１６２－２",
      "lat": 37.835867411,
      "lng": 140.58039822,
      "geocoding_level": 8,
      "phone": "024-576-7170",
      "license_no": "2-33",
      "license_date": null,
      "expire_date": null
    },
    {
      "name": "マ・シャンブル",
      "name_kana": "",
      "business_type": "飲食店営業",
      "address": "伊達市保原町字城ノ内１０２－２",
      "lat": 37.821399937,
      "lng": 140.561238998,
      "geocoding_level": 8,
      "phone": "024-576-7606",
      "license_no": "2-34",
      "license_date": null,
      "expire_date": null
    },
    {
      "name": "伊達物産株式会社　食品工場",
      "name_kana": "",
      "business_type": "食肉処理業",
      "address": "伊達市霊山町山野川字柳沢入３１－１１",
      "lat": 37.819095,
      "lng": 140.562894,
      "geocoding_level": 2,
      "phone": "024-586-3111",
      "license_no": "2-45",
      "license_date": null,
      "expire_date": null
    },
    {
      "name": "伊達物産株式会社　食品工場",
      "name_kana": "",
      "business_type": "食肉製品製造業",
      "address": "伊達市霊山町山野川字柳沢入３１－１１",
      "lat": 37.819095,
      "lng": 140.562894,
      "geocoding_level": 2,
      "phone": "024-586-3111",
      "license_no": "2-46",
      "license_date": null,
      "expire_date": null
    },
    {
      "name": "伊達物産株式会社　食品工場",
      "name_kana": "",
      "business_type": "そうざい製造業",
      "address": "伊達市霊山町山野川字柳沢入３１－１１",
      "lat": 37.819095,
      "lng": 140.562894,
      "geocoding_level": 2,
      "phone": "024-586-3111",
      "license_no": "2-47",
      "license_date": null,
      "expire_date": null
    },
    {
      "name": "伊達物産株式会社　食品工場",
      "name_kana": "",
      "business_type": "冷凍食品製造業",
      "address": "伊達市霊山町山野川字柳沢入３１－１１",
      "lat": 37.819095,
      "lng": 140.562894,
      "geocoding_level": 2,
      "phone": "024-586-3111",
      "license_no": "1-64",
      "license_date": null,
      "expire_date": null
    },
    {
      "name": "ＴＲＡＴＴＯＲＩＡ　Ｌａ　Ｗａｓａｂｉ",
      "name_kana": "",
      "business_type": "飲食店営業",
      "address": "伊達市保原町字市柳町１－１",
      "lat": 37.814846971,
      "lng": 140.552068845,
      "geocoding_level": 8,
      "phone": "024-575-5351",
      "license_no": "2-49",
      "license_date": null,
      "expire_date": null
    },
    {
      "name": "ＴＲＡＴＴＯＲＩＡ　Ｌａ　Ｗａｓａｂｉ",
      "name_kana": "",
      "business_type": "菓子製造業",
      "address": "伊達市保原町字市柳町１－１",
      "lat": 37.814846971,
      "lng": 140.552068845,
      "geocoding_level": 8,
      "phone": "024-575-5351",
      "license_no": "2-50",
      "license_date": null,
      "expire_date": null
    },
    {
      "name": "深情",
      "name_kana": "",
      "business_type": "飲食店営業",
      "address": "伊達市保原町字七丁目１８－１９",
      "lat": 37.82096983,
      "lng": 140.554375637,
      "geocoding_level": 8,
      "phone": "024-575-2072",
      "license_no": "2-52",
      "license_date": null,
      "expire_date": null
    },
    {
      "name": "ごはんどき伊達店",
      "name_kana": "",
      "business_type": "飲食店営業",
      "address": "伊達市姥ケ懐５－１",
      "lat": 37.814806924,
      "lng": 140.501812102,
      "geocoding_level": 8,
      "phone": "024-551-1511",
      "license_no": "2-94",
      "license_date": null,
      "expire_date": null
    },
    {
      "name": "ハッピー",
      "name_kana": "",
      "business_type": "飲食店営業",
      "address": "伊達市保原町字宮下４５－１　１Ｆ",
      "lat": 37.819502166,
      "lng": 140.554210986,
      "geocoding_level": 8,
      "phone": "024-575-4947",
      "license_no": "2-53",
      "license_date": null,
      "expire_date": null
    },
    {
      "name": "まるだい",
      "name_kana": "",
      "business_type": "飲食店営業",
      "address": "伊達市月舘町月舘字町６２",
      "lat": 37.737123276,
      "lng": 140.61034067800003,
      "geocoding_level": 8,
      "phone": "024-572-2339",
      "license_no": "2-55",
      "license_date": null,
      "expire_date": null
    },
    {
      "name": "事務所",
      "name_kana": "",
      "business_type": "飲食店営業",
      "address": "伊達市梁川町新田字鈴竹１３２",
      "lat": 37.840284689,
      "lng": 140.591758348,
      "geocoding_level": 8,
      "phone": "024-577-0193",
      "license_no": "2-251",
      "license_date": null,
      "expire_date": null
    },
    {
      "name": "有限会社須田屋",
      "name_kana": "",
      "business_type": "菓子製造業",
      "address": "伊達市保原町字元木８０番地の１５",
      "lat": 37.823070327,
      "lng": 140.557888771,
      "geocoding_level": 8,
      "phone": "024-576-2435",
      "license_no": "2-41",
      "license_date": null,
      "expire_date": null
    },
    {
      "name": "有限会社須田屋",
      "name_kana": "",
      "business_type": "アイスクリーム類製造業",
      "address": "伊達市保原町字元木８０番地の１５",
      "lat": 37.823070327,
      "lng": 140.557888771,
      "geocoding_level": 8,
      "phone": "024-576-2435",
      "license_no": "2-42",
      "license_date": null,
      "expire_date": null
    },
    {
      "name": "有限会社須田屋",
      "name_kana": "",
      "business_type": "そうざい製造業",
      "address": "伊達市保原町字元木８０番地の１５",
      "lat": 37.823070327,
      "lng": 140.557888771,
      "geocoding_level": 8,
      "phone": "024-576-2435",
      "license_no": "2-95",
      "license_date": null,
      "expire_date": null
    },
    {
      "name": "ＡＮＺＡＩ",
      "name_kana": "",
      "business_type": "飲食店営業",
      "address": "伊達市保原町字宮下６７－３",
      "lat": 37.820257296,
      "lng": 140.556626972,
      "geocoding_level": 8,
      "phone": "",
      "license_no": "2-96",
      "license_date": null,
      "expire_date": null
    },
    {
      "name": "居食屋　時幻",
      "name_kana": "",
      "business_type": "飲食店営業",
      "address": "伊達市保原町字八丁目１５　２階",
      "lat": 37.819095,
      "lng": 140.562894,
      "geocoding_level": 2,
      "phone": "024-575-3142",
      "license_no": "2-57",
      "license_date": null,
      "expire_date": null
    },
    {
      "name": "幸楽苑　保原店",
      "name_kana": "",
      "business_type": "飲食店営業",
      "address": "伊達市保原町字実町６２－４",
      "lat": 37.815011324,
      "lng": 140.549562609,
      "geocoding_level": 8,
      "phone": "024-575-4002",
      "license_no": "2-58",
      "license_date": null,
      "expire_date": null
    },
    {
      "name": "ファミリーマート保原泉町店",
      "name_kana": "",
      "business_type": "飲食店営業",
      "address": "伊達市保原町字泉町９２－１",
      "lat": 37.821376942,
      "lng": 140.550439039,
      "geocoding_level": 8,
      "phone": "024-574-4722",
      "license_no": "2-59",
      "license_date": null,
      "expire_date": null
    },
    {
      "name": "有限会社岡崎",
      "name_kana": "",
      "business_type": "菓子製造業",
      "address": "伊達市梁川町五十沢字株木９",
      "lat": 37.819095,
      "lng": 140.562894,
      "geocoding_level": 2,
      "phone": "",
      "license_no": "2-222",
      "license_date": null,
      "expire_date": null
    },
    {
      "name": "有限会社岡崎",
      "name_kana": "",
      "business_type": "食品の小分け業",
      "address": "伊達市梁川町五十沢字株木９",
      "lat": 37.819095,
      "lng": 140.562894,
      "geocoding_level": 2,
      "phone": "",
      "license_no": "2-342",
      "license_date": null,
      "expire_date": null
    },
    {
      "name": "こころ斎苑　掛田",
      "name_kana": "",
      "business_type": "飲食店営業",
      "address": "伊達市霊山町掛田字稲場３６",
      "lat": 37.819095,
      "lng": 140.562894,
      "geocoding_level": 2,
      "phone": "024-586-1234",
      "license_no": "2-35",
      "license_date": null,
      "expire_date": null
    },
    {
      "name": "株式会社不二家　福島工場",
      "name_kana": "",
      "business_type": "冷凍食品製造業",
      "address": "伊達市下川原２８",
      "lat": 37.828669807,
      "lng": 140.513892083,
      "geocoding_level": 8,
      "phone": "024-583-3435",
      "license_no": "1-59",
      "license_date": null,
      "expire_date": null
    },
    {
      "name": "株式会社不二家　福島工場",
      "name_kana": "",
      "business_type": "密封包装食品製造業",
      "address": "伊達市下川原２８",
      "lat": 37.828669807,
      "lng": 140.513892083,
      "geocoding_level": 8,
      "phone": "024-583-3435",
      "license_no": "2-60",
      "license_date": null,
      "expire_date": null
    },
    {
      "name": "特別養護老人ホーム　星風苑",
      "name_kana": "",
      "business_type": "飲食店営業",
      "address": "伊達市月舘町御代田字月崎山１－７",
      "lat": 37.752368723,
      "lng": 140.603422883,
      "geocoding_level": 8,
      "phone": "024-571-1560",
      "license_no": "2-42",
      "license_date": null,
      "expire_date": null
    },
    {
      "name": "食堂さとう",
      "name_kana": "",
      "business_type": "飲食店営業",
      "address": "伊達市梁川町字栄町３２",
      "lat": 37.851518133,
      "lng": 140.604972475,
      "geocoding_level": 8,
      "phone": "024-577-0611",
      "license_no": "2-192",
      "license_date": null,
      "expire_date": null
    },
    {
      "name": "すゞきや旅館",
      "name_kana": "",
      "business_type": "飲食店営業",
      "address": "伊達市霊山町掛田字新町１２",
      "lat": 37.819095,
      "lng": 140.562894,
      "geocoding_level": 2,
      "phone": "024-586-1027",
      "license_no": "2-349",
      "license_date": null,
      "expire_date": null
    },
    {
      "name": "サウンドステージ蒼月",
      "name_kana": "",
      "business_type": "飲食店営業",
      "address": "伊達市月舘町月舘字町６２",
      "lat": 37.737123276,
      "lng": 140.61034067800003,
      "geocoding_level": 8,
      "phone": "024-572-2339",
      "license_no": "2-193",
      "license_date": null,
      "expire_date": null
    },
    {
      "name": "スナック百合",
      "name_kana": "",
      "business_type": "飲食店営業",
      "address": "伊達市保原町字宮下１１０－５",
      "lat": 37.820511664,
      "lng": 140.555285945,
      "geocoding_level": 8,
      "phone": "024-576-7273",
      "license_no": "2-97",
      "license_date": null,
      "expire_date": null
    },
    {
      "name": "ハシドラッグ保原店",
      "name_kana": "",
      "business_type": "飲食店営業",
      "address": "伊達市保原町字栄町３８－１",
      "lat": 37.82672208,
      "lng": 140.55844576300004,
      "geocoding_level": 8,
      "phone": "024-574-3121",
      "license_no": "2-56",
      "license_date": null,
      "expire_date": null
    },
    {
      "name": "お酒処　凛（りん）",
      "name_kana": "",
      "business_type": "飲食店営業",
      "address": "伊達市本町２１",
      "lat": 37.819249295,
      "lng": 140.501635774,
      "geocoding_level": 8,
      "phone": "",
      "license_no": "2-63",
      "license_date": null,
      "expire_date": null
    },
    {
      "name": "えびす食堂",
      "name_kana": "",
      "business_type": "飲食店営業",
      "address": "伊達市保原町字栄町８０－２",
      "lat": 37.824752002,
      "lng": 140.556635227,
      "geocoding_level": 8,
      "phone": "024-576-2991",
      "license_no": "2-102",
      "license_date": null,
      "expire_date": null
    },
    {
      "name": "とんちんかん",
      "name_kana": "",
      "business_type": "飲食店営業",
      "address": "伊達市保原町字七丁目１８－１９　丸石ビル２Ｆ",
      "lat": 37.82096983,
      "lng": 140.554375637,
      "geocoding_level": 8,
      "phone": "024-576-3312",
      "license_no": "2-98",
      "license_date": null,
      "expire_date": null
    },
    {
      "name": "パン工房マーブル",
      "name_kana": "",
      "business_type": "菓子製造業",
      "address": "伊達市保原町字岡代１２６－１",
      "lat": 37.806538946,
      "lng": 140.563606863,
      "geocoding_level": 8,
      "phone": "024-576-7364",
      "license_no": "2-99",
      "license_date": null,
      "expire_date": null
    },
    {
      "name": "ナイト・マニラ",
      "name_kana": "",
      "business_type": "飲食店営業",
      "address": "伊達市保原町字六丁目４　丸松ビル２Ｆ",
      "lat": 37.81995087500001,
      "lng": 140.552839806,
      "geocoding_level": 8,
      "phone": "024-576-7803",
      "license_no": "2-65",
      "license_date": null,
      "expire_date": null
    },
    {
      "name": "有限会社田沢青果店",
      "name_kana": "",
      "business_type": "飲食店営業",
      "address": "伊達市保原町字六丁目８",
      "lat": 37.820272815,
      "lng": 140.552847126,
      "geocoding_level": 8,
      "phone": "024-576-3525",
      "license_no": "2-100",
      "license_date": null,
      "expire_date": null
    },
    {
      "name": "野良",
      "name_kana": "",
      "business_type": "飲食店営業",
      "address": "伊達市長岡６",
      "lat": 37.819234926,
      "lng": 140.502217011,
      "geocoding_level": 8,
      "phone": "024-584-2286",
      "license_no": "2-101",
      "license_date": null,
      "expire_date": null
    },
    {
      "name": "ミニストップ福島梁川店",
      "name_kana": "",
      "business_type": "飲食店営業",
      "address": "伊達市梁川町広瀬町３０",
      "lat": 37.850766628,
      "lng": 140.603884612,
      "geocoding_level": 8,
      "phone": "024-577-6778",
      "license_no": "2-260",
      "license_date": null,
      "expire_date": null
    },
    {
      "name": "すしのやすひろ　梁川店",
      "name_kana": "",
      "business_type": "飲食店営業",
      "address": "伊達市梁川町幸町５８",
      "lat": 37.851472871,
      "lng": 140.600889827,
      "geocoding_level": 8,
      "phone": "024-577-7810",
      "license_no": "2-261",
      "license_date": null,
      "expire_date": null
    },
    {
      "name": "ラブソングスナック　あや",
      "name_kana": "",
      "business_type": "飲食店営業",
      "address": "伊達市保原町字六丁目３",
      "lat": 37.819095,
      "lng": 140.562894,
      "geocoding_level": 2,
      "phone": "024-575-2939",
      "license_no": "2-66",
      "license_date": null,
      "expire_date": null
    },
    {
      "name": "ｋｉｍａｍａカフェ",
      "name_kana": "",
      "business_type": "飲食店営業",
      "address": "伊達市保原町字八丁目２４",
      "lat": 37.822070935,
      "lng": 140.554407899,
      "geocoding_level": 8,
      "phone": "024-575-5106",
      "license_no": "2-103",
      "license_date": null,
      "expire_date": null
    },
    {
      "name": "ｋｉｍａｍａカフェ",
      "name_kana": "",
      "business_type": "菓子製造業",
      "address": "伊達市保原町字八丁目２４",
      "lat": 37.822070935,
      "lng": 140.554407899,
      "geocoding_level": 8,
      "phone": "024-575-5106",
      "license_no": "2-104",
      "license_date": null,
      "expire_date": null
    },
    {
      "name": "居酒屋　番々",
      "name_kana": "",
      "business_type": "飲食店営業",
      "address": "伊達市岡前２９－１",
      "lat": 37.822381456,
      "lng": 140.505714389,
      "geocoding_level": 8,
      "phone": "0120-63-7167",
      "license_no": "2-49",
      "license_date": null,
      "expire_date": null
    },
    {
      "name": "居酒屋　番々",
      "name_kana": "",
      "business_type": "そうざい製造業",
      "address": "伊達市岡前２９－１",
      "lat": 37.822381456,
      "lng": 140.505714389,
      "geocoding_level": 8,
      "phone": "0120-63-7167",
      "license_no": "2-67",
      "license_date": null,
      "expire_date": null
    },
    {
      "name": "目黒魚店",
      "name_kana": "",
      "business_type": "飲食店営業",
      "address": "伊達市梁川町五十沢字田中前２０－２",
      "lat": 37.819095,
      "lng": 140.562894,
      "geocoding_level": 2,
      "phone": "024-577-5152",
      "license_no": "1-144",
      "license_date": null,
      "expire_date": null
    },
    {
      "name": "居酒屋　だるま",
      "name_kana": "",
      "business_type": "飲食店営業",
      "address": "伊達市保原町字三丁目２３",
      "lat": 37.819095,
      "lng": 140.562894,
      "geocoding_level": 2,
      "phone": "024-575-3180",
      "license_no": "2-37",
      "license_date": null,
      "expire_date": null
    },
    {
      "name": "まっちゃん工房",
      "name_kana": "",
      "business_type": "飲食店営業",
      "address": "伊達市霊山町掛田字東陣場１－９",
      "lat": 37.819095,
      "lng": 140.562894,
      "geocoding_level": 2,
      "phone": "",
      "license_no": "2-59",
      "license_date": null,
      "expire_date": null
    },
    {
      "name": "まっちゃん工房",
      "name_kana": "",
      "business_type": "菓子製造業",
      "address": "伊達市霊山町掛田字東陣場１－９",
      "lat": 37.819095,
      "lng": 140.562894,
      "geocoding_level": 2,
      "phone": "",
      "license_no": "2-60",
      "license_date": null,
      "expire_date": null
    },
    {
      "name": "まっちゃん工房",
      "name_kana": "",
      "business_type": "そうざい製造業",
      "address": "伊達市霊山町掛田字東陣場１－９",
      "lat": 37.819095,
      "lng": 140.562894,
      "geocoding_level": 2,
      "phone": "",
      "license_no": "2-61",
      "license_date": null,
      "expire_date": null
    },
    {
      "name": "まっちゃん工房",
      "name_kana": "",
      "business_type": "漬物製造業",
      "address": "伊達市霊山町掛田字東陣場１－９",
      "lat": 37.819095,
      "lng": 140.562894,
      "geocoding_level": 2,
      "phone": "",
      "license_no": "1-184",
      "license_date": null,
      "expire_date": null
    },
    {
      "name": "フィリッピンスナック　はるか",
      "name_kana": "",
      "business_type": "飲食店営業",
      "address": "伊達市保原町字七丁目７－１　保原佐勝ビル２Ｆ",
      "lat": 37.821089224,
      "lng": 140.553358321,
      "geocoding_level": 8,
      "phone": "024-576-4850",
      "license_no": "2-62",
      "license_date": null,
      "expire_date": null
    },
    {
      "name": "華の音",
      "name_kana": "",
      "business_type": "飲食店営業",
      "address": "伊達市保原町字宮下３３",
      "lat": 37.819095,
      "lng": 140.562894,
      "geocoding_level": 2,
      "phone": "024-575-3834",
      "license_no": "2-38",
      "license_date": null,
      "expire_date": null
    },
    {
      "name": "友信食堂",
      "name_kana": "",
      "business_type": "飲食店営業",
      "address": "伊達市梁川町字南本町９７",
      "lat": 37.819095,
      "lng": 140.562894,
      "geocoding_level": 2,
      "phone": "024-577-3285",
      "license_no": "2-197",
      "license_date": null,
      "expire_date": null
    },
    {
      "name": "街かど",
      "name_kana": "",
      "business_type": "飲食店営業",
      "address": "伊達市岡前１１－５",
      "lat": 37.821927,
      "lng": 140.50534,
      "geocoding_level": 3,
      "phone": "024-584-3318",
      "license_no": "2-39",
      "license_date": null,
      "expire_date": null
    },
    {
      "name": "スナック　はるみ",
      "name_kana": "",
      "business_type": "飲食店営業",
      "address": "伊達市岡前１１－１",
      "lat": 37.820311743,
      "lng": 140.50439974,
      "geocoding_level": 8,
      "phone": "024-583-3896",
      "license_no": "2-102",
      "license_date": null,
      "expire_date": null
    },
    {
      "name": "大吉亭",
      "name_kana": "",
      "business_type": "飲食店営業",
      "address": "伊達市梁川町広瀬町４８",
      "lat": 37.848125868,
      "lng": 140.602404113,
      "geocoding_level": 8,
      "phone": "024-577-0399",
      "license_no": "2-57",
      "license_date": null,
      "expire_date": null
    },
    {
      "name": "有限会社赤井食品",
      "name_kana": "",
      "business_type": "納豆製造業",
      "address": "伊達市保原町上保原字京口４０",
      "lat": 37.814433416,
      "lng": 140.539005478,
      "geocoding_level": 8,
      "phone": "024-575-2773",
      "license_no": "2-58",
      "license_date": null,
      "expire_date": null
    },
    {
      "name": "ファンズ霊山店",
      "name_kana": "",
      "business_type": "飲食店営業",
      "address": "伊達市霊山町掛田字西陣場９－１",
      "lat": 37.819095,
      "lng": 140.562894,
      "geocoding_level": 2,
      "phone": "024-564-2788",
      "license_no": "2-62",
      "license_date": null,
      "expire_date": null
    },
    {
      "name": "ファンズ霊山店",
      "name_kana": "",
      "business_type": "菓子製造業",
      "address": "伊達市霊山町掛田字西陣場９－１",
      "lat": 37.819095,
      "lng": 140.562894,
      "geocoding_level": 2,
      "phone": "024-564-2788",
      "license_no": "2-263",
      "license_date": null,
      "expire_date": null
    },
    {
      "name": "ファンズ霊山店",
      "name_kana": "",
      "business_type": "魚介類販売業",
      "address": "伊達市霊山町掛田字西陣場９－１",
      "lat": 37.819095,
      "lng": 140.562894,
      "geocoding_level": 2,
      "phone": "024-564-2788",
      "license_no": "2-63",
      "license_date": null,
      "expire_date": null
    },
    {
      "name": "ファンズ霊山店",
      "name_kana": "",
      "business_type": "食肉販売業",
      "address": "伊達市霊山町掛田字西陣場９－１",
      "lat": 37.819095,
      "lng": 140.562894,
      "geocoding_level": 2,
      "phone": "024-564-2788",
      "license_no": "2-64",
      "license_date": null,
      "expire_date": null
    },
    {
      "name": "リオン・ドール保原店",
      "name_kana": "",
      "business_type": "飲食店営業",
      "address": "伊達市保原町上保原字金山３－１",
      "lat": 37.810009913,
      "lng": 140.547918523,
      "geocoding_level": 8,
      "phone": "024-574-2711",
      "license_no": "2-65",
      "license_date": null,
      "expire_date": null
    },
    {
      "name": "リオン・ドール保原店",
      "name_kana": "",
      "business_type": "魚介類販売業",
      "address": "伊達市保原町上保原字金山３－１",
      "lat": 37.810009913,
      "lng": 140.547918523,
      "geocoding_level": 8,
      "phone": "024-574-2711",
      "license_no": "2-66",
      "license_date": null,
      "expire_date": null
    },
    {
      "name": "リオン・ドール保原店",
      "name_kana": "",
      "business_type": "食肉販売業",
      "address": "伊達市保原町上保原字金山３－１",
      "lat": 37.810009913,
      "lng": 140.547918523,
      "geocoding_level": 8,
      "phone": "024-574-2711",
      "license_no": "2-40",
      "license_date": null,
      "expire_date": null
    },
    {
      "name": "夢菜",
      "name_kana": "",
      "business_type": "飲食店営業",
      "address": "伊達市保原町字宮下１１０番地５　西２号室",
      "lat": 37.820511664,
      "lng": 140.555285945,
      "geocoding_level": 8,
      "phone": "024-575-0068",
      "license_no": "2-104",
      "license_date": null,
      "expire_date": null
    },
    {
      "name": "スナック麗麗",
      "name_kana": "",
      "business_type": "飲食店営業",
      "address": "伊達市保原町字七丁目７－１　保原佐勝ビル２Ｆ",
      "lat": 37.821089224,
      "lng": 140.553358321,
      "geocoding_level": 8,
      "phone": "024-575-3018",
      "license_no": "2-105",
      "license_date": null,
      "expire_date": null
    },
    {
      "name": "みらい百彩館　んめ～べ",
      "name_kana": "",
      "business_type": "魚介類販売業",
      "address": "伊達市雪車町１９",
      "lat": 37.817419223,
      "lng": 140.505341113,
      "geocoding_level": 8,
      "phone": "024-551-2223",
      "license_no": "2-69",
      "license_date": null,
      "expire_date": null
    },
    {
      "name": "みらい百彩館　んめ～べ",
      "name_kana": "",
      "business_type": "そうざい製造業",
      "address": "伊達市雪車町１９",
      "lat": 37.817419223,
      "lng": 140.505341113,
      "geocoding_level": 8,
      "phone": "024-551-2223",
      "license_no": "1-48",
      "license_date": null,
      "expire_date": null
    },
    {
      "name": "飲み食い処　天狗",
      "name_kana": "",
      "business_type": "飲食店営業",
      "address": "伊達市保原町字宮下２３－２",
      "lat": 37.820524678,
      "lng": 140.554899222,
      "geocoding_level": 8,
      "phone": "024-576-4109",
      "license_no": "2-69",
      "license_date": null,
      "expire_date": null
    },
    {
      "name": "メフォス北日本　５０１８０　号店",
      "name_kana": "",
      "business_type": "飲食店営業",
      "address": "伊達市一本松６４　すりかみ荘",
      "lat": 37.81321862400001,
      "lng": 140.492037838,
      "geocoding_level": 8,
      "phone": "024-584-2370",
      "license_no": "2-70",
      "license_date": null,
      "expire_date": null
    },
    {
      "name": "こば商",
      "name_kana": "",
      "business_type": "飲食店営業",
      "address": "伊達市保原町字宮下９０－７",
      "lat": 37.818527592,
      "lng": 140.557153965,
      "geocoding_level": 8,
      "phone": "024-575-0358",
      "license_no": "2-70",
      "license_date": null,
      "expire_date": null
    },
    {
      "name": "カラオケサウンドフジコ",
      "name_kana": "",
      "business_type": "飲食店営業",
      "address": "伊達市保原町字泉町１０８",
      "lat": 37.821078195,
      "lng": 140.547031647,
      "geocoding_level": 8,
      "phone": "",
      "license_no": "2-71",
      "license_date": null,
      "expire_date": null
    },
    {
      "name": "昭栄堂菓子店",
      "name_kana": "",
      "business_type": "菓子製造業",
      "address": "伊達市梁川町五十沢字寺前５７－７",
      "lat": 37.819095,
      "lng": 140.562894,
      "geocoding_level": 2,
      "phone": "024-577-1388",
      "license_no": "2-71",
      "license_date": null,
      "expire_date": null
    },
    {
      "name": "たけの子の家",
      "name_kana": "",
      "business_type": "飲食店営業",
      "address": "伊達市保原町字城ノ内１１０－１",
      "lat": 37.8200377,
      "lng": 140.560884309,
      "geocoding_level": 8,
      "phone": "024-575-0267",
      "license_no": "1-254",
      "license_date": null,
      "expire_date": null
    },
    {
      "name": "たけの子の家",
      "name_kana": "",
      "business_type": "菓子製造業",
      "address": "伊達市保原町字城ノ内１１０－１",
      "lat": 37.8200377,
      "lng": 140.560884309,
      "geocoding_level": 8,
      "phone": "024-575-0267",
      "license_no": "2-73",
      "license_date": null,
      "expire_date": null
    },
    {
      "name": "たけの子の家",
      "name_kana": "",
      "business_type": "密封包装食品製造業",
      "address": "伊達市保原町字城ノ内１１０－１",
      "lat": 37.8200377,
      "lng": 140.560884309,
      "geocoding_level": 8,
      "phone": "024-575-0267",
      "license_no": "2-74",
      "license_date": null,
      "expire_date": null
    },
    {
      "name": "すき家　４号福島伊達店",
      "name_kana": "",
      "business_type": "飲食店営業",
      "address": "伊達市鍛治屋川２７番１",
      "lat": 37.81686116600001,
      "lng": 140.502183982,
      "geocoding_level": 8,
      "phone": "050-3771-6634",
      "license_no": "2-75",
      "license_date": null,
      "expire_date": null
    },
    {
      "name": "有限会社伊達水蜜園",
      "name_kana": "",
      "business_type": "菓子製造業",
      "address": "伊達市伏黒字上ケ戸２８番地",
      "lat": 37.819095,
      "lng": 140.562894,
      "geocoding_level": 2,
      "phone": "024-584-2798",
      "license_no": "2-41",
      "license_date": null,
      "expire_date": null
    },
    {
      "name": "有限会社伊達水蜜園",
      "name_kana": "",
      "business_type": "密封包装食品製造業",
      "address": "伊達市伏黒字上ケ戸２８番地",
      "lat": 37.819095,
      "lng": 140.562894,
      "geocoding_level": 2,
      "phone": "024-584-2798",
      "license_no": "2-76",
      "license_date": null,
      "expire_date": null
    },
    {
      "name": "味斉",
      "name_kana": "",
      "business_type": "飲食店営業",
      "address": "伊達市保原町字中村町４０－５",
      "lat": 37.816324781,
      "lng": 140.554958325,
      "geocoding_level": 8,
      "phone": "024-575-5372",
      "license_no": "2-77",
      "license_date": null,
      "expire_date": null
    },
    {
      "name": "味斉",
      "name_kana": "",
      "business_type": "そうざい製造業",
      "address": "伊達市保原町字中村町４０－５",
      "lat": 37.816324781,
      "lng": 140.554958325,
      "geocoding_level": 8,
      "phone": "024-575-5372",
      "license_no": "1-60",
      "license_date": null,
      "expire_date": null
    },
    {
      "name": "聖光学院高等学校",
      "name_kana": "",
      "business_type": "飲食店営業",
      "address": "伊達市六角３番地",
      "lat": 37.824587,
      "lng": 140.498641,
      "geocoding_level": 3,
      "phone": "024-583-3325",
      "license_no": "2-80",
      "license_date": null,
      "expire_date": null
    },
    {
      "name": "ｍ７８６３０",
      "name_kana": "",
      "business_type": "飲食店営業",
      "address": "伊達市保原町大泉字前原内２４６番地１",
      "lat": 37.825608636,
      "lng": 140.57489762,
      "geocoding_level": 8,
      "phone": "024-575-0911",
      "license_no": "2-81",
      "license_date": null,
      "expire_date": null
    },
    {
      "name": "スナック愛子",
      "name_kana": "",
      "business_type": "飲食店営業",
      "address": "伊達市保原町字七丁目７ー１　保原佐勝ビル３０３号",
      "lat": 37.821089224,
      "lng": 140.553358321,
      "geocoding_level": 8,
      "phone": "024-577-2230",
      "license_no": "2-82",
      "license_date": null,
      "expire_date": null
    },
    {
      "name": "聖光学院高等学校寮",
      "name_kana": "",
      "business_type": "飲食店営業",
      "address": "伊達市馬場口２４－１１",
      "lat": 37.822819492,
      "lng": 140.49912517,
      "geocoding_level": 8,
      "phone": "080-3141-1151",
      "license_no": "2-84",
      "license_date": null,
      "expire_date": null
    },
    {
      "name": "ふるさと体験スクールやまとだ",
      "name_kana": "",
      "business_type": "飲食店営業",
      "address": "伊達市霊山町山戸田字花水６",
      "lat": 37.781910636,
      "lng": 140.620614059,
      "geocoding_level": 8,
      "phone": "024-586-2647",
      "license_no": "2-232",
      "license_date": null,
      "expire_date": null
    },
    {
      "name": "菊甲食品株式会社",
      "name_kana": "",
      "business_type": "そうざい製造業",
      "address": "伊達市梁川町粟野字後塚原５１－１",
      "lat": 37.819095,
      "lng": 140.562894,
      "geocoding_level": 2,
      "phone": "024-577-0455",
      "license_no": "2-85",
      "license_date": null,
      "expire_date": null
    },
    {
      "name": "菊甲食品株式会社",
      "name_kana": "",
      "business_type": "漬物製造業",
      "address": "伊達市梁川町粟野字後塚原５１－１",
      "lat": 37.819095,
      "lng": 140.562894,
      "geocoding_level": 2,
      "phone": "024-577-0455",
      "license_no": "1-79",
      "license_date": null,
      "expire_date": null
    },
    {
      "name": "はま寿司福島伊達店",
      "name_kana": "",
      "business_type": "飲食店営業",
      "address": "伊達市鍛治屋川３１－１",
      "lat": 37.816661,
      "lng": 140.50141300000004,
      "geocoding_level": 3,
      "phone": "024-551-2631",
      "license_no": "2-42",
      "license_date": null,
      "expire_date": null
    },
    {
      "name": "桃里亭",
      "name_kana": "",
      "business_type": "飲食店営業",
      "address": "伊達市箱崎字梁下一１０－８",
      "lat": 37.815165824,
      "lng": 140.52037865,
      "geocoding_level": 8,
      "phone": "024-584-3334",
      "license_no": "2-44",
      "license_date": null,
      "expire_date": null
    },
    {
      "name": "里山がっこうレストラン",
      "name_kana": "",
      "business_type": "飲食店営業",
      "address": "伊達市霊山町大石字細倉１７番地",
      "lat": 37.819095,
      "lng": 140.562894,
      "geocoding_level": 2,
      "phone": "024-587-1032",
      "license_no": "2-72",
      "license_date": null,
      "expire_date": null
    },
    {
      "name": "里山パン工房ポレット",
      "name_kana": "",
      "business_type": "菓子製造業",
      "address": "伊達市霊山町大石字細倉１７番地",
      "lat": 37.819095,
      "lng": 140.562894,
      "geocoding_level": 2,
      "phone": "024-587-1032",
      "license_no": "2-73",
      "license_date": null,
      "expire_date": null
    },
    {
      "name": "Ｑｕｅｅｎｓａｌｍｏｎ",
      "name_kana": "",
      "business_type": "飲食店営業",
      "address": "伊達市梁川町字右城町４２－２",
      "lat": 37.85722125,
      "lng": 140.608229736,
      "geocoding_level": 8,
      "phone": "024-577-3337",
      "license_no": "2-74",
      "license_date": null,
      "expire_date": null
    },
    {
      "name": "だての雫",
      "name_kana": "",
      "business_type": "清涼飲料水製造業",
      "address": "伊達市保原町字泉町１１１－１",
      "lat": 37.821439453,
      "lng": 140.54596532,
      "geocoding_level": 8,
      "phone": "024-573-0395",
      "license_no": "2-87",
      "license_date": null,
      "expire_date": null
    },
    {
      "name": "だての雫",
      "name_kana": "",
      "business_type": "密封包装食品製造業",
      "address": "伊達市保原町字泉町１１１－１",
      "lat": 37.821439453,
      "lng": 140.54596532,
      "geocoding_level": 8,
      "phone": "024-573-0395",
      "license_no": "2-86",
      "license_date": null,
      "expire_date": null
    },
    {
      "name": "スナックひまわり",
      "name_kana": "",
      "business_type": "飲食店営業",
      "address": "伊達市保原町字六丁目４番地　丸松ビル１０２",
      "lat": 37.81995087500001,
      "lng": 140.552839806,
      "geocoding_level": 8,
      "phone": "024-575-2600",
      "license_no": "2-45",
      "license_date": null,
      "expire_date": null
    },
    {
      "name": "田中屋",
      "name_kana": "",
      "business_type": "そうざい製造業",
      "address": "伊達市前川原８０－１",
      "lat": 37.821328458,
      "lng": 140.508003951,
      "geocoding_level": 8,
      "phone": "024-584-2614",
      "license_no": "2-46",
      "license_date": null,
      "expire_date": null
    },
    {
      "name": "マクドナルド伊達ヨークベニマル店",
      "name_kana": "",
      "business_type": "飲食店営業",
      "address": "伊達市前川原５５",
      "lat": 37.820891864,
      "lng": 140.506662978,
      "geocoding_level": 8,
      "phone": "024-551-2511",
      "license_no": "2-48",
      "license_date": null,
      "expire_date": null
    },
    {
      "name": "加工処　かまや",
      "name_kana": "",
      "business_type": "そうざい製造業",
      "address": "伊達市梁川町五十沢字柴崎３５－１",
      "lat": 37.819095,
      "lng": 140.562894,
      "geocoding_level": 2,
      "phone": "024-577-6168",
      "license_no": "2-202",
      "license_date": null,
      "expire_date": null
    },
    {
      "name": "ヨークベニマル保原店",
      "name_kana": "",
      "business_type": "菓子製造業",
      "address": "伊達市保原町字油谷地３番地３",
      "lat": 37.813548462,
      "lng": 140.548742537,
      "geocoding_level": 8,
      "phone": "024-574-4911",
      "license_no": "1-189",
      "license_date": null,
      "expire_date": null
    },
    {
      "name": "ヨークベニマル保原店",
      "name_kana": "",
      "business_type": "魚介類販売業",
      "address": "伊達市保原町字油谷地３番地３",
      "lat": 37.813548462,
      "lng": 140.548742537,
      "geocoding_level": 8,
      "phone": "024-574-4911",
      "license_no": "2-49",
      "license_date": null,
      "expire_date": null
    },
    {
      "name": "ヨークベニマル保原店",
      "name_kana": "",
      "business_type": "食肉販売業",
      "address": "伊達市保原町字油谷地３番地３",
      "lat": 37.813548462,
      "lng": 140.548742537,
      "geocoding_level": 8,
      "phone": "024-574-4911",
      "license_no": "2-50",
      "license_date": null,
      "expire_date": null
    },
    {
      "name": "ヨークベニマル保原店",
      "name_kana": "",
      "business_type": "そうざい製造業",
      "address": "伊達市保原町字油谷地３番地３",
      "lat": 37.813548462,
      "lng": 140.548742537,
      "geocoding_level": 8,
      "phone": "024-574-4911",
      "license_no": "1-188",
      "license_date": null,
      "expire_date": null
    },
    {
      "name": "つきだて花工房",
      "name_kana": "",
      "business_type": "飲食店営業",
      "address": "伊達市月舘町下手渡字寺窪７",
      "lat": 37.717238145,
      "lng": 140.598439112,
      "geocoding_level": 8,
      "phone": "024-573-3888",
      "license_no": "2-203",
      "license_date": null,
      "expire_date": null
    },
    {
      "name": "濱蝶",
      "name_kana": "",
      "business_type": "飲食店営業",
      "address": "伊達市保原町字鉄炮町１３－１９",
      "lat": 37.819095,
      "lng": 140.562894,
      "geocoding_level": 2,
      "phone": "024-576-7373",
      "license_no": "2-52",
      "license_date": null,
      "expire_date": null
    },
    {
      "name": "東洋製罐グループエンジニアリング株式会社",
      "name_kana": "",
      "business_type": "飲食店営業",
      "address": "伊達市保原町字東野崎３００",
      "lat": 37.807579772,
      "lng": 140.560331292,
      "geocoding_level": 8,
      "phone": "024-576-7500",
      "license_no": "2-53",
      "license_date": null,
      "expire_date": null
    },
    {
      "name": "斎場かみや",
      "name_kana": "",
      "business_type": "飲食店営業",
      "address": "伊達市保原町字早稲田１",
      "lat": 37.819095,
      "lng": 140.562894,
      "geocoding_level": 2,
      "phone": "024-575-0699",
      "license_no": "2-106",
      "license_date": null,
      "expire_date": null
    },
    {
      "name": "にしんや",
      "name_kana": "",
      "business_type": "飲食店営業",
      "address": "伊達市梁川町字大町２丁目５３－１",
      "lat": 37.819095,
      "lng": 140.562894,
      "geocoding_level": 2,
      "phone": "024-577-0112",
      "license_no": "2-266",
      "license_date": null,
      "expire_date": null
    },
    {
      "name": "にしんや",
      "name_kana": "",
      "business_type": "魚介類販売業",
      "address": "伊達市梁川町字大町２丁目５３－１",
      "lat": 37.819095,
      "lng": 140.562894,
      "geocoding_level": 2,
      "phone": "024-577-0112",
      "license_no": "2-267",
      "license_date": null,
      "expire_date": null
    },
    {
      "name": "株式会社香精",
      "name_kana": "",
      "business_type": "そうざい製造業",
      "address": "伊達市岡沼６９番地の１",
      "lat": 37.826801915,
      "lng": 140.511958917,
      "geocoding_level": 8,
      "phone": "024-584-2841",
      "license_no": "2-108",
      "license_date": null,
      "expire_date": null
    },
    {
      "name": "株式会社香精",
      "name_kana": "",
      "business_type": "漬物製造業",
      "address": "伊達市岡沼６９番地の１",
      "lat": 37.826801915,
      "lng": 140.511958917,
      "geocoding_level": 8,
      "phone": "024-584-2841",
      "license_no": "1-201",
      "license_date": null,
      "expire_date": null
    },
    {
      "name": "不二家　保原店",
      "name_kana": "",
      "business_type": "菓子製造業",
      "address": "伊達市保原町字赤橋１９－３",
      "lat": 37.816962781,
      "lng": 140.557011779,
      "geocoding_level": 8,
      "phone": "024-575-2380",
      "license_no": "2-110",
      "license_date": null,
      "expire_date": null
    },
    {
      "name": "桜歌",
      "name_kana": "",
      "business_type": "飲食店営業",
      "address": "伊達市右城１５－１　ＳＴビル１Ｆ",
      "lat": 37.820096,
      "lng": 140.502565,
      "geocoding_level": 3,
      "phone": "024-573-1338",
      "license_no": "2-111",
      "license_date": null,
      "expire_date": null
    },
    {
      "name": "ひろせ会館",
      "name_kana": "",
      "business_type": "飲食店営業",
      "address": "伊達市梁川町幸町９８",
      "lat": 37.850697961,
      "lng": 140.59867700400002,
      "geocoding_level": 8,
      "phone": "024-527-0075",
      "license_no": "2-268",
      "license_date": null,
      "expire_date": null
    },
    {
      "name": "スナック　華（はな）",
      "name_kana": "",
      "business_type": "飲食店営業",
      "address": "伊達市保原町字七丁目１８－１９　丸石ビル１ＦＢ",
      "lat": 37.82096983,
      "lng": 140.554375637,
      "geocoding_level": 8,
      "phone": "024-575-0665",
      "license_no": "2-113",
      "license_date": null,
      "expire_date": null
    },
    {
      "name": "つつみ屋　保原店",
      "name_kana": "",
      "business_type": "菓子製造業",
      "address": "伊達市保原町字中村町４８－５　ＴＫハイツ",
      "lat": 37.815944255,
      "lng": 140.555110061,
      "geocoding_level": 8,
      "phone": "024-575-0008",
      "license_no": "2-55",
      "license_date": null,
      "expire_date": null
    },
    {
      "name": "手づくり館　五菜果",
      "name_kana": "",
      "business_type": "菓子製造業",
      "address": "伊達市梁川町五十沢字舘５５",
      "lat": 37.819095,
      "lng": 140.562894,
      "geocoding_level": 2,
      "phone": "024-577-4773",
      "license_no": "1-30",
      "license_date": null,
      "expire_date": null
    },
    {
      "name": "手づくり館　五菜果",
      "name_kana": "",
      "business_type": "そうざい製造業",
      "address": "伊達市梁川町五十沢字舘５５",
      "lat": 37.819095,
      "lng": 140.562894,
      "geocoding_level": 2,
      "phone": "024-577-4773",
      "license_no": "2-206",
      "license_date": null,
      "expire_date": null
    },
    {
      "name": "酒井ぶどう園",
      "name_kana": "",
      "business_type": "菓子製造業",
      "address": "伊達市梁川町東大枝字北町６６－３",
      "lat": 37.819095,
      "lng": 140.562894,
      "geocoding_level": 2,
      "phone": "024-577-0697",
      "license_no": "2-269",
      "license_date": null,
      "expire_date": null
    },
    {
      "name": "酒井ぶどう園",
      "name_kana": "",
      "business_type": "清涼飲料水製造業",
      "address": "伊達市梁川町東大枝字北町６６－３",
      "lat": 37.819095,
      "lng": 140.562894,
      "geocoding_level": 2,
      "phone": "024-577-0697",
      "license_no": "2-271",
      "license_date": null,
      "expire_date": null
    },
    {
      "name": "酒井ぶどう園",
      "name_kana": "",
      "business_type": "密封包装食品製造業",
      "address": "伊達市梁川町東大枝字北町６６－３",
      "lat": 37.819095,
      "lng": 140.562894,
      "geocoding_level": 2,
      "phone": "024-577-0697",
      "license_no": "2-270",
      "license_date": null,
      "expire_date": null
    },
    {
      "name": "カフェ蔵羅",
      "name_kana": "",
      "business_type": "飲食店営業",
      "address": "伊達市保原町字八丁目２６－２",
      "lat": 37.822250359,
      "lng": 140.554364187,
      "geocoding_level": 8,
      "phone": "024-575-0202",
      "license_no": "2-58",
      "license_date": null,
      "expire_date": null
    },
    {
      "name": "カフェ蔵羅",
      "name_kana": "",
      "business_type": "菓子製造業",
      "address": "伊達市保原町字八丁目２６－２",
      "lat": 37.822250359,
      "lng": 140.554364187,
      "geocoding_level": 8,
      "phone": "024-575-0202",
      "license_no": "2-59",
      "license_date": null,
      "expire_date": null
    },
    {
      "name": "さがみ　梁川斎場",
      "name_kana": "",
      "business_type": "飲食店営業",
      "address": "伊達市梁川町広瀬町１",
      "lat": 37.847839211,
      "lng": 140.602930168,
      "geocoding_level": 8,
      "phone": "024-577-4205",
      "license_no": "2-233",
      "license_date": null,
      "expire_date": null
    },
    {
      "name": "ｍ１０８６９",
      "name_kana": "",
      "business_type": "飲食店営業",
      "address": "伊達市保原町上保原字上ノ原２２番地",
      "lat": 37.819095,
      "lng": 140.562894,
      "geocoding_level": 2,
      "phone": "024-575-5563",
      "license_no": "2-109",
      "license_date": null,
      "expire_date": null
    },
    {
      "name": "百萬馬力",
      "name_kana": "",
      "business_type": "飲食店営業",
      "address": "伊達市梁川町青葉町１９",
      "lat": 37.846469636,
      "lng": 140.603082626,
      "geocoding_level": 8,
      "phone": "080-55598508",
      "license_no": "2-235",
      "license_date": null,
      "expire_date": null
    },
    {
      "name": "菓子工房　風薫",
      "name_kana": "",
      "business_type": "菓子製造業",
      "address": "伊達市梁川町細谷字山屋敷１０",
      "lat": 37.827236841,
      "lng": 140.596517351,
      "geocoding_level": 8,
      "phone": "",
      "license_no": "2-209",
      "license_date": null,
      "expire_date": null
    },
    {
      "name": "すし辰",
      "name_kana": "",
      "business_type": "飲食店営業",
      "address": "伊達市右城１",
      "lat": 37.820096,
      "lng": 140.502565,
      "geocoding_level": 3,
      "phone": "024-583-3974",
      "license_no": "2-79",
      "license_date": null,
      "expire_date": null
    },
    {
      "name": "味蔵",
      "name_kana": "",
      "business_type": "飲食店営業",
      "address": "伊達市保原町字旭町２１番地",
      "lat": 37.820658701,
      "lng": 140.547034225,
      "geocoding_level": 8,
      "phone": "024-576-3886",
      "license_no": "2-80",
      "license_date": null,
      "expire_date": null
    },
    {
      "name": "ヨークベニマル伊達店",
      "name_kana": "",
      "business_type": "飲食店営業",
      "address": "伊達市前川原５５　ヨークベニマル伊達店内",
      "lat": 37.820891864,
      "lng": 140.506662978,
      "geocoding_level": 8,
      "phone": "024-583-4171",
      "license_no": "2-82",
      "license_date": null,
      "expire_date": null
    },
    {
      "name": "霊山こどもの村サービスハウス",
      "name_kana": "",
      "business_type": "飲食店営業",
      "address": "伊達市霊山町石田字宝司沢９－１",
      "lat": 37.819095,
      "lng": 140.562894,
      "geocoding_level": 2,
      "phone": "024-589-2233",
      "license_no": "2-83",
      "license_date": null,
      "expire_date": null
    },
    {
      "name": "和風スナック　かすみ",
      "name_kana": "",
      "business_type": "飲食店営業",
      "address": "伊達市保原町字宮下３３－１　２Ｆ",
      "lat": 37.820047855,
      "lng": 140.554503768,
      "geocoding_level": 8,
      "phone": "",
      "license_no": "2-84",
      "license_date": null,
      "expire_date": null
    },
    {
      "name": "みらい百彩館「んめーべ」",
      "name_kana": "",
      "business_type": "飲食店営業",
      "address": "伊達市雪車町１９",
      "lat": 37.817419223,
      "lng": 140.505341113,
      "geocoding_level": 8,
      "phone": "024-5575-0100",
      "license_no": "2-86",
      "license_date": null,
      "expire_date": null
    },
    {
      "name": "アネックスひろせ",
      "name_kana": "",
      "business_type": "飲食店営業",
      "address": "伊達市梁川町青葉町７５",
      "lat": 37.847895872,
      "lng": 140.600840709,
      "geocoding_level": 8,
      "phone": "",
      "license_no": "2-87",
      "license_date": null,
      "expire_date": null
    },
    {
      "name": "とんかつ宗次郎",
      "name_kana": "",
      "business_type": "飲食店営業",
      "address": "伊達市保原町字泉町９２－１",
      "lat": 37.821376942,
      "lng": 140.550439039,
      "geocoding_level": 8,
      "phone": "024-597-7200",
      "license_no": "2-89",
      "license_date": null,
      "expire_date": null
    },
    {
      "name": "からあげ伊達屋",
      "name_kana": "",
      "business_type": "飲食店営業",
      "address": "伊達市梁川町字東塩野川５７－１",
      "lat": 37.819095,
      "lng": 140.562894,
      "geocoding_level": 2,
      "phone": "080-2809-6485",
      "license_no": "2-237",
      "license_date": null,
      "expire_date": null
    },
    {
      "name": "からあげ伊達屋",
      "name_kana": "",
      "business_type": "そうざい製造業",
      "address": "伊達市梁川町字東塩野川５７－１",
      "lat": 37.819095,
      "lng": 140.562894,
      "geocoding_level": 2,
      "phone": "080-2809-6485",
      "license_no": "2-285",
      "license_date": null,
      "expire_date": null
    },
    {
      "name": "ヨークベニマル伊達店",
      "name_kana": "",
      "business_type": "飲食店営業",
      "address": "伊達市前川原５５　ヨークベニマル伊達店内",
      "lat": 37.820891864,
      "lng": 140.506662978,
      "geocoding_level": 8,
      "phone": "024-583-4171",
      "license_no": "2-98",
      "license_date": null,
      "expire_date": null
    },
    {
      "name": "癒喰堂幻　Ｌｕ－ｐｉｎ",
      "name_kana": "",
      "business_type": "飲食店営業",
      "address": "伊達市保原町字八丁目３７",
      "lat": 37.819095,
      "lng": 140.562894,
      "geocoding_level": 2,
      "phone": "024-563-7898",
      "license_no": "2-100",
      "license_date": null,
      "expire_date": null
    },
    {
      "name": "デリカフーズ株式会社　仙台事業所　福島工場",
      "name_kana": "",
      "business_type": "そうざい製造業",
      "address": "伊達市梁川町やながわ工業団地１－３６",
      "lat": 37.859789,
      "lng": 140.590202,
      "geocoding_level": 3,
      "phone": "024-527-1606",
      "license_no": "2-101",
      "license_date": null,
      "expire_date": null
    },
    {
      "name": "風知草",
      "name_kana": "",
      "business_type": "飲食店営業",
      "address": "伊達市霊山町上小国字柏平５２",
      "lat": 37.717604911,
      "lng": 140.547882634,
      "geocoding_level": 8,
      "phone": "",
      "license_no": "2-103",
      "license_date": null,
      "expire_date": null
    },
    {
      "name": "メモリアルホールひろせ　保原斎苑",
      "name_kana": "",
      "business_type": "飲食店営業",
      "address": "伊達市保原町字八丁目１",
      "lat": 37.821514068,
      "lng": 140.553388978,
      "geocoding_level": 8,
      "phone": "024-575-1194",
      "license_no": "2-105",
      "license_date": null,
      "expire_date": null
    },
    {
      "name": "しじみ",
      "name_kana": "",
      "business_type": "飲食店営業",
      "address": "伊達市梁川町字田町７－１",
      "lat": 37.852282551,
      "lng": 140.603266888,
      "geocoding_level": 8,
      "phone": "024-577-6030",
      "license_no": "2-238",
      "license_date": null,
      "expire_date": null
    },
    {
      "name": "ラポール",
      "name_kana": "",
      "business_type": "飲食店営業",
      "address": "伊達市保原町字中村町４０－５",
      "lat": 37.816324781,
      "lng": 140.554958325,
      "geocoding_level": 8,
      "phone": "",
      "license_no": "2-76",
      "license_date": null,
      "expire_date": null
    },
    {
      "name": "くつろぎ処　珍竹林",
      "name_kana": "",
      "business_type": "飲食店営業",
      "address": "伊達市梁川町青葉町５５",
      "lat": 37.84733822,
      "lng": 140.602103538,
      "geocoding_level": 8,
      "phone": "024-577-2975",
      "license_no": "2-77",
      "license_date": null,
      "expire_date": null
    },
    {
      "name": "クロ～バ～工房",
      "name_kana": "",
      "business_type": "菓子製造業",
      "address": "伊達市新町３１－６",
      "lat": 37.815678401,
      "lng": 140.497982521,
      "geocoding_level": 8,
      "phone": "024-583-2025",
      "license_no": "2-78",
      "license_date": null,
      "expire_date": null
    },
    {
      "name": "すしのやすひろ　伊達店",
      "name_kana": "",
      "business_type": "飲食店営業",
      "address": "伊達市北後８－１０",
      "lat": 37.821288541,
      "lng": 140.499222053,
      "geocoding_level": 8,
      "phone": "024-583-2150",
      "license_no": "2-81",
      "license_date": null,
      "expire_date": null
    },
    {
      "name": "菜祭",
      "name_kana": "",
      "business_type": "飲食店営業",
      "address": "伊達市保原町字実町７４－１",
      "lat": 37.815489995,
      "lng": 140.551029934,
      "geocoding_level": 8,
      "phone": "024-576-6625",
      "license_no": "2-83",
      "license_date": null,
      "expire_date": null
    },
    {
      "name": "楽　ｒａｋｕ",
      "name_kana": "",
      "business_type": "飲食店営業",
      "address": "伊達市保原町字宮下３３－１",
      "lat": 37.820047855,
      "lng": 140.554503768,
      "geocoding_level": 8,
      "phone": "",
      "license_no": "2-84",
      "license_date": null,
      "expire_date": null
    },
    {
      "name": "小料理　千",
      "name_kana": "",
      "business_type": "飲食店営業",
      "address": "伊達市保原町字磐前通２３－６",
      "lat": 37.81780285,
      "lng": 140.55432319100004,
      "geocoding_level": 8,
      "phone": "",
      "license_no": "2-85",
      "license_date": null,
      "expire_date": null
    },
    {
      "name": "Ｓｏｕｎｄ　Ｓｔａｇｅ　Ｇｒａｃｅ",
      "name_kana": "",
      "business_type": "飲食店営業",
      "address": "伊達市保原町字七丁目７－１　保原佐勝ビル３Ｆ",
      "lat": 37.821089224,
      "lng": 140.553358321,
      "geocoding_level": 8,
      "phone": "",
      "license_no": "2-86",
      "license_date": null,
      "expire_date": null
    },
    {
      "name": "ｃｏｍ　ｃｏｍ",
      "name_kana": "",
      "business_type": "飲食店営業",
      "address": "伊達市長岡７　芳賀ビル１Ｆ",
      "lat": 37.81818,
      "lng": 140.502244,
      "geocoding_level": 3,
      "phone": "",
      "license_no": "2-112",
      "license_date": null,
      "expire_date": null
    },
    {
      "name": "陽春",
      "name_kana": "",
      "business_type": "飲食店営業",
      "address": "伊達市保原町字三丁目２３",
      "lat": 37.819095,
      "lng": 140.562894,
      "geocoding_level": 2,
      "phone": "",
      "license_no": "2-89",
      "license_date": null,
      "expire_date": null
    },
    {
      "name": "（有）イスコ",
      "name_kana": "",
      "business_type": "菓子製造業",
      "address": "伊達市保原町字九丁目５",
      "lat": 37.822625197,
      "lng": 140.554863282,
      "geocoding_level": 8,
      "phone": "024-576-6055",
      "license_no": "2-90",
      "license_date": null,
      "expire_date": null
    },
    {
      "name": "有限会社岡崎",
      "name_kana": "",
      "business_type": "菓子製造業",
      "address": "伊達市梁川町五十沢字株木４－４",
      "lat": 37.819095,
      "lng": 140.562894,
      "geocoding_level": 2,
      "phone": "024-577-0683",
      "license_no": "2-91",
      "license_date": null,
      "expire_date": null
    },
    {
      "name": "有限会社岡崎",
      "name_kana": "",
      "business_type": "そうざい製造業",
      "address": "伊達市梁川町五十沢字株木４－４",
      "lat": 37.819095,
      "lng": 140.562894,
      "geocoding_level": 2,
      "phone": "024-577-0683",
      "license_no": "2-92",
      "license_date": null,
      "expire_date": null
    },
    {
      "name": "有限会社岡崎",
      "name_kana": "",
      "business_type": "密封包装食品製造業",
      "address": "伊達市梁川町五十沢字株木４－４",
      "lat": 37.819095,
      "lng": 140.562894,
      "geocoding_level": 2,
      "phone": "024-577-0683",
      "license_no": "2-93",
      "license_date": null,
      "expire_date": null
    },
    {
      "name": "工房　えじっせ",
      "name_kana": "",
      "business_type": "菓子製造業",
      "address": "伊達市霊山町掛田字荒井２６",
      "lat": 37.819095,
      "lng": 140.562894,
      "geocoding_level": 2,
      "phone": "024-586-1145",
      "license_no": "2-94",
      "license_date": null,
      "expire_date": null
    },
    {
      "name": "工房　えじっせ",
      "name_kana": "",
      "business_type": "漬物製造業",
      "address": "伊達市霊山町掛田字荒井２６",
      "lat": 37.819095,
      "lng": 140.562894,
      "geocoding_level": 2,
      "phone": "024-586-1145",
      "license_no": "1-183",
      "license_date": null,
      "expire_date": null
    },
    {
      "name": "掛田まちなかサロンヨッテミ",
      "name_kana": "",
      "business_type": "飲食店営業",
      "address": "伊達市霊山町掛田字中町１０－１",
      "lat": 37.819095,
      "lng": 140.562894,
      "geocoding_level": 2,
      "phone": "024-572-3765",
      "license_no": "2-248",
      "license_date": null,
      "expire_date": null
    },
    {
      "name": "カフェ・バンカレラ伊達店",
      "name_kana": "",
      "business_type": "飲食店営業",
      "address": "伊達市姥ケ懐５－１　マルハン伊達店内",
      "lat": 37.814806924,
      "lng": 140.501812102,
      "geocoding_level": 8,
      "phone": "024-551-1505",
      "license_no": "2-96",
      "license_date": null,
      "expire_date": null
    },
    {
      "name": "カフェすずらん",
      "name_kana": "",
      "business_type": "飲食店営業",
      "address": "伊達市梁川町青葉町３６",
      "lat": 37.846853523,
      "lng": 140.602577536,
      "geocoding_level": 8,
      "phone": "024-577-1988",
      "license_no": "2-93",
      "license_date": null,
      "expire_date": null
    },
    {
      "name": "カフェすずらん",
      "name_kana": "",
      "business_type": "菓子製造業",
      "address": "伊達市梁川町青葉町３６",
      "lat": 37.846853523,
      "lng": 140.602577536,
      "geocoding_level": 8,
      "phone": "024-577-1988",
      "license_no": "2-94",
      "license_date": null,
      "expire_date": null
    },
    {
      "name": "ブイチェーン保原店",
      "name_kana": "",
      "business_type": "飲食店営業",
      "address": "伊達市保原町字半道９４－１",
      "lat": 37.82899409800001,
      "lng": 140.560194689,
      "geocoding_level": 8,
      "phone": "024-574-3337",
      "license_no": "2-96",
      "license_date": null,
      "expire_date": null
    },
    {
      "name": "ブイチェーン保原店",
      "name_kana": "",
      "business_type": "魚介類販売業",
      "address": "伊達市保原町字半道９４－１",
      "lat": 37.82899409800001,
      "lng": 140.560194689,
      "geocoding_level": 8,
      "phone": "024-574-3337",
      "license_no": "2-97",
      "license_date": null,
      "expire_date": null
    },