{
  "meta": {
    "updated": 1783906731,
    "sources": [
      {
        "source": "熊本県 食品営業許可施設、届出施設データ",
        "license": "Creative Commons Attribution 4.0 International"
      },
      {
        "source": "厚生労働省 食品衛生申請等システム（オープンデータ）",
        "license": "公共データ利用規約（第1.0版, PDL1.0）"
      }
    ]
  },
  "data": [
    {
      "name": "",
      "name_kana": "",
      "business_type": "飲食店営業",
      "address": "阿蘇郡南阿蘇村河陽５５７９番地１",
      "lat": 32.89712403,
      "lng": 131.006451643,
      "geocoding_level": 8,
      "phone": "",
      "license_no": "",
      "license_date": "2016-12-14",
      "expire_date": null
    },
    {
      "name": "",
      "name_kana": "",
      "business_type": "菓子製造業",
      "address": "阿蘇郡南阿蘇村河陽５５７９番地１",
      "lat": 32.89712403,
      "lng": 131.006451643,
      "geocoding_level": 8,
      "phone": "",
      "license_no": "",
      "license_date": "2016-12-14",
      "expire_date": null
    },
    {
      "name": "",
      "name_kana": "",
      "business_type": "乳類販売業",
      "address": "阿蘇郡南阿蘇村久石２２５７",
      "lat": 32.805134,
      "lng": 131.059873,
      "geocoding_level": 3,
      "phone": "",
      "license_no": "",
      "license_date": "2016-12-28",
      "expire_date": null
    },
    {
      "name": "",
      "name_kana": "",
      "business_type": "飲食店営業",
      "address": "阿蘇郡南阿蘇村久石２８０７",
      "lat": 32.805134,
      "lng": 131.059873,
      "geocoding_level": 3,
      "phone": "",
      "license_no": "",
      "license_date": "2017-02-08",
      "expire_date": null
    },
    {
      "name": "",
      "name_kana": "",
      "business_type": "みそ製造業",
      "address": "阿蘇郡南阿蘇村一関８５８",
      "lat": 32.848353,
      "lng": 131.075079,
      "geocoding_level": 3,
      "phone": "",
      "license_no": "",
      "license_date": "2017-02-10",
      "expire_date": null
    },
    {
      "name": "",
      "name_kana": "",
      "business_type": "飲食店営業",
      "address": "阿蘇郡南阿蘇村河陰字下駄原３２０８－１他６筆",
      "lat": 32.834165,
      "lng": 131.000898,
      "geocoding_level": 3,
      "phone": "",
      "license_no": "",
      "license_date": "2017-02-17",
      "expire_date": null
    },
    {
      "name": "",
      "name_kana": "",
      "business_type": "飲食店営業",
      "address": "阿蘇郡南阿蘇村大字河陽５５７９番地３",
      "lat": 32.898814315,
      "lng": 131.007059615,
      "geocoding_level": 8,
      "phone": "",
      "license_no": "",
      "license_date": "2017-02-17",
      "expire_date": null
    },
    {
      "name": "",
      "name_kana": "",
      "business_type": "飲食店営業",
      "address": "阿蘇郡南阿蘇村大字両併１２８３－３",
      "lat": 32.811161063,
      "lng": 131.101256359,
      "geocoding_level": 8,
      "phone": "",
      "license_no": "",
      "license_date": "2017-02-20",
      "expire_date": null
    },
    {
      "name": "",
      "name_kana": "",
      "business_type": "飲食店営業",
      "address": "阿蘇郡南阿蘇村河陽字葛原５５４０－２",
      "lat": 32.869851,
      "lng": 131.000524,
      "geocoding_level": 3,
      "phone": "",
      "license_no": "",
      "license_date": "2017-02-20",
      "expire_date": null
    },
    {
      "name": "",
      "name_kana": "",
      "business_type": "そうざい製造業",
      "address": "熊本県阿蘇郡南阿蘇村久石２９２１－２",
      "lat": 32.822356558,
      "lng": 131.041702944,
      "geocoding_level": 8,
      "phone": "",
      "license_no": "",
      "license_date": "2017-02-28",
      "expire_date": null
    },
    {
      "name": "",
      "name_kana": "",
      "business_type": "乳類販売業",
      "address": "熊本県阿蘇郡南阿蘇村河陽5579番地1阿蘇ファームランド阿蘇オルゴール館内",
      "lat": 32.89712403,
      "lng": 131.006451643,
      "geocoding_level": 8,
      "phone": "",
      "license_no": "",
      "license_date": "2017-03-27",
      "expire_date": null
    },
    {
      "name": "",
      "name_kana": "",
      "business_type": "飲食店営業",
      "address": "阿蘇郡南阿蘇村一関７８５－３",
      "lat": 32.827483885,
      "lng": 131.053620582,
      "geocoding_level": 8,
      "phone": "",
      "license_no": "",
      "license_date": "2017-03-28",
      "expire_date": null
    },
    {
      "name": "",
      "name_kana": "",
      "business_type": "菓子製造業",
      "address": "阿蘇郡南阿蘇村一関７８５－３",
      "lat": 32.827483885,
      "lng": 131.053620582,
      "geocoding_level": 8,
      "phone": "",
      "license_no": "",
      "license_date": "2017-03-28",
      "expire_date": null
    },
    {
      "name": "",
      "name_kana": "",
      "business_type": "菓子製造業",
      "address": "阿蘇郡南阿蘇村大字両併１２８３番地３",
      "lat": 32.811161063,
      "lng": 131.101256359,
      "geocoding_level": 8,
      "phone": "",
      "license_no": "",
      "license_date": "2017-03-28",
      "expire_date": null
    },
    {
      "name": "",
      "name_kana": "",
      "business_type": "乳類販売業",
      "address": "阿蘇郡南阿蘇村河陽５５７９－３",
      "lat": 32.898814315,
      "lng": 131.007059615,
      "geocoding_level": 8,
      "phone": "",
      "license_no": "",
      "license_date": "2017-04-24",
      "expire_date": null
    },
    {
      "name": "",
      "name_kana": "",
      "business_type": "食肉販売業",
      "address": "阿蘇郡南阿蘇村河陽５５７９－３",
      "lat": 32.898814315,
      "lng": 131.007059615,
      "geocoding_level": 8,
      "phone": "",
      "license_no": "",
      "license_date": "2017-04-24",
      "expire_date": null
    },
    {
      "name": "",
      "name_kana": "",
      "business_type": "魚介類販売業",
      "address": "熊本県阿蘇郡南阿蘇村久石２７７４－１",
      "lat": 32.817656087,
      "lng": 131.040671851,
      "geocoding_level": 8,
      "phone": "",
      "license_no": "",
      "license_date": "2017-04-28",
      "expire_date": null
    },
    {
      "name": "",
      "name_kana": "",
      "business_type": "食肉販売業",
      "address": "熊本県阿蘇郡南阿蘇村久石２７７４－１",
      "lat": 32.817656087,
      "lng": 131.040671851,
      "geocoding_level": 8,
      "phone": "",
      "license_no": "",
      "license_date": "2017-04-28",
      "expire_date": null
    },
    {
      "name": "",
      "name_kana": "",
      "business_type": "飲食店営業",
      "address": "阿蘇郡南阿蘇村久石２７７４－１",
      "lat": 32.817656087,
      "lng": 131.040671851,
      "geocoding_level": 8,
      "phone": "",
      "license_no": "",
      "license_date": "2017-05-19",
      "expire_date": null
    },
    {
      "name": "",
      "name_kana": "",
      "business_type": "菓子製造業",
      "address": "阿蘇郡南阿蘇村河陰４４５１",
      "lat": 32.832738264,
      "lng": 131.012702786,
      "geocoding_level": 8,
      "phone": "",
      "license_no": "",
      "license_date": "2017-05-26",
      "expire_date": null
    },
    {
      "name": "",
      "name_kana": "",
      "business_type": "そうざい製造業",
      "address": "熊本県阿蘇郡南阿蘇村久石１－１０１",
      "lat": 32.807790113,
      "lng": 131.061361857,
      "geocoding_level": 8,
      "phone": "",
      "license_no": "",
      "license_date": "2017-05-26",
      "expire_date": null
    },
    {
      "name": "",
      "name_kana": "",
      "business_type": "菓子製造業",
      "address": "熊本県阿蘇郡南阿蘇村久石２１９７",
      "lat": 32.805134,
      "lng": 131.059873,
      "geocoding_level": 3,
      "phone": "",
      "license_no": "",
      "license_date": "2017-05-31",
      "expire_date": null
    },
    {
      "name": "",
      "name_kana": "",
      "business_type": "乳類販売業",
      "address": "熊本県阿蘇郡南阿蘇村立野１８５ー１",
      "lat": 32.879425,
      "lng": 130.973844,
      "geocoding_level": 3,
      "phone": "",
      "license_no": "",
      "license_date": "2017-05-31",
      "expire_date": null
    },
    {
      "name": "",
      "name_kana": "",
      "business_type": "乳類販売業",
      "address": "熊本県阿蘇郡南阿蘇村大字久石字ニノ長迫２７５２－１",
      "lat": 32.805134,
      "lng": 131.059873,
      "geocoding_level": 3,
      "phone": "",
      "license_no": "",
      "license_date": "2017-05-31",
      "expire_date": null
    },
    {
      "name": "",
      "name_kana": "",
      "business_type": "乳類販売業",
      "address": "熊本県阿蘇郡南阿蘇村吉田５９－６",
      "lat": 32.822766839,
      "lng": 131.08402649,
      "geocoding_level": 8,
      "phone": "",
      "license_no": "",
      "license_date": "2017-05-31",
      "expire_date": null
    },
    {
      "name": "",
      "name_kana": "",
      "business_type": "食肉販売業",
      "address": "熊本県阿蘇郡南阿蘇村一関１８８９－１",
      "lat": 32.835398987,
      "lng": 131.063206916,
      "geocoding_level": 8,
      "phone": "",
      "license_no": "",
      "license_date": "2017-05-31",
      "expire_date": null
    },
    {
      "name": "",
      "name_kana": "",
      "business_type": "魚介類販売業",
      "address": "熊本県阿蘇郡南阿蘇村一関１８８９－１",
      "lat": 32.835398987,
      "lng": 131.063206916,
      "geocoding_level": 8,
      "phone": "",
      "license_no": "",
      "license_date": "2017-05-31",
      "expire_date": null
    },
    {
      "name": "",
      "name_kana": "",
      "business_type": "菓子製造業",
      "address": "阿蘇郡南阿蘇村河陽５５７９－３",
      "lat": 32.898814315,
      "lng": 131.007059615,
      "geocoding_level": 8,
      "phone": "",
      "license_no": "",
      "license_date": "2017-06-05",
      "expire_date": null
    },
    {
      "name": "",
      "name_kana": "",
      "business_type": "飲食店営業",
      "address": "阿蘇郡南阿蘇村河陽５５７９－３",
      "lat": 32.898814315,
      "lng": 131.007059615,
      "geocoding_level": 8,
      "phone": "",
      "license_no": "",
      "license_date": "2017-06-05",
      "expire_date": null
    },
    {
      "name": "",
      "name_kana": "",
      "business_type": "菓子製造業",
      "address": "阿蘇郡南阿蘇村大字久石字ニノ長迫２７５２－１",
      "lat": 32.805134,
      "lng": 131.059873,
      "geocoding_level": 3,
      "phone": "",
      "license_no": "",
      "license_date": "2017-05-31",
      "expire_date": null
    },
    {
      "name": "",
      "name_kana": "",
      "business_type": "菓子製造業",
      "address": "阿蘇郡南阿蘇村河陽４６３５－６",
      "lat": 32.873877561,
      "lng": 131.00381536,
      "geocoding_level": 8,
      "phone": "",
      "license_no": "",
      "license_date": "2017-05-31",
      "expire_date": null
    },
    {
      "name": "",
      "name_kana": "",
      "business_type": "飲食店営業",
      "address": "阿蘇郡南阿蘇村河陽４６３５－６",
      "lat": 32.873877561,
      "lng": 131.00381536,
      "geocoding_level": 8,
      "phone": "",
      "license_no": "",
      "license_date": "2017-05-31",
      "expire_date": null
    },
    {
      "name": "",
      "name_kana": "",
      "business_type": "飲食店営業",
      "address": "阿蘇郡南阿蘇村大字久石字ニノ長迫２７５２－１",
      "lat": 32.805134,
      "lng": 131.059873,
      "geocoding_level": 3,
      "phone": "",
      "license_no": "",
      "license_date": "2017-05-31",
      "expire_date": null
    },
    {
      "name": "",
      "name_kana": "",
      "business_type": "菓子製造業",
      "address": "阿蘇郡南阿蘇村河陽５５７９－３",
      "lat": 32.898814315,
      "lng": 131.007059615,
      "geocoding_level": 8,
      "phone": "",
      "license_no": "",
      "license_date": "2017-07-11",
      "expire_date": null
    },
    {
      "name": "",
      "name_kana": "",
      "business_type": "乳製品製造業",
      "address": "阿蘇郡南阿蘇村河陽５５７９－３",
      "lat": 32.898814315,
      "lng": 131.007059615,
      "geocoding_level": 8,
      "phone": "",
      "license_no": "",
      "license_date": "2017-07-11",
      "expire_date": null
    },
    {
      "name": "",
      "name_kana": "",
      "business_type": "飲食店営業",
      "address": "熊本県阿蘇郡南阿蘇村大字河陽字袋ヶ蔵５５６６番１",
      "lat": 32.869851,
      "lng": 131.000524,
      "geocoding_level": 3,
      "phone": "",
      "license_no": "",
      "license_date": "2017-07-20",
      "expire_date": null
    },
    {
      "name": "",
      "name_kana": "",
      "business_type": "飲食店営業",
      "address": "熊本県阿蘇郡南阿蘇村大字河陽字袋ヶ蔵５５６６番１",
      "lat": 32.869851,
      "lng": 131.000524,
      "geocoding_level": 3,
      "phone": "",
      "license_no": "",
      "license_date": "2017-07-20",
      "expire_date": null
    },
    {
      "name": "",
      "name_kana": "",
      "business_type": "飲食店営業",
      "address": "熊本県阿蘇郡南阿蘇村大字河陽字袋ヶ蔵５５６６番１",
      "lat": 32.869851,
      "lng": 131.000524,
      "geocoding_level": 3,
      "phone": "",
      "license_no": "",
      "license_date": "2017-07-20",
      "expire_date": null
    },
    {
      "name": "",
      "name_kana": "",
      "business_type": "乳類販売業",
      "address": "熊本県阿蘇郡南阿蘇村河陽１８８３－１",
      "lat": 32.869851,
      "lng": 131.000524,
      "geocoding_level": 3,
      "phone": "",
      "license_no": "",
      "license_date": "2017-07-26",
      "expire_date": null
    },
    {
      "name": "",
      "name_kana": "",
      "business_type": "飲食店営業",
      "address": "熊本県阿蘇郡南阿蘇村河陽１８８３－１",
      "lat": 32.869851,
      "lng": 131.000524,
      "geocoding_level": 3,
      "phone": "",
      "license_no": "",
      "license_date": "2017-07-26",
      "expire_date": null
    },
    {
      "name": "",
      "name_kana": "",
      "business_type": "菓子製造業",
      "address": "熊本県阿蘇郡南阿蘇村河陽１８８３－１",
      "lat": 32.869851,
      "lng": 131.000524,
      "geocoding_level": 3,
      "phone": "",
      "license_no": "",
      "license_date": "2017-07-26",
      "expire_date": null
    },
    {
      "name": "",
      "name_kana": "",
      "business_type": "喫茶店営業",
      "address": "阿蘇郡南阿蘇村河陽１８８３－１",
      "lat": 32.869851,
      "lng": 131.000524,
      "geocoding_level": 3,
      "phone": "",
      "license_no": "",
      "license_date": "2017-08-10",
      "expire_date": null
    },
    {
      "name": "",
      "name_kana": "",
      "business_type": "飲食店営業",
      "address": "阿蘇郡南阿蘇村中松３８４７－６７",
      "lat": 32.84546709,
      "lng": 131.067283972,
      "geocoding_level": 8,
      "phone": "",
      "license_no": "",
      "license_date": "2017-08-30",
      "expire_date": null
    },
    {
      "name": "",
      "name_kana": "",
      "business_type": "飲食店営業",
      "address": "阿蘇郡南阿蘇村大字河陽５５７９－３",
      "lat": 32.898814315,
      "lng": 131.007059615,
      "geocoding_level": 8,
      "phone": "",
      "license_no": "",
      "license_date": "2017-08-30",
      "expire_date": null
    },
    {
      "name": "",
      "name_kana": "",
      "business_type": "飲食店営業",
      "address": "阿蘇郡南阿蘇村大字河陽袋ケ蔵５５６６－１",
      "lat": 32.869851,
      "lng": 131.000524,
      "geocoding_level": 3,
      "phone": "",
      "license_no": "",
      "license_date": "2017-08-30",
      "expire_date": null
    },
    {
      "name": "",
      "name_kana": "",
      "business_type": "乳類販売業",
      "address": "阿蘇郡南阿蘇村吉田２０４４－２",
      "lat": 32.832450487,
      "lng": 131.078605554,
      "geocoding_level": 8,
      "phone": "",
      "license_no": "",
      "license_date": "2017-08-28",
      "expire_date": null
    },
    {
      "name": "",
      "name_kana": "",
      "business_type": "飲食店営業",
      "address": "阿蘇郡南阿蘇村大字中松２０６５",
      "lat": 32.854116,
      "lng": 131.055208,
      "geocoding_level": 3,
      "phone": "",
      "license_no": "",
      "license_date": "2017-08-28",
      "expire_date": null
    },
    {
      "name": "",
      "name_kana": "",
      "business_type": "飲食店営業",
      "address": "阿蘇郡南阿蘇村中松２０４９－５",
      "lat": 32.84381991400001,
      "lng": 131.044244951,
      "geocoding_level": 8,
      "phone": "",
      "license_no": "",
      "license_date": "2017-08-28",
      "expire_date": null
    },
    {
      "name": "",
      "name_kana": "",
      "business_type": "飲食店営業",
      "address": "阿蘇郡南阿蘇村河陽１８０５－２",
      "lat": 32.869851,
      "lng": 131.000524,
      "geocoding_level": 3,
      "phone": "",
      "license_no": "",
      "license_date": "2017-08-30",
      "expire_date": null
    },
    {
      "name": "",
      "name_kana": "",
      "business_type": "菓子製造業",
      "address": "阿蘇郡南阿蘇村河陽１８０５－２",
      "lat": 32.869851,
      "lng": 131.000524,
      "geocoding_level": 3,
      "phone": "",
      "license_no": "",
      "license_date": "2017-08-30",
      "expire_date": null
    },
    {
      "name": "",
      "name_kana": "",
      "business_type": "飲食店営業",
      "address": "阿蘇郡南阿蘇村一関１９６０－３",
      "lat": 32.835570019,
      "lng": 131.064025057,
      "geocoding_level": 8,
      "phone": "",
      "license_no": "",
      "license_date": "2017-08-30",
      "expire_date": null
    },
    {
      "name": "",
      "name_kana": "",
      "business_type": "飲食店営業",
      "address": "阿蘇郡南阿蘇村久石２００４－１",
      "lat": 32.812506588000005,
      "lng": 131.053568094,
      "geocoding_level": 8,
      "phone": "",
      "license_no": "",
      "license_date": "2017-09-04",
      "expire_date": null
    },
    {
      "name": "",
      "name_kana": "",
      "business_type": "飲食店営業",
      "address": "阿蘇郡南阿蘇村河陽２０６２",
      "lat": 32.869851,
      "lng": 131.000524,
      "geocoding_level": 3,
      "phone": "",
      "license_no": "",
      "license_date": "2017-09-26",
      "expire_date": null
    },
    {
      "name": "",
      "name_kana": "",
      "business_type": "菓子製造業",
      "address": "阿蘇郡南阿蘇村河陰２６６－２",
      "lat": 32.823599494,
      "lng": 131.028971958,
      "geocoding_level": 8,
      "phone": "",
      "license_no": "",
      "license_date": "2017-10-03",
      "expire_date": null
    },
    {
      "name": "",
      "name_kana": "",
      "business_type": "菓子製造業",
      "address": "阿蘇郡南阿蘇村河陰５４６－４",
      "lat": 32.823927996,
      "lng": 131.026497822,
      "geocoding_level": 8,
      "phone": "",
      "license_no": "",
      "license_date": "2017-10-03",
      "expire_date": null
    },
    {
      "name": "",
      "name_kana": "",
      "business_type": "飲食店営業",
      "address": "阿蘇郡南阿蘇村河陰５４６－４",
      "lat": 32.823927996,
      "lng": 131.026497822,
      "geocoding_level": 8,
      "phone": "",
      "license_no": "",
      "license_date": "2017-10-03",
      "expire_date": null
    },
    {
      "name": "",
      "name_kana": "",
      "business_type": "そうざい製造業",
      "address": "阿蘇郡南阿蘇村河陰５４６－４",
      "lat": 32.823927996,
      "lng": 131.026497822,
      "geocoding_level": 8,
      "phone": "",
      "license_no": "",
      "license_date": "2017-10-03",
      "expire_date": null
    },
    {
      "name": "",
      "name_kana": "",
      "business_type": "そうざい製造業",
      "address": "阿蘇郡南阿蘇村一関１２７３－１",
      "lat": 32.836243863,
      "lng": 131.069380668,
      "geocoding_level": 8,
      "phone": "",
      "license_no": "",
      "license_date": "2017-10-30",
      "expire_date": null
    },
    {
      "name": "",
      "name_kana": "",
      "business_type": "菓子製造業",
      "address": "阿蘇郡南阿蘇村立野１５０２番地",
      "lat": 32.879425,
      "lng": 130.973844,
      "geocoding_level": 3,
      "phone": "",
      "license_no": "",
      "license_date": "2017-11-17",
      "expire_date": null
    },
    {
      "name": "",
      "name_kana": "",
      "business_type": "飲食店営業",
      "address": "阿蘇郡南阿蘇村白川２０５１",
      "lat": 32.825728479,
      "lng": 131.096187089,
      "geocoding_level": 8,
      "phone": "",
      "license_no": "",
      "license_date": "2017-11-22",
      "expire_date": null
    },
    {
      "name": "",
      "name_kana": "",
      "business_type": "喫茶店営業",
      "address": "阿蘇郡南阿蘇村河陰５２６２－６６",
      "lat": 32.806746935,
      "lng": 131.026047056,
      "geocoding_level": 8,
      "phone": "",
      "license_no": "",
      "license_date": "2017-11-22",
      "expire_date": null
    },
    {
      "name": "",
      "name_kana": "",
      "business_type": "菓子製造業",
      "address": "阿蘇郡南阿蘇村下野４９７－３",
      "lat": 32.908456598,
      "lng": 130.99489179100001,
      "geocoding_level": 8,
      "phone": "",
      "license_no": "",
      "license_date": "2017-11-22",
      "expire_date": null
    },
    {
      "name": "",
      "name_kana": "",
      "business_type": "飲食店営業",
      "address": "阿蘇郡南阿蘇村吉田東区南町４９の１２",
      "lat": 32.844344,
      "lng": 131.083304,
      "geocoding_level": 3,
      "phone": "",
      "license_no": "",
      "license_date": "2017-11-29",
      "expire_date": null
    },
    {
      "name": "",
      "name_kana": "",
      "business_type": "飲食店営業",
      "address": "阿蘇郡南阿蘇村白川１８００－１",
      "lat": 32.836305554,
      "lng": 131.103819543,
      "geocoding_level": 8,
      "phone": "",
      "license_no": "",
      "license_date": "2017-11-29",
      "expire_date": null
    },
    {
      "name": "",
      "name_kana": "",
      "business_type": "缶詰又は瓶詰食品製造業",
      "address": "阿蘇郡南阿蘇村河陽５５４２－１",
      "lat": 32.892872779,
      "lng": 131.004850085,
      "geocoding_level": 8,
      "phone": "",
      "license_no": "",
      "license_date": "2017-11-29",
      "expire_date": null
    },
    {
      "name": "",
      "name_kana": "",
      "business_type": "飲食店営業",
      "address": "阿蘇郡南阿蘇村長野１８番地２",
      "lat": 32.862456,
      "lng": 131.013667,
      "geocoding_level": 3,
      "phone": "",
      "license_no": "",
      "license_date": "2017-11-29",
      "expire_date": null
    },
    {
      "name": "",
      "name_kana": "",
      "business_type": "飲食店営業",
      "address": "阿蘇郡南阿蘇村大字久石２８３９番地３",
      "lat": 32.819085753,
      "lng": 131.039317795,
      "geocoding_level": 8,
      "phone": "",
      "license_no": "",
      "license_date": "2017-11-29",
      "expire_date": null
    },
    {
      "name": "",
      "name_kana": "",
      "business_type": "飲食店営業",
      "address": "阿蘇郡南阿蘇村河陰５２６２－３５",
      "lat": 32.80944776100001,
      "lng": 131.027199841,
      "geocoding_level": 8,
      "phone": "",
      "license_no": "",
      "license_date": "2017-11-30",
      "expire_date": null
    },
    {
      "name": "",
      "name_kana": "",
      "business_type": "飲食店営業",
      "address": "熊本県阿蘇郡南阿蘇村河陰5262-63",
      "lat": 32.80681285,
      "lng": 131.027087093,
      "geocoding_level": 8,
      "phone": "",
      "license_no": "",
      "license_date": "2017-11-30",
      "expire_date": null
    },
    {
      "name": "",
      "name_kana": "",
      "business_type": "飲食店営業",
      "address": "阿蘇郡南阿蘇村下野７５４－３",
      "lat": 32.903225,
      "lng": 131.003295,
      "geocoding_level": 3,
      "phone": "",
      "license_no": "",
      "license_date": "2017-11-30",
      "expire_date": null
    },
    {
      "name": "",
      "name_kana": "",
      "business_type": "そうざい製造業",
      "address": "阿蘇郡南阿蘇村久石４６０－１",
      "lat": 32.814286942,
      "lng": 131.077025203,
      "geocoding_level": 8,
      "phone": "",
      "license_no": "",
      "license_date": "2017-12-07",
      "expire_date": null
    },
    {
      "name": "",
      "name_kana": "",
      "business_type": "食品製造業",
      "address": "阿蘇郡南阿蘇村久石４６０－１",
      "lat": 32.814286942,
      "lng": 131.077025203,
      "geocoding_level": 8,
      "phone": "",
      "license_no": "",
      "license_date": "2017-12-07",
      "expire_date": null
    },
    {
      "name": "",
      "name_kana": "",
      "business_type": "飲食店営業",
      "address": "阿蘇郡南阿蘇村一関１８８１－２",
      "lat": 32.83643361,
      "lng": 131.062706324,
      "geocoding_level": 8,
      "phone": "",
      "license_no": "",
      "license_date": "2017-11-30",
      "expire_date": null
    },
    {
      "name": "",
      "name_kana": "",
      "business_type": "乳類販売業",
      "address": "阿蘇郡南阿蘇村立野８３５－２",
      "lat": 32.879425,
      "lng": 130.973844,
      "geocoding_level": 3,
      "phone": "",
      "license_no": "",
      "license_date": "2018-01-10",
      "expire_date": null
    },
    {
      "name": "",
      "name_kana": "",
      "business_type": "食品販売業",
      "address": "阿蘇郡南阿蘇村立野８３５－２",
      "lat": 32.879425,
      "lng": 130.973844,
      "geocoding_level": 3,
      "phone": "",
      "license_no": "",
      "license_date": "2018-01-10",
      "expire_date": null
    },
    {
      "name": "",
      "name_kana": "",
      "business_type": "飲食店営業",
      "address": "阿蘇郡南阿蘇村立野８３５－２",
      "lat": 32.879425,
      "lng": 130.973844,
      "geocoding_level": 3,
      "phone": "",
      "license_no": "",
      "license_date": "2018-01-10",
      "expire_date": null
    },
    {
      "name": "",
      "name_kana": "",
      "business_type": "飲食店営業",
      "address": "阿蘇郡南阿蘇村河陽５６０１－１６",
      "lat": 32.896756662,
      "lng": 131.009958101,
      "geocoding_level": 8,
      "phone": "",
      "license_no": "",
      "license_date": "2018-02-02",
      "expire_date": null
    },
    {
      "name": "",
      "name_kana": "",
      "business_type": "食品販売業",
      "address": "阿蘇郡南阿蘇村白川２０４０番地",
      "lat": 32.825339002,
      "lng": 131.095140462,
      "geocoding_level": 8,
      "phone": "",
      "license_no": "",
      "license_date": "2018-02-07",
      "expire_date": null
    },
    {
      "name": "",
      "name_kana": "",
      "business_type": "飲食店営業",
      "address": "阿蘇郡南阿蘇村中松３６０１－１",
      "lat": 32.836856402,
      "lng": 131.056173183,
      "geocoding_level": 8,
      "phone": "",
      "license_no": "",
      "license_date": "2018-02-23",
      "expire_date": null
    },
    {
      "name": "",
      "name_kana": "",
      "business_type": "飲食店営業",
      "address": "阿蘇郡南阿蘇村大字白川宮の前２１０１の４",
      "lat": 32.847474,
      "lng": 131.097793,
      "geocoding_level": 3,
      "phone": "",
      "license_no": "",
      "license_date": "2018-02-23",
      "expire_date": null
    },
    {
      "name": "",
      "name_kana": "",
      "business_type": "飲食店営業",
      "address": "阿蘇郡南阿蘇村中松４０２５－１",
      "lat": 32.832301187,
      "lng": 131.05569947700002,
      "geocoding_level": 8,
      "phone": "",
      "license_no": "",
      "license_date": "2018-02-23",
      "expire_date": null
    },
    {
      "name": "",
      "name_kana": "",
      "business_type": "菓子製造業",
      "address": "阿蘇郡南阿蘇村大字白川４２３",
      "lat": 32.847474,
      "lng": 131.097793,
      "geocoding_level": 3,
      "phone": "",
      "license_no": "",
      "license_date": "2018-02-27",
      "expire_date": null
    },
    {
      "name": "",
      "name_kana": "",
      "business_type": "食品販売業",
      "address": "阿蘇郡南阿蘇村中松３８９８－１",
      "lat": 32.837309564,
      "lng": 131.059487516,
      "geocoding_level": 8,
      "phone": "",
      "license_no": "",
      "license_date": "2018-02-26",
      "expire_date": null
    },
    {
      "name": "",
      "name_kana": "",
      "business_type": "食品販売業",
      "address": "阿蘇郡南阿蘇村両併３４９",
      "lat": 32.81714357,
      "lng": 131.089950678,
      "geocoding_level": 8,
      "phone": "",
      "license_no": "",
      "license_date": "2018-02-26",
      "expire_date": null
    },
    {
      "name": "",
      "name_kana": "",
      "business_type": "食品販売業",
      "address": "阿蘇郡南阿蘇村大字一関１３０２－１",
      "lat": 32.833515102,
      "lng": 131.069924507,
      "geocoding_level": 8,
      "phone": "",
      "license_no": "",
      "license_date": "2018-02-26",
      "expire_date": null
    },
    {
      "name": "",
      "name_kana": "",
      "business_type": "食肉販売業",
      "address": "阿蘇郡南阿蘇村久石２５５２",
      "lat": 32.805134,
      "lng": 131.059873,
      "geocoding_level": 3,
      "phone": "",
      "license_no": "",
      "license_date": "2018-02-28",
      "expire_date": null
    },
    {
      "name": "",
      "name_kana": "",
      "business_type": "飲食店営業",
      "address": "阿蘇郡南阿蘇村中松３００番地１２",
      "lat": 32.827379916,
      "lng": 131.054809187,
      "geocoding_level": 8,
      "phone": "",
      "license_no": "",
      "license_date": "2018-02-28",
      "expire_date": null
    },
    {
      "name": "",
      "name_kana": "",
      "business_type": "菓子製造業",
      "address": "阿蘇郡南阿蘇村久石２８０７",
      "lat": 32.805134,
      "lng": 131.059873,
      "geocoding_level": 3,
      "phone": "",
      "license_no": "",
      "license_date": "2018-03-06",
      "expire_date": null
    },
    {
      "name": "",
      "name_kana": "",
      "business_type": "飲食店営業",
      "address": "阿蘇郡南阿蘇村河陽５９９６－２",
      "lat": 32.891830778,
      "lng": 131.027751698,
      "geocoding_level": 8,
      "phone": "",
      "license_no": "",
      "license_date": "2018-03-06",
      "expire_date": null
    },
    {
      "name": "",
      "name_kana": "",
      "business_type": "飲食店営業",
      "address": "阿蘇郡南阿蘇村河陰字午王谷５２９８－１",
      "lat": 32.834165,
      "lng": 131.000898,
      "geocoding_level": 3,
      "phone": "",
      "license_no": "",
      "license_date": "2018-02-28",
      "expire_date": null
    },
    {
      "name": "",
      "name_kana": "",
      "business_type": "そうざい製造業",
      "address": "阿蘇郡南阿蘇村河陽５５８０－１３",
      "lat": 32.897891063,
      "lng": 131.008703694,
      "geocoding_level": 8,
      "phone": "",
      "license_no": "",
      "license_date": "2018-03-22",
      "expire_date": null
    },
    {
      "name": "",
      "name_kana": "",
      "business_type": "食品の冷凍又は冷蔵業",
      "address": "阿蘇郡南阿蘇村河陽５５８０－１３",
      "lat": 32.897891063,
      "lng": 131.008703694,
      "geocoding_level": 8,
      "phone": "",
      "license_no": "",
      "license_date": "2018-03-22",
      "expire_date": null
    },
    {
      "name": "",
      "name_kana": "",
      "business_type": "飲食店営業",
      "address": "阿蘇郡南阿蘇村久石４４１１－９",
      "lat": 32.801942954,
      "lng": 131.037585545,
      "geocoding_level": 8,
      "phone": "",
      "license_no": "",
      "license_date": "2018-03-22",
      "expire_date": null
    },
    {
      "name": "",
      "name_kana": "",
      "business_type": "飲食店営業",
      "address": "阿蘇郡南阿蘇村久石２６７７－５",
      "lat": 32.82143365,
      "lng": 131.035316917,
      "geocoding_level": 8,
      "phone": "",
      "license_no": "",
      "license_date": "2018-04-24",
      "expire_date": null
    },
    {
      "name": "",
      "name_kana": "",
      "business_type": "食肉販売業",
      "address": "阿蘇郡南阿蘇村大字久石２８１５",
      "lat": 32.819219169,
      "lng": 131.040494286,
      "geocoding_level": 8,
      "phone": "",
      "license_no": "",
      "license_date": "2017-03-31",
      "expire_date": null
    },
    {
      "name": "",
      "name_kana": "",
      "business_type": "そうざい製造業",
      "address": "阿蘇郡南阿蘇村中松３００番地１２",
      "lat": 32.827379916,
      "lng": 131.054809187,
      "geocoding_level": 8,
      "phone": "",
      "license_no": "",
      "license_date": "2018-05-16",
      "expire_date": null
    },
    {
      "name": "",
      "name_kana": "",
      "business_type": "乳類販売業",
      "address": "阿蘇郡南阿蘇村下野１３５－１",
      "lat": 32.904358405,
      "lng": 130.990094068,
      "geocoding_level": 8,
      "phone": "",
      "license_no": "",
      "license_date": "2018-05-23",
      "expire_date": null
    },
    {
      "name": "",
      "name_kana": "",
      "business_type": "飲食店営業",
      "address": "阿蘇郡南阿蘇村大字久石２８１５",
      "lat": 32.819219169,
      "lng": 131.040494286,
      "geocoding_level": 8,
      "phone": "",
      "license_no": "",
      "license_date": "2018-05-25",
      "expire_date": null
    },
    {
      "name": "",
      "name_kana": "",
      "business_type": "そうざい製造業",
      "address": "阿蘇郡南阿蘇村下野４９７－３",
      "lat": 32.908456598,
      "lng": 130.99489179100001,
      "geocoding_level": 8,
      "phone": "",
      "license_no": "",
      "license_date": "2018-05-28",
      "expire_date": null
    },
    {
      "name": "",
      "name_kana": "",
      "business_type": "清涼飲料水製造業",
      "address": "阿蘇郡南阿蘇村河陰３００７番地",
      "lat": 32.849949002,
      "lng": 130.998483483,
      "geocoding_level": 8,
      "phone": "",
      "license_no": "",
      "license_date": "2018-05-28",
      "expire_date": null
    },
    {
      "name": "",
      "name_kana": "",
      "business_type": "飲食店営業",
      "address": "阿蘇郡南阿蘇村両併２４０８－５",
      "lat": 32.825188568,
      "lng": 131.113324348,
      "geocoding_level": 8,
      "phone": "",
      "license_no": "",
      "license_date": "2018-05-31",
      "expire_date": null
    },
    {
      "name": "",
      "name_kana": "",
      "business_type": "喫茶店営業",
      "address": "阿蘇郡南阿蘇村白川２０９６－１",
      "lat": 32.823703752,
      "lng": 131.093917188,
      "geocoding_level": 8,
      "phone": "",
      "license_no": "",
      "license_date": "2018-05-31",
      "expire_date": null
    },
    {
      "name": "",
      "name_kana": "",
      "business_type": "アイスクリーム類製造業",
      "address": "阿蘇郡南阿蘇村白川１８１０",
      "lat": 32.847474,
      "lng": 131.097793,
      "geocoding_level": 3,
      "phone": "",
      "license_no": "",
      "license_date": "2018-05-31",
      "expire_date": null
    },
    {
      "name": "",
      "name_kana": "",
      "business_type": "食品製造業",
      "address": "阿蘇郡南阿蘇村一関４３８",
      "lat": 32.848353,
      "lng": 131.075079,
      "geocoding_level": 3,
      "phone": "",
      "license_no": "",
      "license_date": "2018-05-31",
      "expire_date": null
    },
    {
      "name": "",
      "name_kana": "",
      "business_type": "食品販売業",
      "address": "阿蘇郡南阿蘇村立野字吉村１５７１－１",
      "lat": 32.879425,
      "lng": 130.973844,
      "geocoding_level": 3,
      "phone": "",
      "license_no": "",
      "license_date": "2018-05-31",
      "expire_date": null
    },
    {
      "name": "",
      "name_kana": "",
      "business_type": "飲食店営業",
      "address": "阿蘇郡南阿蘇村両併２３８５番地",
      "lat": 32.825665069,
      "lng": 131.110523523,
      "geocoding_level": 8,
      "phone": "",
      "license_no": "",
      "license_date": "2018-06-15",
      "expire_date": null
    },
    {
      "name": "",
      "name_kana": "",
      "business_type": "飲食店営業",
      "address": "阿蘇郡南阿蘇村河陽１８９５番地１",
      "lat": 32.846835264,
      "lng": 131.013055238,
      "geocoding_level": 8,
      "phone": "",
      "license_no": "",
      "license_date": "2018-05-31",
      "expire_date": null
    },
    {
      "name": "",
      "name_kana": "",
      "business_type": "飲食店営業",
      "address": "阿蘇郡南阿蘇村大字河陽５５８０－１",
      "lat": 32.89660378,
      "lng": 131.007725048,
      "geocoding_level": 8,
      "phone": "",
      "license_no": "",
      "license_date": "2018-06-22",
      "expire_date": null
    },
    {
      "name": "",
      "name_kana": "",
      "business_type": "食品販売業",
      "address": "阿蘇郡南阿蘇村大字河陽５５８０－１",
      "lat": 32.89660378,
      "lng": 131.007725048,
      "geocoding_level": 8,
      "phone": "",
      "license_no": "",
      "license_date": "2018-06-22",
      "expire_date": null
    },
    {
      "name": "",
      "name_kana": "",
      "business_type": "飲食店営業",
      "address": "阿蘇郡南阿蘇村河陽５５７９番地３",
      "lat": 32.898814315,
      "lng": 131.007059615,
      "geocoding_level": 8,
      "phone": "",
      "license_no": "",
      "license_date": "2018-07-27",
      "expire_date": null
    },
    {
      "name": "",
      "name_kana": "",
      "business_type": "飲食店営業",
      "address": "阿蘇郡南阿蘇村大字一関字徳力１４７１－２",
      "lat": 32.848353,
      "lng": 131.075079,
      "geocoding_level": 3,
      "phone": "",
      "license_no": "",
      "license_date": "2018-08-03",
      "expire_date": null
    },
    {
      "name": "",
      "name_kana": "",
      "business_type": "菓子製造業",
      "address": "阿蘇郡南阿蘇村河陽３４４０－４",
      "lat": 32.854297409,
      "lng": 131.004186377,
      "geocoding_level": 8,
      "phone": "",
      "license_no": "",
      "license_date": "2018-08-16",
      "expire_date": null
    },
    {
      "name": "",
      "name_kana": "",
      "business_type": "飲食店営業",
      "address": "阿蘇郡南阿蘇村一関字松山１８７３",
      "lat": 32.848353,
      "lng": 131.075079,
      "geocoding_level": 3,
      "phone": "",
      "license_no": "",
      "license_date": "2018-08-16",
      "expire_date": null
    },
    {
      "name": "",
      "name_kana": "",
      "business_type": "飲食店営業",
      "address": "阿蘇郡南阿蘇村河陽３７４７－２",
      "lat": 32.85960326,
      "lng": 131.004772537,
      "geocoding_level": 8,
      "phone": "",
      "license_no": "",
      "license_date": "2018-08-16",
      "expire_date": null
    },
    {
      "name": "",
      "name_kana": "",
      "business_type": "飲食店営業",
      "address": "阿蘇郡南阿蘇村河陽３４４０－４",
      "lat": 32.854297409,
      "lng": 131.004186377,
      "geocoding_level": 8,
      "phone": "",
      "license_no": "",
      "license_date": "2018-08-16",
      "expire_date": null
    },
    {
      "name": "",
      "name_kana": "",
      "business_type": "飲食店営業",
      "address": "阿蘇郡南阿蘇村大字白川２２４－５",
      "lat": 32.822403645,
      "lng": 131.091581902,
      "geocoding_level": 8,
      "phone": "",
      "license_no": "",
      "license_date": "2018-08-29",
      "expire_date": null
    },
    {
      "name": "",
      "name_kana": "",
      "business_type": "飲食店営業",
      "address": "阿蘇郡南阿蘇村中松字中車鶴３９１８－１",
      "lat": 32.854116,
      "lng": 131.055208,
      "geocoding_level": 3,
      "phone": "",
      "license_no": "",
      "license_date": "2018-08-29",
      "expire_date": null
    },
    {
      "name": "",
      "name_kana": "",
      "business_type": "飲食店営業",
      "address": "阿蘇郡南阿蘇村一関１２４７",
      "lat": 32.848353,
      "lng": 131.075079,
      "geocoding_level": 3,
      "phone": "",
      "license_no": "",
      "license_date": "2018-08-29",
      "expire_date": null
    },
    {
      "name": "",
      "name_kana": "",
      "business_type": "菓子製造業",
      "address": "阿蘇郡南阿蘇村河陰３５３２－５",
      "lat": 32.840915061,
      "lng": 130.996565535,
      "geocoding_level": 8,
      "phone": "",
      "license_no": "",
      "license_date": "2018-08-31",
      "expire_date": null
    },
    {
      "name": "",
      "name_kana": "",
      "business_type": "飲食店営業",
      "address": "阿蘇郡南阿蘇村大字中松字上車鶴３８９０－４",
      "lat": 32.854116,
      "lng": 131.055208,
      "geocoding_level": 3,
      "phone": "",
      "license_no": "",
      "license_date": "2018-08-31",
      "expire_date": null
    },
    {
      "name": "",
      "name_kana": "",
      "business_type": "食品販売業",
      "address": "阿蘇郡南阿蘇村大字河陽４５３０",
      "lat": 32.869851,
      "lng": 131.000524,
      "geocoding_level": 3,
      "phone": "",
      "license_no": "",
      "license_date": "2018-08-31",
      "expire_date": null
    },
    {
      "name": "",
      "name_kana": "",
      "business_type": "食肉販売業",
      "address": "阿蘇郡南阿蘇村河陰３３６８番地",
      "lat": 32.844708114,
      "lng": 130.998996542,
      "geocoding_level": 8,
      "phone": "",
      "license_no": "",
      "license_date": "2018-09-28",
      "expire_date": null
    },
    {
      "name": "",
      "name_kana": "",
      "business_type": "飲食店営業",
      "address": "阿蘇郡南阿蘇村久石３６６５－１２",
      "lat": 32.813735359,
      "lng": 131.038094683,
      "geocoding_level": 8,
      "phone": "",
      "license_no": "",
      "license_date": "2018-09-28",
      "expire_date": null
    },
    {
      "name": "",
      "name_kana": "",
      "business_type": "食品販売業",
      "address": "阿蘇郡南阿蘇村河陰３３６８番地",
      "lat": 32.844708114,
      "lng": 130.998996542,
      "geocoding_level": 8,
      "phone": "",
      "license_no": "",
      "license_date": "2018-09-28",
      "expire_date": null
    },
    {
      "name": "",
      "name_kana": "",
      "business_type": "飲食店営業",
      "address": "阿蘇郡南阿蘇村下野字山田１４７－２５",
      "lat": 32.903225,
      "lng": 131.003295,
      "geocoding_level": 3,
      "phone": "",
      "license_no": "",
      "license_date": "2018-10-22",
      "expire_date": null
    },
    {
      "name": "",
      "name_kana": "",
      "business_type": "食肉販売業",
      "address": "阿蘇郡南阿蘇村下野字山田１４７－２５",
      "lat": 32.903225,
      "lng": 131.003295,
      "geocoding_level": 3,
      "phone": "",
      "license_no": "",
      "license_date": "2018-10-22",
      "expire_date": null
    },
    {
      "name": "",
      "name_kana": "",
      "business_type": "乳類販売業",
      "address": "阿蘇郡南阿蘇村下野字山田１４７－２５",
      "lat": 32.903225,
      "lng": 131.003295,
      "geocoding_level": 3,
      "phone": "",
      "license_no": "",
      "license_date": "2018-10-22",
      "expire_date": null
    },
    {
      "name": "",
      "name_kana": "",
      "business_type": "魚介類販売業",
      "address": "阿蘇郡南阿蘇村下野字山田１４７－２５",
      "lat": 32.903225,
      "lng": 131.003295,
      "geocoding_level": 3,
      "phone": "",
      "license_no": "",
      "license_date": "2018-10-22",
      "expire_date": null
    },
    {
      "name": "",
      "name_kana": "",
      "business_type": "食品販売業",
      "address": "阿蘇郡南阿蘇村下野字山田１４７－２５",
      "lat": 32.903225,
      "lng": 131.003295,
      "geocoding_level": 3,
      "phone": "",
      "license_no": "",
      "license_date": "2018-10-22",
      "expire_date": null
    },
    {
      "name": "",
      "name_kana": "",
      "business_type": "そうざい製造業",
      "address": "阿蘇郡南阿蘇村中松３４２",
      "lat": 32.82850678,
      "lng": 131.052221189,
      "geocoding_level": 8,
      "phone": "",
      "license_no": "",
      "license_date": "2018-10-23",
      "expire_date": null
    },
    {
      "name": "",
      "name_kana": "",
      "business_type": "食品製造業",
      "address": "阿蘇郡南阿蘇村中松３４２",
      "lat": 32.82850678,
      "lng": 131.052221189,
      "geocoding_level": 8,
      "phone": "",
      "license_no": "",
      "license_date": "2018-10-23",
      "expire_date": null
    },
    {
      "name": "",
      "name_kana": "",
      "business_type": "飲食店営業",
      "address": "阿蘇郡南阿蘇村立野８０９",
      "lat": 32.879425,
      "lng": 130.973844,
      "geocoding_level": 3,
      "phone": "",
      "license_no": "",
      "license_date": "2018-11-19",
      "expire_date": null
    },
    {
      "name": "",
      "name_kana": "",
      "business_type": "飲食店営業",
      "address": "阿蘇郡南阿蘇村河陰１３５０－６",
      "lat": 32.834814228,
      "lng": 131.025332204,
      "geocoding_level": 8,
      "phone": "",
      "license_no": "",
      "license_date": "2018-11-22",
      "expire_date": null
    },
    {
      "name": "",
      "name_kana": "",
      "business_type": "飲食店営業",
      "address": "阿蘇郡南阿蘇村久石２８４８－１",
      "lat": 32.81945540000001,
      "lng": 131.039712933,
      "geocoding_level": 8,
      "phone": "",
      "license_no": "",
      "license_date": "2018-11-22",
      "expire_date": null
    },
    {
      "name": "",
      "name_kana": "",
      "business_type": "飲食店営業",
      "address": "阿蘇郡南阿蘇村河陰３６１７－７",
      "lat": 32.842682458,
      "lng": 131.002081838,
      "geocoding_level": 8,
      "phone": "",
      "license_no": "",
      "license_date": "2018-11-22",
      "expire_date": null
    },
    {
      "name": "",
      "name_kana": "",
      "business_type": "菓子製造業",
      "address": "阿蘇郡南阿蘇村河陰３５３２－２０",
      "lat": 32.841657551,
      "lng": 130.997246065,
      "geocoding_level": 8,
      "phone": "",
      "license_no": "",
      "license_date": "2018-11-22",
      "expire_date": null
    },
    {
      "name": "",
      "name_kana": "",
      "business_type": "菓子製造業",
      "address": "阿蘇郡南阿蘇村河陰３７１７－１",
      "lat": 32.838683236,
      "lng": 131.001330399,
      "geocoding_level": 8,
      "phone": "",
      "license_no": "",
      "license_date": "2018-11-22",
      "expire_date": null
    },
    {
      "name": "",
      "name_kana": "",
      "business_type": "菓子製造業",
      "address": "阿蘇郡南阿蘇村河陰４３４－１",
      "lat": 32.822036652,
      "lng": 131.019313473,
      "geocoding_level": 8,
      "phone": "",
      "license_no": "",
      "license_date": "2018-11-22",
      "expire_date": null
    },
    {
      "name": "",
      "name_kana": "",
      "business_type": "食品販売業",
      "address": "阿蘇郡南阿蘇村久石２２６０－３",
      "lat": 32.820683932,
      "lng": 131.048905907,
      "geocoding_level": 8,
      "phone": "",
      "license_no": "",
      "license_date": "2018-11-22",
      "expire_date": null
    },
    {
      "name": "",
      "name_kana": "",
      "business_type": "そうざい製造業",
      "address": "阿蘇郡南阿蘇村河陰３７１７－１",
      "lat": 32.838683236,
      "lng": 131.001330399,
      "geocoding_level": 8,
      "phone": "",
      "license_no": "",
      "license_date": "2018-11-22",
      "expire_date": null
    },
    {
      "name": "",
      "name_kana": "",
      "business_type": "魚介類販売業",
      "address": "阿蘇郡南阿蘇村大字河陽３９８１番１",
      "lat": 32.864406912,
      "lng": 131.00015541,
      "geocoding_level": 8,
      "phone": "",
      "license_no": "",
      "license_date": "2018-11-22",
      "expire_date": null
    },
    {
      "name": "",
      "name_kana": "",
      "business_type": "食肉販売業",
      "address": "阿蘇郡南阿蘇村大字河陽３９８１番１",
      "lat": 32.864406912,
      "lng": 131.00015541,
      "geocoding_level": 8,
      "phone": "",
      "license_no": "",
      "license_date": "2018-11-22",
      "expire_date": null
    },
    {
      "name": "",
      "name_kana": "",
      "business_type": "乳類販売業",
      "address": "阿蘇郡南阿蘇村大字河陽３９８１番１",
      "lat": 32.864406912,
      "lng": 131.00015541,
      "geocoding_level": 8,
      "phone": "",
      "license_no": "",
      "license_date": "2018-11-22",
      "expire_date": null
    },
    {
      "name": "",
      "name_kana": "",
      "business_type": "食品販売業",
      "address": "阿蘇郡南阿蘇村河陽５１５４",
      "lat": 32.884005701,
      "lng": 130.99532947,
      "geocoding_level": 8,
      "phone": "",
      "license_no": "",
      "license_date": "2018-11-26",
      "expire_date": null
    },
    {
      "name": "",
      "name_kana": "",
      "business_type": "飲食店営業",
      "address": "阿蘇郡南阿蘇村河陽５１５４",
      "lat": 32.884005701,
      "lng": 130.99532947,
      "geocoding_level": 8,
      "phone": "",
      "license_no": "",
      "license_date": "2018-03-28",
      "expire_date": null
    },
    {
      "name": "",
      "name_kana": "",
      "business_type": "飲食店営業",
      "address": "阿蘇郡南阿蘇村大字白川２０９６－１",
      "lat": 32.823703752,
      "lng": 131.093917188,
      "geocoding_level": 8,
      "phone": "",
      "license_no": "",
      "license_date": "2018-11-30",
      "expire_date": null
    },
    {
      "name": "",
      "name_kana": "",
      "business_type": "飲食店営業",
      "address": "阿蘇郡南阿蘇村吉田１４６１－１",
      "lat": 32.824056371,
      "lng": 131.081490533,
      "geocoding_level": 8,
      "phone": "",
      "license_no": "",
      "license_date": "2018-11-30",
      "expire_date": null
    },
    {
      "name": "",
      "name_kana": "",
      "business_type": "飲食店営業",
      "address": "阿蘇郡南阿蘇村中松２７０２",
      "lat": 32.854116,
      "lng": 131.055208,
      "geocoding_level": 3,
      "phone": "",
      "license_no": "",
      "license_date": "2018-11-30",
      "expire_date": null
    },
    {
      "name": "",
      "name_kana": "",
      "business_type": "飲食店営業",
      "address": "阿蘇郡南阿蘇村吉田１３９４",
      "lat": 32.844344,
      "lng": 131.083304,
      "geocoding_level": 3,
      "phone": "",
      "license_no": "",
      "license_date": "2018-11-30",
      "expire_date": null
    },
    {
      "name": "",
      "name_kana": "",
      "business_type": "菓子製造業",
      "address": "阿蘇郡南阿蘇村河陰１３５０－６",
      "lat": 32.834814228,
      "lng": 131.025332204,
      "geocoding_level": 8,
      "phone": "",
      "license_no": "",
      "license_date": "2018-12-03",
      "expire_date": null
    },
    {
      "name": "",
      "name_kana": "",
      "business_type": "飲食店営業",
      "address": "阿蘇郡南阿蘇村河陽４４１０－１２",
      "lat": 32.870952212,
      "lng": 130.999356986,
      "geocoding_level": 8,
      "phone": "",
      "license_no": "",
      "license_date": "2019-01-29",
      "expire_date": null
    },
    {
      "name": "",
      "name_kana": "",
      "business_type": "醤油製造業",
      "address": "阿蘇郡南阿蘇村一関４３５－１",
      "lat": 32.826420306,
      "lng": 131.057967898,
      "geocoding_level": 8,
      "phone": "",
      "license_no": "",
      "license_date": "2019-02-04",
      "expire_date": null
    },
    {
      "name": "",
      "name_kana": "",
      "business_type": "みそ製造業",
      "address": "阿蘇郡南阿蘇村一関４３５－１",
      "lat": 32.826420306,
      "lng": 131.057967898,
      "geocoding_level": 8,
      "phone": "",
      "license_no": "",
      "license_date": "2019-02-04",
      "expire_date": null
    },
    {
      "name": "",
      "name_kana": "",
      "business_type": "そうざい製造業",
      "address": "阿蘇郡南阿蘇村一関４３５－１",
      "lat": 32.826420306,
      "lng": 131.057967898,
      "geocoding_level": 8,
      "phone": "",
      "license_no": "",
      "license_date": "2019-02-04",
      "expire_date": null
    },
    {
      "name": "",
      "name_kana": "",
      "business_type": "飲食店営業",
      "address": "阿蘇郡南阿蘇村河陰字室町１３５０－８",
      "lat": 32.834165,
      "lng": 131.000898,
      "geocoding_level": 3,
      "phone": "",
      "license_no": "",
      "license_date": "2019-02-12",
      "expire_date": null
    },
    {
      "name": "",
      "name_kana": "",
      "business_type": "魚介類販売業",
      "address": "阿蘇郡南阿蘇村中松３８９８－１",
      "lat": 32.837309564,
      "lng": 131.059487516,
      "geocoding_level": 8,
      "phone": "",
      "license_no": "",
      "license_date": "2019-02-18",
      "expire_date": null
    },
    {
      "name": "",
      "name_kana": "",
      "business_type": "食肉販売業",
      "address": "阿蘇郡南阿蘇村中松３８９８－１",
      "lat": 32.837309564,
      "lng": 131.059487516,
      "geocoding_level": 8,
      "phone": "",
      "license_no": "",
      "license_date": "2019-02-18",
      "expire_date": null
    },
    {
      "name": "",
      "name_kana": "",
      "business_type": "乳類販売業",
      "address": "阿蘇郡南阿蘇村中松３８９８－１",
      "lat": 32.837309564,
      "lng": 131.059487516,
      "geocoding_level": 8,
      "phone": "",
      "license_no": "",
      "license_date": "2019-02-19",
      "expire_date": null
    },
    {
      "name": "",
      "name_kana": "",
      "business_type": "飲食店営業",
      "address": "阿蘇郡南阿蘇村河陰字岩神３６１３－８",
      "lat": 32.834165,
      "lng": 131.000898,
      "geocoding_level": 3,
      "phone": "",
      "license_no": "",
      "license_date": "2019-02-19",
      "expire_date": null
    },
    {
      "name": "",
      "name_kana": "",
      "business_type": "食品製造業",
      "address": "阿蘇郡南阿蘇村河陰３８２７",
      "lat": 32.839649448,
      "lng": 131.006017999,
      "geocoding_level": 8,
      "phone": "",
      "license_no": "",
      "license_date": "2019-02-15",
      "expire_date": null
    },
    {
      "name": "",
      "name_kana": "",
      "business_type": "飲食店営業",
      "address": "阿蘇郡南阿蘇村大字河陰４６０７－１",
      "lat": 32.830582878,
      "lng": 131.013323443,
      "geocoding_level": 8,
      "phone": "",
      "license_no": "",
      "license_date": "2019-02-19",
      "expire_date": null
    },
    {
      "name": "",
      "name_kana": "",
      "business_type": "飲食店営業",
      "address": "阿蘇郡南阿蘇村河陰４４２４",
      "lat": 32.834165,
      "lng": 131.000898,
      "geocoding_level": 3,
      "phone": "",
      "license_no": "",
      "license_date": "2019-02-19",
      "expire_date": null
    },
    {
      "name": "",
      "name_kana": "",
      "business_type": "喫茶店営業",
      "address": "阿蘇郡南阿蘇村下野１３５－１",
      "lat": 32.904358405,
      "lng": 130.990094068,
      "geocoding_level": 8,
      "phone": "",
      "license_no": "",
      "license_date": "2017-01-31",
      "expire_date": null
    },
    {
      "name": "",
      "name_kana": "",
      "business_type": "飲食店営業",
      "address": "阿蘇郡南阿蘇村河陽５１５８－１",
      "lat": 32.884195917,
      "lng": 130.995884747,
      "geocoding_level": 8,
      "phone": "",
      "license_no": "",
      "license_date": "2019-02-19",
      "expire_date": null
    },
    {
      "name": "",
      "name_kana": "",
      "business_type": "菓子製造業",
      "address": "阿蘇郡南阿蘇村一関１９５７－１",
      "lat": 32.835856668,
      "lng": 131.064669127,
      "geocoding_level": 8,
      "phone": "",
      "license_no": "",
      "license_date": "2019-02-19",
      "expire_date": null
    },
    {
      "name": "",
      "name_kana": "",
      "business_type": "食品製造業",
      "address": "阿蘇郡南阿蘇村一関２２９８",
      "lat": 32.848353,
      "lng": 131.075079,
      "geocoding_level": 3,
      "phone": "",
      "license_no": "",
      "license_date": "2019-02-19",
      "expire_date": null
    },
    {
      "name": "",
      "name_kana": "",
      "business_type": "飲食店営業",
      "address": "阿蘇郡南阿蘇村大字中松２８５３－１",
      "lat": 32.832858322,
      "lng": 131.043520107,
      "geocoding_level": 8,
      "phone": "",
      "license_no": "",
      "license_date": "2019-02-19",
      "expire_date": null
    },
    {
      "name": "",
      "name_kana": "",
      "business_type": "食肉販売業",
      "address": "阿蘇郡南阿蘇村大字中松２８５３－１",
      "lat": 32.832858322,
      "lng": 131.043520107,
      "geocoding_level": 8,
      "phone": "",
      "license_no": "",
      "license_date": "2019-02-19",
      "expire_date": null
    },
    {
      "name": "",
      "name_kana": "",
      "business_type": "魚介類販売業",
      "address": "阿蘇郡南阿蘇村大字中松２８５３－１",
      "lat": 32.832858322,
      "lng": 131.043520107,
      "geocoding_level": 8,
      "phone": "",
      "license_no": "",
      "license_date": "2019-02-19",
      "expire_date": null
    },
    {
      "name": "",
      "name_kana": "",
      "business_type": "乳類販売業",
      "address": "阿蘇郡南阿蘇村大字河陽字袋ヶ蔵５５６６番１",
      "lat": 32.869851,
      "lng": 131.000524,
      "geocoding_level": 3,
      "phone": "",
      "license_no": "",
      "license_date": "2019-02-21",
      "expire_date": null
    },
    {
      "name": "",
      "name_kana": "",
      "business_type": "喫茶店営業",
      "address": "阿蘇郡南阿蘇村下野１３５－１",
      "lat": 32.904358405,
      "lng": 130.990094068,
      "geocoding_level": 8,
      "phone": "",
      "license_no": "",
      "license_date": "2017-01-31",
      "expire_date": null
    },
    {
      "name": "",
      "name_kana": "",
      "business_type": "飲食店営業",
      "address": "阿蘇郡南阿蘇村河陽１９２５－１",
      "lat": 32.847035392,
      "lng": 131.015984035,
      "geocoding_level": 8,
      "phone": "",
      "license_no": "",
      "license_date": "2019-02-22",
      "expire_date": null
    },
    {
      "name": "",
      "name_kana": "",
      "business_type": "菓子製造業",
      "address": "阿蘇郡南阿蘇村河陽１９２５－１",
      "lat": 32.847035392,
      "lng": 131.015984035,
      "geocoding_level": 8,
      "phone": "",
      "license_no": "",
      "license_date": "2019-02-22",
      "expire_date": null
    },
    {
      "name": "",
      "name_kana": "",
      "business_type": "そうざい製造業",
      "address": "阿蘇郡南阿蘇村白川２１０１－４",
      "lat": 32.82347553,
      "lng": 131.09422332,
      "geocoding_level": 8,
      "phone": "",
      "license_no": "",
      "license_date": "2019-02-25",
      "expire_date": null
    },
    {
      "name": "",
      "name_kana": "",
      "business_type": "菓子製造業",
      "address": "阿蘇郡南阿蘇村白川２１０１－４",
      "lat": 32.82347553,
      "lng": 131.09422332,
      "geocoding_level": 8,
      "phone": "",
      "license_no": "",
      "license_date": "2019-02-25",
      "expire_date": null
    },
    {
      "name": "",
      "name_kana": "",
      "business_type": "飲食店営業",
      "address": "阿蘇郡南阿蘇村河陽字上西原２０３８",
      "lat": 32.869851,
      "lng": 131.000524,
      "geocoding_level": 3,
      "phone": "",
      "license_no": "",
      "license_date": "2019-02-25",
      "expire_date": null
    },
    {
      "name": "",
      "name_kana": "",
      "business_type": "菓子製造業",
      "address": "阿蘇郡南阿蘇村河陽字上西原２０３８",
      "lat": 32.869851,
      "lng": 131.000524,
      "geocoding_level": 3,
      "phone": "",
      "license_no": "",
      "license_date": "2019-02-25",
      "expire_date": null
    },
    {
      "name": "",
      "name_kana": "",
      "business_type": "飲食店営業",
      "address": "阿蘇郡南阿蘇村久石３８７５－３",
      "lat": 32.815516228,
      "lng": 131.033255209,
      "geocoding_level": 8,
      "phone": "",
      "license_no": "",
      "license_date": "2019-03-22",
      "expire_date": null
    },
    {
      "name": "",
      "name_kana": "",
      "business_type": "飲食店営業",
      "address": "阿蘇郡南阿蘇村河陰４６５０－５",
      "lat": 32.831028301,
      "lng": 131.0129608,
      "geocoding_level": 8,
      "phone": "",
      "license_no": "",
      "license_date": "2019-03-29",
      "expire_date": null
    },
    {
      "name": "",
      "name_kana": "",
      "business_type": "飲食店営業",
      "address": "阿蘇郡南阿蘇村河陽５９９３－４",
      "lat": 32.891220116,
      "lng": 131.027627516,
      "geocoding_level": 8,
      "phone": "",
      "license_no": "",
      "license_date": "2019-03-29",
      "expire_date": null
    },
    {
      "name": "",
      "name_kana": "",
      "business_type": "飲食店営業",
      "address": "阿蘇郡南阿蘇村中松大字上車鶴３８８０",
      "lat": 32.854116,
      "lng": 131.055208,
      "geocoding_level": 3,
      "phone": "",
      "license_no": "",
      "license_date": "2019-04-09",
      "expire_date": null
    },
    {
      "name": "",
      "name_kana": "",
      "business_type": "そうざい製造業",
      "address": "阿蘇郡南阿蘇村河陽５０３５",
      "lat": 32.869851,
      "lng": 131.000524,
      "geocoding_level": 3,
      "phone": "",
      "license_no": "",
      "license_date": "2019-04-12",
      "expire_date": null
    },
    {
      "name": "",
      "name_kana": "",
      "business_type": "食品販売業",
      "address": "阿蘇郡南阿蘇村中松１９３４",
      "lat": 32.854116,
      "lng": 131.055208,
      "geocoding_level": 3,
      "phone": "",
      "license_no": "",
      "license_date": "2019-04-23",
      "expire_date": null
    },
    {
      "name": "",
      "name_kana": "",
      "business_type": "飲食店営業",
      "address": "阿蘇郡南阿蘇村河陽５５７９番地１阿蘇ファームランド　阿蘇オルゴール館前",
      "lat": 32.89712403,
      "lng": 131.006451643,
      "geocoding_level": 8,
      "phone": "",
      "license_no": "",
      "license_date": "2019-04-24",
      "expire_date": null
    },
    {
      "name": "",
      "name_kana": "",
      "business_type": "飲食店営業",
      "address": "阿蘇郡南阿蘇村河陽４６３５－６",
      "lat": 32.873877561,
      "lng": 131.00381536,
      "geocoding_level": 8,
      "phone": "",
      "license_no": "",
      "license_date": "2019-04-24",
      "expire_date": null
    },
    {
      "name": "",
      "name_kana": "",
      "business_type": "飲食店営業",
      "address": "阿蘇郡南阿蘇村河陰３４８５－１４",
      "lat": 32.844207287,
      "lng": 130.99458392,
      "geocoding_level": 8,
      "phone": "",
      "license_no": "",
      "license_date": "2019-05-09",
      "expire_date": null
    },
    {
      "name": "",
      "name_kana": "",
      "business_type": "菓子製造業",
      "address": "阿蘇郡南阿蘇村河陰３４８５－１４",
      "lat": 32.844207287,
      "lng": 130.99458392,
      "geocoding_level": 8,
      "phone": "",
      "license_no": "",
      "license_date": "2019-05-09",
      "expire_date": null
    },
    {
      "name": "",
      "name_kana": "",
      "business_type": "飲食店営業",
      "address": "阿蘇郡南阿蘇村河陰字前川上３４８０番地１",
      "lat": 32.834165,
      "lng": 131.000898,
      "geocoding_level": 3,
      "phone": "",
      "license_no": "",
      "license_date": "2019-05-16",
      "expire_date": null
    },
    {
      "name": "",
      "name_kana": "",
      "business_type": "そうざい製造業",
      "address": "阿蘇郡南阿蘇村河陰字前川上３４８０番地１",
      "lat": 32.834165,
      "lng": 131.000898,
      "geocoding_level": 3,
      "phone": "",
      "license_no": "",
      "license_date": "2019-05-16",
      "expire_date": null
    },
    {
      "name": "",
      "name_kana": "",
      "business_type": "飲食店営業",
      "address": "阿蘇郡南阿蘇村河陽４６３５－６",
      "lat": 32.873877561,
      "lng": 131.00381536,
      "geocoding_level": 8,
      "phone": "",
      "license_no": "",
      "license_date": "2019-05-22",
      "expire_date": null
    },
    {
      "name": "",
      "name_kana": "",
      "business_type": "飲食店営業",
      "address": "阿蘇郡南阿蘇村大字一関１２５９－１",
      "lat": 32.83555313,
      "lng": 131.06932299,
      "geocoding_level": 8,
      "phone": "",
      "license_no": "",
      "license_date": "2019-05-22",
      "expire_date": null
    },
    {
      "name": "",
      "name_kana": "",
      "business_type": "飲食店営業",
      "address": "阿蘇郡南阿蘇村大字一関１２６０－１",
      "lat": 32.83510147,
      "lng": 131.069443725,
      "geocoding_level": 8,
      "phone": "",
      "license_no": "",
      "license_date": "2019-05-22",
      "expire_date": null
    },
    {
      "name": "",
      "name_kana": "",
      "business_type": "飲食店営業",
      "address": "阿蘇郡南阿蘇村一関１４７４－１",
      "lat": 32.838679093,
      "lng": 131.074521504,
      "geocoding_level": 8,
      "phone": "",
      "license_no": "",
      "license_date": "2019-05-22",
      "expire_date": null
    },
    {
      "name": "",
      "name_kana": "",
      "business_type": "飲食店営業",
      "address": "阿蘇郡南阿蘇村立野１５７６",
      "lat": 32.879425,
      "lng": 130.973844,
      "geocoding_level": 3,
      "phone": "",
      "license_no": "",
      "license_date": "2019-05-22",
      "expire_date": null
    },
    {
      "name": "",
      "name_kana": "",
      "business_type": "飲食店営業",
      "address": "阿蘇郡南阿蘇村河陽３８１４－１",
      "lat": 32.858837998,
      "lng": 131.006964793,
      "geocoding_level": 8,
      "phone": "",
      "license_no": "",
      "license_date": "2019-05-22",
      "expire_date": null
    },
    {
      "name": "",
      "name_kana": "",
      "business_type": "菓子製造業",
      "address": "阿蘇郡南阿蘇村河陽４６３５－６",
      "lat": 32.873877561,
      "lng": 131.00381536,
      "geocoding_level": 8,
      "phone": "",
      "license_no": "",
      "license_date": "2019-05-23",
      "expire_date": null
    },
    {
      "name": "",
      "name_kana": "",
      "business_type": "菓子製造業",
      "address": "阿蘇郡南阿蘇村久石２８３９－５",
      "lat": 32.81952665,
      "lng": 131.039225923,
      "geocoding_level": 8,
      "phone": "",
      "license_no": "",
      "license_date": "2019-05-23",
      "expire_date": null
    },
    {
      "name": "",
      "name_kana": "",
      "business_type": "菓子製造業",
      "address": "阿蘇郡南阿蘇村中松３５３－１０",
      "lat": 32.829121434,
      "lng": 131.050939394,
      "geocoding_level": 8,
      "phone": "",
      "license_no": "",
      "license_date": "2019-05-23",
      "expire_date": null
    },
    {
      "name": "",
      "name_kana": "",
      "business_type": "菓子製造業",
      "address": "阿蘇郡南阿蘇村立野１５７６",
      "lat": 32.879425,
      "lng": 130.973844,
      "geocoding_level": 3,
      "phone": "",
      "license_no": "",
      "license_date": "2019-05-23",
      "expire_date": null
    },
    {
      "name": "",
      "name_kana": "",
      "business_type": "食品販売業",
      "address": "阿蘇郡南阿蘇村中松下奥戸３３００－１",
      "lat": 32.854116,
      "lng": 131.055208,
      "geocoding_level": 3,
      "phone": "",
      "license_no": "",
      "license_date": "2019-05-23",
      "expire_date": null
    },
    {
      "name": "",
      "name_kana": "",
      "business_type": "食品販売業",
      "address": "阿蘇郡南阿蘇村立野５４１－８",
      "lat": 32.879425,
      "lng": 130.973844,
      "geocoding_level": 3,
      "phone": "",
      "license_no": "",
      "license_date": "2019-05-23",
      "expire_date": null
    },
    {
      "name": "",
      "name_kana": "",
      "business_type": "食品販売業",
      "address": "阿蘇郡南阿蘇村立野１８５－１",
      "lat": 32.879425,
      "lng": 130.973844,
      "geocoding_level": 3,
      "phone": "",
      "license_no": "",
      "license_date": "2019-05-23",
      "expire_date": null
    },
    {
      "name": "",
      "name_kana": "",
      "business_type": "食品製造業",
      "address": "阿蘇郡南阿蘇村両併１２４７番地",
      "lat": 32.80943,
      "lng": 131.101727,
      "geocoding_level": 3,
      "phone": "",
      "license_no": "",
      "license_date": "2019-05-23",
      "expire_date": null
    },
    {
      "name": "",
      "name_kana": "",
      "business_type": "乳類販売業",
      "address": "阿蘇郡南阿蘇村大字白川２０９６－１",
      "lat": 32.823703752,
      "lng": 131.093917188,
      "geocoding_level": 8,
      "phone": "",
      "license_no": "",
      "license_date": "2019-05-23",
      "expire_date": null
    },
    {
      "name": "",
      "name_kana": "",
      "business_type": "乳類販売業",
      "address": "阿蘇郡南阿蘇村大字一関１２６０－１",
      "lat": 32.83510147,
      "lng": 131.069443725,
      "geocoding_level": 8,
      "phone": "",
      "license_no": "",
      "license_date": "2019-05-23",
      "expire_date": null
    },
    {
      "name": "",
      "name_kana": "",
      "business_type": "清涼飲料水製造業",
      "address": "阿蘇郡南阿蘇村大字白川４５８－１",
      "lat": 32.823852171,
      "lng": 131.092614678,
      "geocoding_level": 8,
      "phone": "",
      "license_no": "",
      "license_date": "2019-05-23",
      "expire_date": null
    },
    {
      "name": "",
      "name_kana": "",
      "business_type": "清涼飲料水製造業",
      "address": "阿蘇郡南阿蘇村河陽５４４９",
      "lat": 32.892739247,
      "lng": 130.999130883,
      "geocoding_level": 8,
      "phone": "",
      "license_no": "",
      "license_date": "2019-05-23",
      "expire_date": null
    },
    {
      "name": "",
      "name_kana": "",
      "business_type": "缶詰又は瓶詰食品製造業",
      "address": "阿蘇郡南阿蘇村河陽５４４９",
      "lat": 32.892739247,
      "lng": 130.999130883,
      "geocoding_level": 8,
      "phone": "",
      "license_no": "",
      "license_date": "2019-05-23",
      "expire_date": null
    },
    {
      "name": "",
      "name_kana": "",
      "business_type": "喫茶店営業",
      "address": "阿蘇郡南阿蘇村久石２８３９－５",
      "lat": 32.81952665,
      "lng": 131.039225923,
      "geocoding_level": 8,
      "phone": "",
      "license_no": "",
      "license_date": "2019-05-23",
      "expire_date": null
    },
    {
      "name": "",
      "name_kana": "",
      "business_type": "飲食店営業",
      "address": "阿蘇郡南阿蘇村白川１８２１",
      "lat": 32.847474,
      "lng": 131.097793,
      "geocoding_level": 3,
      "phone": "",
      "license_no": "",
      "license_date": "2019-05-27",
      "expire_date": null
    },
    {
      "name": "",
      "name_kana": "",
      "business_type": "食品販売業",
      "address": "阿蘇郡南阿蘇村河陽５５７９－３",
      "lat": 32.898814315,
      "lng": 131.007059615,
      "geocoding_level": 8,
      "phone": "",
      "license_no": "",
      "license_date": "2019-05-27",
      "expire_date": null
    },
    {
      "name": "",
      "name_kana": "",
      "business_type": "飲食店営業",
      "address": "阿蘇郡南阿蘇村河陽４８９４－１",
      "lat": 32.881821468,
      "lng": 130.991195683,
      "geocoding_level": 8,
      "phone": "",
      "license_no": "",
      "license_date": "2019-05-31",
      "expire_date": null
    },
    {
      "name": "",
      "name_kana": "",
      "business_type": "喫茶店営業",
      "address": "阿蘇郡南阿蘇村下野７９６",
      "lat": 32.903225,
      "lng": 131.003295,
      "geocoding_level": 3,
      "phone": "",
      "license_no": "",
      "license_date": "2019-05-31",
      "expire_date": null
    },
    {
      "name": "",
      "name_kana": "",
      "business_type": "菓子製造業",
      "address": "阿蘇郡南阿蘇村立野２０８－２",
      "lat": 32.879425,
      "lng": 130.973844,
      "geocoding_level": 3,
      "phone": "",
      "license_no": "",
      "license_date": "2019-06-10",
      "expire_date": null
    },
    {
      "name": "",
      "name_kana": "",
      "business_type": "缶詰又は瓶詰食品製造業",
      "address": "阿蘇郡南阿蘇村立野２０８－２",
      "lat": 32.879425,
      "lng": 130.973844,
      "geocoding_level": 3,
      "phone": "",
      "license_no": "",
      "license_date": "2019-06-10",
      "expire_date": null
    },
    {
      "name": "",
      "name_kana": "",
      "business_type": "飲食店営業",
      "address": "阿蘇郡南阿蘇村河陰字前川上３４８０番地１",
      "lat": 32.834165,
      "lng": 131.000898,
      "geocoding_level": 3,
      "phone": "",
      "license_no": "",
      "license_date": "2019-06-18",
      "expire_date": null
    },
    {
      "name": "",
      "name_kana": "",
      "business_type": "そうざい製造業",
      "address": "阿蘇郡南阿蘇村河陰字前川上３４８０番地１",
      "lat": 32.834165,
      "lng": 131.000898,
      "geocoding_level": 3,
      "phone": "",
      "license_no": "",
      "license_date": "2019-06-18",
      "expire_date": null
    },
    {
      "name": "",
      "name_kana": "",
      "business_type": "飲食店営業",
      "address": "阿蘇郡南阿蘇村中松３８９８－１",
      "lat": 32.837309564,
      "lng": 131.059487516,
      "geocoding_level": 8,
      "phone": "",
      "license_no": "",
      "license_date": "2019-02-18",
      "expire_date": null
    },
    {
      "name": "",
      "name_kana": "",
      "business_type": "菓子製造業",
      "address": "阿蘇郡南阿蘇村久石４２７",
      "lat": 32.805134,
      "lng": 131.059873,
      "geocoding_level": 3,
      "phone": "",
      "license_no": "",
      "license_date": "2019-07-01",
      "expire_date": null
    },
    {
      "name": "",
      "name_kana": "",
      "business_type": "飲食店営業",
      "address": "阿蘇郡南阿蘇村下野９６－１",
      "lat": 32.90357709,
      "lng": 130.994735421,
      "geocoding_level": 8,
      "phone": "",
      "license_no": "",
      "license_date": "2019-07-09",
      "expire_date": null
    },
    {
      "name": "",
      "name_kana": "",
      "business_type": "菓子製造業",
      "address": "阿蘇郡南阿蘇村立野８４１",
      "lat": 32.879425,
      "lng": 130.973844,
      "geocoding_level": 3,
      "phone": "",
      "license_no": "",
      "license_date": "2019-07-09",
      "expire_date": null
    },
    {
      "name": "",
      "name_kana": "",
      "business_type": "そうざい製造業",
      "address": "阿蘇郡南阿蘇村立野８４１",
      "lat": 32.879425,
      "lng": 130.973844,
      "geocoding_level": 3,
      "phone": "",
      "license_no": "",
      "license_date": "2019-07-09",
      "expire_date": null
    },
    {
      "name": "",
      "name_kana": "",
      "business_type": "飲食店営業",
      "address": "阿蘇郡南阿蘇村河陰３４８０－１",
      "lat": 32.842824082,
      "lng": 130.995376527,
      "geocoding_level": 8,
      "phone": "",
      "license_no": "",
      "license_date": "2019-07-23",
      "expire_date": null
    },
    {
      "name": "",
      "name_kana": "",
      "business_type": "飲食店営業",
      "address": "阿蘇郡南阿蘇村中松２５４３－１",
      "lat": 32.840754164,
      "lng": 131.049691821,
      "geocoding_level": 8,
      "phone": "",
      "license_no": "",
      "license_date": "2019-08-06",
      "expire_date": null
    },
    {
      "name": "",
      "name_kana": "",
      "business_type": "清涼飲料水製造業",
      "address": "阿蘇郡南阿蘇村白川１３３３",
      "lat": 32.847474,
      "lng": 131.097793,
      "geocoding_level": 3,
      "phone": "",
      "license_no": "",
      "license_date": "2019-08-06",
      "expire_date": null
    },
    {
      "name": "",
      "name_kana": "",
      "business_type": "そうざい製造業",
      "address": "阿蘇郡南阿蘇村一関５０－５",
      "lat": 32.826881366,
      "lng": 131.063306562,
      "geocoding_level": 8,
      "phone": "",
      "license_no": "",
      "license_date": "2019-08-19",
      "expire_date": null
    },
    {
      "name": "",
      "name_kana": "",
      "business_type": "菓子製造業",
      "address": "阿蘇郡南阿蘇村一関５０－５",
      "lat": 32.826881366,
      "lng": 131.063306562,
      "geocoding_level": 8,
      "phone": "",
      "license_no": "",
      "license_date": "2019-08-19",
      "expire_date": null
    },
    {
      "name": "",
      "name_kana": "",
      "business_type": "食品販売業",
      "address": "阿蘇郡南阿蘇村河陰５２６２－１０１",
      "lat": 32.808643535,
      "lng": 131.028247771,
      "geocoding_level": 8,
      "phone": "",
      "license_no": "",
      "license_date": "2019-08-19",
      "expire_date": null
    },
    {
      "name": "",
      "name_kana": "",
      "business_type": "食品販売業",
      "address": "阿蘇郡南阿蘇村大字中松２０６５",
      "lat": 32.854116,
      "lng": 131.055208,
      "geocoding_level": 3,
      "phone": "",
      "license_no": "",
      "license_date": "2019-08-19",
      "expire_date": null
    },
    {
      "name": "",
      "name_kana": "",
      "business_type": "喫茶店営業",
      "address": "阿蘇郡南阿蘇村河陰３８７６－３",
      "lat": 32.835470179,
      "lng": 131.004534885,
      "geocoding_level": 8,
      "phone": "",
      "license_no": "",
      "license_date": "2019-08-19",
      "expire_date": null
    },
    {
      "name": "",
      "name_kana": "",
      "business_type": "喫茶店営業",
      "address": "阿蘇郡南阿蘇村大字坂の上３７６５",
      "lat": 32.845116,
      "lng": 131.01770800000003,
      "geocoding_level": 2,
      "phone": "",
      "license_no": "",
      "license_date": "2019-08-19",
      "expire_date": null
    },
    {
      "name": "",
      "name_kana": "",
      "business_type": "飲食店営業",
      "address": "阿蘇郡南阿蘇村河陰４０９－６４",
      "lat": 32.814191582,
      "lng": 131.02534136600002,
      "geocoding_level": 8,
      "phone": "",
      "license_no": "",
      "license_date": "2019-08-19",
      "expire_date": null
    },
    {
      "name": "",
      "name_kana": "",
      "business_type": "飲食店営業",
      "address": "阿蘇郡南阿蘇村白川４４５－１",
      "lat": 32.823944931,
      "lng": 131.090585911,
      "geocoding_level": 8,
      "phone": "",
      "license_no": "",
      "license_date": "2019-08-19",
      "expire_date": null
    },
    {
      "name": "",
      "name_kana": "",
      "business_type": "飲食店営業",
      "address": "阿蘇郡南阿蘇村河陰３７１７－１",
      "lat": 32.838683236,
      "lng": 131.001330399,
      "geocoding_level": 8,
      "phone": "",
      "license_no": "",
      "license_date": "2019-08-19",
      "expire_date": null
    },
    {
      "name": "",
      "name_kana": "",
      "business_type": "飲食店営業",
      "address": "阿蘇郡南阿蘇村久石４４１１－９",
      "lat": 32.801942954,
      "lng": 131.037585545,
      "geocoding_level": 8,
      "phone": "",
      "license_no": "",
      "license_date": "2019-08-23",
      "expire_date": null
    },
    {
      "name": "",
      "name_kana": "",
      "business_type": "魚介類販売業",
      "address": "阿蘇郡南阿蘇村大字中松字六地蔵１５６１－１",
      "lat": 32.854116,
      "lng": 131.055208,
      "geocoding_level": 3,
      "phone": "",
      "license_no": "",
      "license_date": "2019-08-29",
      "expire_date": null
    },
    {
      "name": "",
      "name_kana": "",
      "business_type": "飲食店営業",
      "address": "阿蘇郡南阿蘇村大字河陰４３４－１",
      "lat": 32.822036652,
      "lng": 131.019313473,
      "geocoding_level": 8,
      "phone": "",
      "license_no": "",
      "license_date": "2019-08-27",
      "expire_date": null
    },
    {
      "name": "",
      "name_kana": "",
      "business_type": "飲食店営業",
      "address": "阿蘇郡南阿蘇村河陰５３０４－１",
      "lat": 32.847125157,
      "lng": 130.994537277,
      "geocoding_level": 8,
      "phone": "",
      "license_no": "",
      "license_date": "2019-08-27",
      "expire_date": null
    },
    {
      "name": "",
      "name_kana": "",
      "business_type": "飲食店営業",
      "address": "阿蘇郡南阿蘇村河陰５３０４－１",
      "lat": 32.847125157,
      "lng": 130.994537277,
      "geocoding_level": 8,
      "phone": "",
      "license_no": "",
      "license_date": "2019-08-27",
      "expire_date": null
    },
    {
      "name": "",
      "name_kana": "",
      "business_type": "そうざい製造業",
      "address": "阿蘇郡南阿蘇村大字中松字六地蔵１５６１－１",
      "lat": 32.854116,
      "lng": 131.055208,
      "geocoding_level": 3,
      "phone": "",
      "license_no": "",
      "license_date": "2019-08-27",
      "expire_date": null
    },
    {
      "name": "",
      "name_kana": "",
      "business_type": "飲食店営業",
      "address": "阿蘇郡南阿蘇村吉田４８－３",
      "lat": 32.823653311,
      "lng": 131.08403324,
      "geocoding_level": 8,
      "phone": "",
      "license_no": "",
      "license_date": "2019-09-05",
      "expire_date": null
    },
    {
      "name": "",
      "name_kana": "",
      "business_type": "飲食店営業",
      "address": "阿蘇郡南阿蘇村河陰３４８０－１",
      "lat": 32.842824082,
      "lng": 130.995376527,
      "geocoding_level": 8,
      "phone": "",
      "license_no": "",
      "license_date": "2019-09-17",
      "expire_date": null
    },
    {
      "name": "",
      "name_kana": "",
      "business_type": "飲食店営業",
      "address": "阿蘇郡南阿蘇村大字白川２０４０",
      "lat": 32.825339002,
      "lng": 131.095140462,
      "geocoding_level": 8,
      "phone": "",
      "license_no": "",
      "license_date": "2019-09-30",
      "expire_date": null
    },
    {
      "name": "",
      "name_kana": "",
      "business_type": "飲食店営業",
      "address": "阿蘇郡南阿蘇村久石１３５９－１",
      "lat": 32.814460266,
      "lng": 131.061204133,
      "geocoding_level": 8,
      "phone": "",
      "license_no": "",
      "license_date": "2019-11-26",
      "expire_date": null
    },
    {
      "name": "",
      "name_kana": "",
      "business_type": "乳類販売業",
      "address": "阿蘇郡南阿蘇村立野１５７６",
      "lat": 32.879425,
      "lng": 130.973844,
      "geocoding_level": 3,
      "phone": "",
      "license_no": "",
      "license_date": "2019-11-26",
      "expire_date": null
    },
    {
      "name": "",
      "name_kana": "",
      "business_type": "喫茶店営業",
      "address": "阿蘇郡南阿蘇村一関１９５７－１",
      "lat": 32.835856668,
      "lng": 131.064669127,
      "geocoding_level": 8,
      "phone": "",
      "license_no": "",
      "license_date": "2019-11-26",
      "expire_date": null
    },
    {
      "name": "",
      "name_kana": "",
      "business_type": "食肉製品製造業",
      "address": "阿蘇郡南阿蘇村河陽５４４９",
      "lat": 32.892739247,
      "lng": 130.999130883,
      "geocoding_level": 8,
      "phone": "",
      "license_no": "",
      "license_date": "2019-11-26",
      "expire_date": null
    },
    {
      "name": "",
      "name_kana": "",
      "business_type": "豆腐製造業",
      "address": "阿蘇郡南阿蘇村中松１４１８－１",
      "lat": 32.839150109,
      "lng": 131.040950033,
      "geocoding_level": 8,
      "phone": "",
      "license_no": "",
      "license_date": "2019-11-26",
      "expire_date": null
    },
    {
      "name": "",
      "name_kana": "",
      "business_type": "食品販売業",
      "address": "阿蘇郡南阿蘇村大字中松２８１８",
      "lat": 32.854116,
      "lng": 131.055208,
      "geocoding_level": 3,
      "phone": "",
      "license_no": "",
      "license_date": "2019-11-27",
      "expire_date": null
    },
    {
      "name": "",
      "name_kana": "",
      "business_type": "食品販売業",
      "address": "阿蘇郡南阿蘇村吉田１５２３－１",
      "lat": 32.825043162,
      "lng": 131.079201905,
      "geocoding_level": 8,
      "phone": "",
      "license_no": "",
      "license_date": "2019-11-27",
      "expire_date": null
    },
    {
      "name": "",
      "name_kana": "",
      "business_type": "食肉販売業",
      "address": "阿蘇郡南阿蘇村久石２２６０－３",
      "lat": 32.820683932,
      "lng": 131.048905907,
      "geocoding_level": 8,
      "phone": "",
      "license_no": "",
      "license_date": "2019-11-27",
      "expire_date": null
    },
    {
      "name": "",
      "name_kana": "",
      "business_type": "魚介類販売業",
      "address": "阿蘇郡南阿蘇村久石２２６０－３",
      "lat": 32.820683932,
      "lng": 131.048905907,
      "geocoding_level": 8,
      "phone": "",
      "license_no": "",
      "license_date": "2019-11-27",
      "expire_date": null
    },
    {
      "name": "",
      "name_kana": "",
      "business_type": "乳類販売業",
      "address": "阿蘇郡南阿蘇村久石２２６０－３",
      "lat": 32.820683932,
      "lng": 131.048905907,
      "geocoding_level": 8,
      "phone": "",
      "license_no": "",
      "license_date": "2019-11-27",
      "expire_date": null
    },
    {
      "name": "",
      "name_kana": "",
      "business_type": "飲食店営業",
      "address": "阿蘇郡南阿蘇村河陰字下駄原３２０８－１他７筆",
      "lat": 32.834165,
      "lng": 131.000898,
      "geocoding_level": 3,
      "phone": "",
      "license_no": "",
      "license_date": "2019-11-27",
      "expire_date": null
    },
    {
      "name": "",
      "name_kana": "",
      "business_type": "飲食店営業",
      "address": "阿蘇郡南阿蘇村吉田９９６－２",
      "lat": 32.827766807,
      "lng": 131.070532026,
      "geocoding_level": 8,
      "phone": "",
      "license_no": "",
      "license_date": "2019-11-29",
      "expire_date": null
    },
    {
      "name": "",
      "name_kana": "",
      "business_type": "喫茶店営業",
      "address": "阿蘇郡南阿蘇村河陰５２６２－３５",
      "lat": 32.80944776100001,
      "lng": 131.027199841,
      "geocoding_level": 8,
      "phone": "",
      "license_no": "",
      "license_date": "2019-11-29",
      "expire_date": null
    },
    {
      "name": "",
      "name_kana": "",
      "business_type": "食肉販売業",
      "address": "阿蘇郡南阿蘇村大字河陽５５７９番地３",
      "lat": 32.898814315,
      "lng": 131.007059615,
      "geocoding_level": 8,
      "phone": "",
      "license_no": "",
      "license_date": "2019-12-06",
      "expire_date": null
    },
    {
      "name": "",
      "name_kana": "",
      "business_type": "食品販売業",
      "address": "阿蘇郡南阿蘇村大字河陽５５７９番地３",
      "lat": 32.898814315,
      "lng": 131.007059615,
      "geocoding_level": 8,
      "phone": "",
      "license_no": "",
      "license_date": "2019-12-06",
      "expire_date": null
    },
    {
      "name": "",
      "name_kana": "",
      "business_type": "飲食店営業",
      "address": "阿蘇郡南阿蘇村大字立野４６１番地９４",
      "lat": 32.879425,
      "lng": 130.973844,
      "geocoding_level": 3,
      "phone": "",
      "license_no": "",
      "license_date": "2019-12-16",
      "expire_date": null
    },
    {
      "name": "",
      "name_kana": "",
      "business_type": "喫茶店営業",
      "address": "阿蘇郡南阿蘇村大字久石２８０７",
      "lat": 32.805134,
      "lng": 131.059873,
      "geocoding_level": 3,
      "phone": "",
      "license_no": "",
      "license_date": "2019-12-24",
      "expire_date": null
    },
    {
      "name": "",
      "name_kana": "",
      "business_type": "飲食店営業",
      "address": "阿蘇郡南阿蘇村大字久石２８０７",
      "lat": 32.805134,
      "lng": 131.059873,
      "geocoding_level": 3,
      "phone": "",
      "license_no": "",
      "license_date": "2019-12-26",
      "expire_date": null
    },
    {
      "name": "",
      "name_kana": "",
      "business_type": "飲食店営業",
      "address": "阿蘇郡南阿蘇村河陽３６９１－５",
      "lat": 32.860615128,
      "lng": 131.003017401,
      "geocoding_level": 8,
      "phone": "",
      "license_no": "",
      "license_date": "2020-02-18",
      "expire_date": null
    },
    {
      "name": "",
      "name_kana": "",
      "business_type": "飲食店営業",
      "address": "阿蘇郡南阿蘇村大字河陽５５８０－１３",
      "lat": 32.897891063,
      "lng": 131.008703694,
      "geocoding_level": 8,
      "phone": "",
      "license_no": "",
      "license_date": "2020-02-18",
      "expire_date": null
    },
    {
      "name": "",
      "name_kana": "",
      "business_type": "飲食店営業",
      "address": "阿蘇郡南阿蘇村大字河陽字鉢ノ久保４９５０－１",
      "lat": 32.869851,
      "lng": 131.000524,
      "geocoding_level": 3,
      "phone": "",
      "license_no": "",
      "license_date": "2020-02-18",
      "expire_date": null
    },
    {
      "name": "",
      "name_kana": "",
      "business_type": "食品販売業",
      "address": "阿蘇郡南阿蘇村白川５３４－２",
      "lat": 32.824916464,
      "lng": 131.094653275,
      "geocoding_level": 8,
      "phone": "",
      "license_no": "",
      "license_date": "2020-02-14",
      "expire_date": null
    },
    {
      "name": "",
      "name_kana": "",
      "business_type": "食肉販売業",
      "address": "阿蘇郡南阿蘇村大字河陽５５８０－１３",
      "lat": 32.897891063,
      "lng": 131.008703694,
      "geocoding_level": 8,
      "phone": "",
      "license_no": "",
      "license_date": "2020-02-14",
      "expire_date": null
    },
    {
      "name": "",
      "name_kana": "",
      "business_type": "食品販売業",
      "address": "阿蘇郡南阿蘇村中松２０４２ー４",
      "lat": 32.84326385,
      "lng": 131.044442643,
      "geocoding_level": 8,
      "phone": "",
      "license_no": "",
      "license_date": "2020-02-28",
      "expire_date": null
    },
    {
      "name": "",
      "name_kana": "",
      "business_type": "喫茶店営業",
      "address": "阿蘇郡南阿蘇村大字久石２８１５",
      "lat": 32.819219169,
      "lng": 131.040494286,
      "geocoding_level": 8,
      "phone": "",
      "license_no": "",
      "license_date": "2020-03-02",
      "expire_date": null
    },
    {
      "name": "",
      "name_kana": "",
      "business_type": "飲食店営業",
      "address": "阿蘇郡南阿蘇村河陽４７７３－６",
      "lat": 32.883506584,
      "lng": 130.999615011,
      "geocoding_level": 8,
      "phone": "",
      "license_no": "",
      "license_date": "2020-03-10",
      "expire_date": null
    },
    {
      "name": "",
      "name_kana": "",
      "business_type": "菓子製造業",
      "address": "阿蘇郡南阿蘇村河陽４７７３－６",
      "lat": 32.883506584,
      "lng": 130.999615011,
      "geocoding_level": 8,
      "phone": "",
      "license_no": "",
      "license_date": "2020-03-10",
      "expire_date": null
    },
    {
      "name": "",
      "name_kana": "",
      "business_type": "食品製造業",
      "address": "阿蘇郡南阿蘇村立野８６７",
      "lat": 32.879425,
      "lng": 130.973844,
      "geocoding_level": 3,
      "phone": "",
      "license_no": "",
      "license_date": "2020-03-19",
      "expire_date": null
    },
    {
      "name": "",
      "name_kana": "",
      "business_type": "菓子製造業",
      "address": "阿蘇郡南阿蘇村一関９５５－１",
      "lat": 32.82725998600001,
      "lng": 131.062927955,
      "geocoding_level": 8,
      "phone": "",
      "license_no": "",
      "license_date": "2020-03-26",
      "expire_date": null
    },
    {
      "name": "",
      "name_kana": "",
      "business_type": "飲食店営業",
      "address": "阿蘇郡南阿蘇村中松３９１６－１",
      "lat": 32.836699573,
      "lng": 131.058446366,
      "geocoding_level": 8,
      "phone": "",
      "license_no": "",
      "license_date": "2020-03-26",
      "expire_date": null
    },
    {
      "name": "",
      "name_kana": "",
      "business_type": "食品販売業",
      "address": "阿蘇郡南阿蘇村大字久石２８０１",
      "lat": 32.818626605,
      "lng": 131.041206492,
      "geocoding_level": 8,
      "phone": "",
      "license_no": "",
      "license_date": "2020-02-14",
      "expire_date": null
    },
    {
      "name": "",
      "name_kana": "",
      "business_type": "喫茶店営業",
      "address": "阿蘇郡南阿蘇村久石２８０１",
      "lat": 32.818626605,
      "lng": 131.041206492,
      "geocoding_level": 8,
      "phone": "",
      "license_no": "",
      "license_date": "2019-02-19",
      "expire_date": null
    },
    {
      "name": "",
      "name_kana": "",
      "business_type": "食肉販売業",
      "address": "阿蘇郡南阿蘇村久石２８０１",
      "lat": 32.818626605,
      "lng": 131.041206492,
      "geocoding_level": 8,
      "phone": "",
      "license_no": "",
      "license_date": "2017-02-27",
      "expire_date": null
    },
    {
      "name": "",
      "name_kana": "",
      "business_type": "乳類販売業",
      "address": "阿蘇郡南阿蘇村久石２８０１",
      "lat": 32.818626605,
      "lng": 131.041206492,
      "geocoding_level": 8,
      "phone": "",
      "license_no": "",
      "license_date": "2017-02-27",
      "expire_date": null
    },
    {
      "name": "",
      "name_kana": "",
      "business_type": "飲食店営業",
      "address": "阿蘇郡南阿蘇村久石２７７６",
      "lat": 32.818400141,
      "lng": 131.041914599,
      "geocoding_level": 8,
      "phone": "",
      "license_no": "",
      "license_date": "2019-03-29",
      "expire_date": null
    },
    {
      "name": "",
      "name_kana": "",
      "business_type": "めん類製造業",
      "address": "阿蘇郡南阿蘇村久石柏木谷２７７６",
      "lat": 32.805134,
      "lng": 131.059873,
      "geocoding_level": 3,
      "phone": "",
      "license_no": "",
      "license_date": "2019-03-29",
      "expire_date": null
    },
    {
      "name": "",
      "name_kana": "",
      "business_type": "飲食店営業",
      "address": "阿蘇郡南阿蘇村大字久石２７７６番地",
      "lat": 32.818400141,
      "lng": 131.041914599,
      "geocoding_level": 8,
      "phone": "",
      "license_no": "",
      "license_date": "2017-02-27",
      "expire_date": null
    },
    {
      "name": "",
      "name_kana": "",
      "business_type": "そうざい製造業",
      "address": "阿蘇郡南阿蘇村河陽４６３５－６",
      "lat": 32.873877561,
      "lng": 131.00381536,
      "geocoding_level": 8,
      "phone": "",
      "license_no": "",
      "license_date": "2020-04-09",
      "expire_date": null
    },
    {
      "name": "",
      "name_kana": "",
      "business_type": "食品販売業",
      "address": "阿蘇郡南阿蘇村河陽２３２７",
      "lat": 32.869851,
      "lng": 131.000524,
      "geocoding_level": 3,
      "phone": "",
      "license_no": "",
      "license_date": "2020-04-16",
      "expire_date": null
    },
    {
      "name": "",
      "name_kana": "",
      "business_type": "飲食店営業",
      "address": "阿蘇郡南阿蘇村河陽２３２７",
      "lat": 32.869851,
      "lng": 131.000524,
      "geocoding_level": 3,
      "phone": "",
      "license_no": "",
      "license_date": "2020-04-16",
      "expire_date": null
    },
    {
      "name": "",
      "name_kana": "",
      "business_type": "乳類販売業",
      "address": "阿蘇郡南阿蘇村河陽２３２７",
      "lat": 32.869851,
      "lng": 131.000524,
      "geocoding_level": 3,
      "phone": "",
      "license_no": "",
      "license_date": "2020-04-16",
      "expire_date": null
    },
    {
      "name": "",
      "name_kana": "",
      "business_type": "そうざい製造業",
      "address": "阿蘇郡南阿蘇村河陽２３２７",
      "lat": 32.869851,
      "lng": 131.000524,
      "geocoding_level": 3,
      "phone": "",
      "license_no": "",
      "license_date": "2020-04-16",
      "expire_date": null
    },
    {
      "name": "",
      "name_kana": "",
      "business_type": "乳類販売業",
      "address": "阿蘇郡南阿蘇村大字両併字豆塚２４１２",
      "lat": 32.80943,
      "lng": 131.101727,
      "geocoding_level": 3,
      "phone": "",
      "license_no": "",
      "license_date": "2020-04-22",
      "expire_date": null
    },
    {
      "name": "",
      "name_kana": "",
      "business_type": "飲食店営業",
      "address": "阿蘇郡南阿蘇村大字両併字豆塚２４１２",
      "lat": 32.80943,
      "lng": 131.101727,
      "geocoding_level": 3,
      "phone": "",
      "license_no": "",
      "license_date": "2020-04-22",
      "expire_date": null
    },
    {
      "name": "",
      "name_kana": "",
      "business_type": "食品販売業",
      "address": "阿蘇郡南阿蘇村大字両併字豆塚２４１２",
      "lat": 32.80943,
      "lng": 131.101727,
      "geocoding_level": 3,
      "phone": "",
      "license_no": "",
      "license_date": "2020-04-22",
      "expire_date": null
    },
    {
      "name": "",
      "name_kana": "",
      "business_type": "食品販売業",
      "address": "阿蘇郡南阿蘇村一関１２０６－９",
      "lat": 32.834353071,
      "lng": 131.069827416,
      "geocoding_level": 8,
      "phone": "",
      "license_no": "",
      "license_date": "2020-04-23",
      "expire_date": null
    },
    {
      "name": "",
      "name_kana": "",
      "business_type": "魚介類販売業",
      "address": "阿蘇郡南阿蘇村一関１２０６－９",
      "lat": 32.834353071,
      "lng": 131.069827416,
      "geocoding_level": 8,
      "phone": "",
      "license_no": "",
      "license_date": "2020-04-23",
      "expire_date": null
    },
    {
      "name": "",
      "name_kana": "",
      "business_type": "飲食店営業",
      "address": "阿蘇郡南阿蘇村一関１２０６－９",
      "lat": 32.834353071,
      "lng": 131.069827416,
      "geocoding_level": 8,
      "phone": "",
      "license_no": "",
      "license_date": "2020-04-23",
      "expire_date": null
    },
    {
      "name": "",
      "name_kana": "",
      "business_type": "食肉販売業",
      "address": "阿蘇郡南阿蘇村一関１２０６－９",
      "lat": 32.834353071,
      "lng": 131.069827416,
      "geocoding_level": 8,
      "phone": "",
      "license_no": "",
      "license_date": "2020-04-23",
      "expire_date": null
    },
    {
      "name": "",
      "name_kana": "",
      "business_type": "乳類販売業",
      "address": "阿蘇郡南阿蘇村一関１２０６－９",
      "lat": 32.834353071,
      "lng": 131.069827416,
      "geocoding_level": 8,
      "phone": "",
      "license_no": "",
      "license_date": "2020-04-23",
      "expire_date": null
    },
    {
      "name": "",
      "name_kana": "",
      "business_type": "菓子製造業",
      "address": "阿蘇郡南阿蘇村河陰３７１６－１",
      "lat": 32.83938932,
      "lng": 131.001338784,
      "geocoding_level": 8,
      "phone": "",
      "license_no": "",
      "license_date": "2020-04-27",
      "expire_date": null
    },
    {
      "name": "",
      "name_kana": "",
      "business_type": "そうざい製造業",
      "address": "阿蘇郡南阿蘇村河陽５２７７",
      "lat": 32.869851,
      "lng": 131.000524,
      "geocoding_level": 3,
      "phone": "",
      "license_no": "",
      "license_date": "2020-04-27",
      "expire_date": null
    },
    {
      "name": "",
      "name_kana": "",
      "business_type": "飲食店営業",
      "address": "阿蘇郡南阿蘇村一関１３０２－２",
      "lat": 32.833913971,
      "lng": 131.069876363,
      "geocoding_level": 8,
      "phone": "",
      "license_no": "",
      "license_date": "2020-04-30",
      "expire_date": null
    },
    {
      "name": "",
      "name_kana": "",
      "business_type": "そうざい製造業",
      "address": "阿蘇郡南阿蘇村白川１８１０",
      "lat": 32.847474,
      "lng": 131.097793,
      "geocoding_level": 3,
      "phone": "",
      "license_no": "",
      "license_date": "2020-05-01",
      "expire_date": null
    },
    {
      "name": "",
      "name_kana": "",
      "business_type": "乳類販売業",
      "address": "阿蘇郡南阿蘇村一関１８８９－１",
      "lat": 32.835398987,
      "lng": 131.063206916,
      "geocoding_level": 8,
      "phone": "",
      "license_no": "",
      "license_date": "2020-05-14",
      "expire_date": null
    },
    {
      "name": "",
      "name_kana": "",
      "business_type": "飲食店営業",
      "address": "阿蘇郡南阿蘇村久石３３５０",
      "lat": 32.805134,
      "lng": 131.059873,
      "geocoding_level": 3,
      "phone": "",
      "license_no": "",
      "license_date": "2020-05-14",
      "expire_date": null
    },
    {
      "name": "",
      "name_kana": "",
      "business_type": "飲食店営業",
      "address": "阿蘇郡南阿蘇村大字河陽５５７９番地３",
      "lat": 32.898814315,
      "lng": 131.007059615,
      "geocoding_level": 8,
      "phone": "",
      "license_no": "",
      "license_date": "2020-05-14",
      "expire_date": null
    },
    {
      "name": "",
      "name_kana": "",
      "business_type": "飲食店営業",
      "address": "阿蘇郡南阿蘇村大字河陰字羅漢５２６２番４７",
      "lat": 32.834165,
      "lng": 131.000898,
      "geocoding_level": 3,
      "phone": "",
      "license_no": "",
      "license_date": "2020-05-19",
      "expire_date": null
    },
    {
      "name": "",
      "name_kana": "",
      "business_type": "乳類販売業",
      "address": "阿蘇郡南阿蘇村河陰字前川上３４８０番地１",
      "lat": 32.834165,
      "lng": 131.000898,
      "geocoding_level": 3,
      "phone": "",
      "license_no": "",
      "license_date": "2020-05-20",
      "expire_date": null
    },
    {
      "name": "",
      "name_kana": "",
      "business_type": "魚介類販売業",
      "address": "阿蘇郡南阿蘇村河陰字前川上３４８０番地１",
      "lat": 32.834165,
      "lng": 131.000898,
      "geocoding_level": 3,
      "phone": "",
      "license_no": "",
      "license_date": "2020-05-20",
      "expire_date": null
    },
    {
      "name": "",
      "name_kana": "",
      "business_type": "食肉販売業",
      "address": "阿蘇郡南阿蘇村河陰字前川上３４８０番地１",
      "lat": 32.834165,
      "lng": 131.000898,
      "geocoding_level": 3,
      "phone": "",
      "license_no": "",
      "license_date": "2020-05-20",
      "expire_date": null
    },
    {
      "name": "",
      "name_kana": "",
      "business_type": "食品販売業",
      "address": "阿蘇郡南阿蘇村河陰字前川上３４８０番地１",
      "lat": 32.834165,
      "lng": 131.000898,
      "geocoding_level": 3,
      "phone": "",
      "license_no": "",
      "license_date": "2020-05-20",
      "expire_date": null
    },
    {
      "name": "",
      "name_kana": "",
      "business_type": "乳製品製造業",
      "address": "阿蘇郡南阿蘇村河陽５４４９",
      "lat": 32.892739247,
      "lng": 130.999130883,
      "geocoding_level": 8,
      "phone": "",
      "license_no": "",
      "license_date": "2020-05-29",
      "expire_date": null
    },
    {
      "name": "",
      "name_kana": "",
      "business_type": "飲食店営業",
      "address": "阿蘇郡南阿蘇村河陰４５３８－１",
      "lat": 32.829252605,
      "lng": 131.005920605,
      "geocoding_level": 8,
      "phone": "",
      "license_no": "",
      "license_date": "2020-05-29",
      "expire_date": null
    },
    {
      "name": "",
      "name_kana": "",
      "business_type": "飲食店営業",
      "address": "阿蘇郡南阿蘇村河陽４７３２－１２",
      "lat": 32.87439332700001,
      "lng": 131.00192107100003,
      "geocoding_level": 8,
      "phone": "",
      "license_no": "",
      "license_date": "2020-05-29",
      "expire_date": null
    },
    {
      "name": "",
      "name_kana": "",
      "business_type": "飲食店営業",
      "address": "阿蘇郡南阿蘇村河陽４７３２－９",
      "lat": 32.873881378,
      "lng": 131.001692264,
      "geocoding_level": 8,
      "phone": "",
      "license_no": "",
      "license_date": "2020-05-29",
      "expire_date": null
    },
    {
      "name": "",
      "name_kana": "",
      "business_type": "飲食店営業",
      "address": "阿蘇郡南阿蘇村河陰５２４６－１",
      "lat": 32.822226682,
      "lng": 131.017901046,
      "geocoding_level": 8,
      "phone": "",
      "license_no": "",
      "license_date": "2020-05-29",
      "expire_date": null
    },
    {
      "name": "",
      "name_kana": "",
      "business_type": "飲食店営業",
      "address": "阿蘇郡南阿蘇村河陰１３－１",
      "lat": 32.816390579,
      "lng": 131.030312314,
      "geocoding_level": 8,
      "phone": "",
      "license_no": "",
      "license_date": "2020-05-29",
      "expire_date": null
    },
    {
      "name": "",
      "name_kana": "",
      "business_type": "飲食店営業",
      "address": "阿蘇郡南阿蘇村立野１７６－２",
      "lat": 32.879425,
      "lng": 130.973844,
      "geocoding_level": 3,
      "phone": "",
      "license_no": "",
      "license_date": "2020-05-29",
      "expire_date": null
    },
    {
      "name": "",
      "name_kana": "",
      "business_type": "飲食店営業",
      "address": "阿蘇郡南阿蘇村大字白川２４３７",
      "lat": 32.847474,
      "lng": 131.097793,
      "geocoding_level": 3,
      "phone": "",
      "license_no": "",
      "license_date": "2020-05-29",
      "expire_date": null
    },
    {
      "name": "",
      "name_kana": "",
      "business_type": "飲食店営業",
      "address": "阿蘇郡南阿蘇村大字一関１２６０－１",
      "lat": 32.83510147,
      "lng": 131.069443725,
      "geocoding_level": 8,
      "phone": "",
      "license_no": "",
      "license_date": "2020-05-29",
      "expire_date": null
    },
    {
      "name": "",
      "name_kana": "",
      "business_type": "乳類販売業",
      "address": "阿蘇郡南阿蘇村大字河陰３７１７－１",
      "lat": 32.838683236,
      "lng": 131.001330399,
      "geocoding_level": 8,
      "phone": "",
      "license_no": "",
      "license_date": "2020-05-29",
      "expire_date": null
    },
    {
      "name": "",
      "name_kana": "",
      "business_type": "菓子製造業",
      "address": "阿蘇郡南阿蘇村久石４１７２－１",
      "lat": 32.803737855,
      "lng": 131.040587752,
      "geocoding_level": 8,
      "phone": "",
      "license_no": "",
      "license_date": "2020-05-29",
      "expire_date": null
    },
    {
      "name": "",
      "name_kana": "",
      "business_type": "菓子製造業",
      "address": "阿蘇郡南阿蘇村河陽３６９０",
      "lat": 32.869851,
      "lng": 131.000524,
      "geocoding_level": 3,
      "phone": "",
      "license_no": "",
      "license_date": "2020-05-29",
      "expire_date": null
    },
    {
      "name": "",
      "name_kana": "",
      "business_type": "食肉製品製造業",
      "address": "阿蘇郡南阿蘇村大字河陽５５８０－１３",
      "lat": 32.897891063,
      "lng": 131.008703694,
      "geocoding_level": 8,
      "phone": "",
      "license_no": "",
      "license_date": "2020-05-29",
      "expire_date": null
    },
    {
      "name": "",
      "name_kana": "",
      "business_type": "食品製造業",
      "address": "阿蘇郡南阿蘇村河陽３３６２",
      "lat": 32.869851,
      "lng": 131.000524,
      "geocoding_level": 3,
      "phone": "",
      "license_no": "",
      "license_date": "2020-05-29",
      "expire_date": null
    },
    {
      "name": "",
      "name_kana": "",
      "business_type": "食品販売業",
      "address": "阿蘇郡南阿蘇村大字久石字ニノ長迫２７５２－１",
      "lat": 32.805134,
      "lng": 131.059873,
      "geocoding_level": 3,
      "phone": "",
      "license_no": "",
      "license_date": "2020-05-29",
      "expire_date": null
    },
    {
      "name": "",
      "name_kana": "",
      "business_type": "食品販売業",
      "address": "阿蘇郡南阿蘇村大字吉田１４６２番地の１",
      "lat": 32.824004118,
      "lng": 131.081653842,
      "geocoding_level": 8,
      "phone": "",
      "license_no": "",
      "license_date": "2020-05-29",
      "expire_date": null
    },
    {
      "name": "",
      "name_kana": "",
      "business_type": "食品販売業",
      "address": "阿蘇郡南阿蘇村立野１５７６",
      "lat": 32.879425,
      "lng": 130.973844,
      "geocoding_level": 3,
      "phone": "",
      "license_no": "",
      "license_date": "2020-05-29",
      "expire_date": null
    },