{
  "meta": {
    "updated": 1783906731,
    "sources": [
      {
        "source": "三重県 食品営業許可施設",
        "license": "Creative Commons Attribution 4.0 International"
      },
      {
        "source": "厚生労働省 食品衛生申請等システム（オープンデータ）",
        "license": "公共データ利用規約（第1.0版, PDL1.0）"
      }
    ]
  },
  "data": [
    {
      "name": "有限会社肉料理まつむら",
      "name_kana": "",
      "business_type": "飲食店営業",
      "address": "鳥羽市大明東町２０－４",
      "lat": 34.467321761,
      "lng": 136.849788856,
      "geocoding_level": 8,
      "phone": "0599-25-5758",
      "license_no": "志2301-0316",
      "license_date": null,
      "expire_date": null
    },
    {
      "name": "株式会社セラヴィリゾート泉郷",
      "name_kana": "",
      "business_type": "飲食店営業",
      "address": "鳥羽市安楽島町１０６１－９",
      "lat": 34.475128372,
      "lng": 136.862789242,
      "geocoding_level": 8,
      "phone": "",
      "license_no": "志2301-0363",
      "license_date": null,
      "expire_date": null
    },
    {
      "name": "株式会社セラヴィリゾート泉郷",
      "name_kana": "",
      "business_type": "飲食店営業",
      "address": "鳥羽市安楽島町１０６１－９",
      "lat": 34.475128372,
      "lng": 136.862789242,
      "geocoding_level": 8,
      "phone": "",
      "license_no": "志2301-0362",
      "license_date": null,
      "expire_date": null
    },
    {
      "name": "有限会社伊勢志摩水産",
      "name_kana": "",
      "business_type": "飲食店営業",
      "address": "鳥羽市相差町１２５６",
      "lat": 34.391004431,
      "lng": 136.905799368,
      "geocoding_level": 8,
      "phone": "0599-33-6560",
      "license_no": "志2401-0030",
      "license_date": null,
      "expire_date": null
    },
    {
      "name": "志摩マリンレジャー株式会社",
      "name_kana": "",
      "business_type": "飲食店営業",
      "address": "鳥羽市鳥羽１丁目２３８３ー４",
      "lat": 34.487879,
      "lng": 136.840414,
      "geocoding_level": 3,
      "phone": "0599-25-3145",
      "license_no": "志2501-0055",
      "license_date": null,
      "expire_date": null
    },
    {
      "name": "志摩マリンレジャー株式会社",
      "name_kana": "",
      "business_type": "飲食店営業",
      "address": "鳥羽市鳥羽１丁目２３８３ー４",
      "lat": 34.487879,
      "lng": 136.840414,
      "geocoding_level": 3,
      "phone": "0599-25-3145",
      "license_no": "志2501-0056",
      "license_date": null,
      "expire_date": null
    },
    {
      "name": "志摩マリンレジャー株式会社",
      "name_kana": "",
      "business_type": "飲食店営業",
      "address": "鳥羽市鳥羽１丁目２３８３ー４",
      "lat": 34.487879,
      "lng": 136.840414,
      "geocoding_level": 3,
      "phone": "0599-25-3145",
      "license_no": "志2501-0057",
      "license_date": null,
      "expire_date": null
    },
    {
      "name": "志摩マリンレジャー株式会社",
      "name_kana": "",
      "business_type": "飲食店営業",
      "address": "鳥羽市鳥羽１丁目２３８３ー４",
      "lat": 34.487879,
      "lng": 136.840414,
      "geocoding_level": 3,
      "phone": "0599-25-3145",
      "license_no": "志2501-0058",
      "license_date": null,
      "expire_date": null
    },
    {
      "name": "志摩マリンレジャー株式会社",
      "name_kana": "",
      "business_type": "飲食店営業",
      "address": "鳥羽市小浜町６２８",
      "lat": 34.49671000000001,
      "lng": 136.831265,
      "geocoding_level": 3,
      "phone": "0599-25-3177",
      "license_no": "志2401-0058",
      "license_date": null,
      "expire_date": null
    },
    {
      "name": "有限会社浜辺屋",
      "name_kana": "",
      "business_type": "飲食店営業",
      "address": "鳥羽市小浜町２７２－５８",
      "lat": 34.49671000000001,
      "lng": 136.831265,
      "geocoding_level": 3,
      "phone": "0599-25-2259",
      "license_no": "志2401-0123",
      "license_date": null,
      "expire_date": null
    },
    {
      "name": "野村　孝市",
      "name_kana": "",
      "business_type": "飲食店営業",
      "address": "鳥羽市相差町１４０５",
      "lat": 34.391788999,
      "lng": 136.90636023700003,
      "geocoding_level": 8,
      "phone": "0599-33-6346",
      "license_no": "志2401-0186",
      "license_date": null,
      "expire_date": null
    },
    {
      "name": "髙浪安司",
      "name_kana": "",
      "business_type": "飲食店営業",
      "address": "鳥羽市大明東町５－８",
      "lat": 34.467498868,
      "lng": 136.853663893,
      "geocoding_level": 8,
      "phone": "0599-25-6476",
      "license_no": "志2401-0382",
      "license_date": null,
      "expire_date": null
    },
    {
      "name": "井村太人",
      "name_kana": "",
      "business_type": "飲食店営業",
      "address": "鳥羽市相差町１４５７－２の内",
      "lat": 34.39299711,
      "lng": 136.909226131,
      "geocoding_level": 8,
      "phone": "",
      "license_no": "志2501-0005",
      "license_date": null,
      "expire_date": null
    },
    {
      "name": "下村光行",
      "name_kana": "",
      "business_type": "飲食店営業",
      "address": "鳥羽市相差町１２１３－２",
      "lat": 34.390658614,
      "lng": 136.908806376,
      "geocoding_level": 8,
      "phone": "0599-33-6039",
      "license_no": "志2501-0001",
      "license_date": null,
      "expire_date": null
    },
    {
      "name": "ＮＡＫＡＺＡＴＯ　ＪＩＲＡＰＡ",
      "name_kana": "",
      "business_type": "飲食店営業",
      "address": "鳥羽市鳥羽２丁目３－１６",
      "lat": 34.482702449,
      "lng": 136.841236068,
      "geocoding_level": 8,
      "phone": "0599-26-3577",
      "license_no": "志2101-0156",
      "license_date": null,
      "expire_date": null
    },
    {
      "name": "三浦千穂",
      "name_kana": "",
      "business_type": "飲食店営業",
      "address": "鳥羽市安楽島町１３０３－９",
      "lat": 34.46920138,
      "lng": 136.854427426,
      "geocoding_level": 8,
      "phone": "0599-26-2615",
      "license_no": "志2101-0175",
      "license_date": null,
      "expire_date": null
    },
    {
      "name": "浜口　寛",
      "name_kana": "",
      "business_type": "飲食店営業",
      "address": "鳥羽市答志町７７８",
      "lat": 34.524463,
      "lng": 136.891855,
      "geocoding_level": 3,
      "phone": "0599-37-2109",
      "license_no": "志2501-0313",
      "license_date": null,
      "expire_date": null
    },
    {
      "name": "杉原　和子",
      "name_kana": "",
      "business_type": "飲食店営業",
      "address": "鳥羽市安楽島町１４１２－７",
      "lat": 34.466983794,
      "lng": 136.852821649,
      "geocoding_level": 8,
      "phone": "0599-21-1129",
      "license_no": "志2601-0019",
      "license_date": null,
      "expire_date": null
    },
    {
      "name": "伊勢志摩リゾートマネジメント株式会社",
      "name_kana": "",
      "business_type": "飲食店営業（旧）",
      "address": "鳥羽市鳥羽１丁目２３番１号",
      "lat": 34.488321454,
      "lng": 136.839528812,
      "geocoding_level": 8,
      "phone": "0599-26-4123",
      "license_no": "伊 保第 62-0201-0098 号",
      "license_date": null,
      "expire_date": null
    },
    {
      "name": "伊勢志摩リゾートマネジメント株式会社",
      "name_kana": "",
      "business_type": "飲食店営業",
      "address": "鳥羽市鳥羽１丁目２３－１",
      "lat": 34.488321454,
      "lng": 136.839528812,
      "geocoding_level": 8,
      "phone": "",
      "license_no": "志2301-0361",
      "license_date": null,
      "expire_date": null
    },
    {
      "name": "伊勢志摩リゾートマネジメント株式会社",
      "name_kana": "",
      "business_type": "飲食店営業（旧）",
      "address": "鳥羽市鳥羽１丁目２３－１",
      "lat": 34.488321454,
      "lng": 136.839528812,
      "geocoding_level": 8,
      "phone": "0599-26-4123",
      "license_no": "伊 保第 62-0201-0100 号",
      "license_date": null,
      "expire_date": null
    },
    {
      "name": "伊勢志摩リゾートマネジメント株式会社",
      "name_kana": "",
      "business_type": "飲食店営業（旧）",
      "address": "鳥羽市鳥羽１丁目２３番１号",
      "lat": 34.488321454,
      "lng": 136.839528812,
      "geocoding_level": 8,
      "phone": "0599-26-4123",
      "license_no": "伊 保第 62-0201-0103 号",
      "license_date": null,
      "expire_date": null
    },
    {
      "name": "株式会社女将塾",
      "name_kana": "",
      "business_type": "飲食店営業（旧）",
      "address": "鳥羽市安楽島町８９３－１",
      "lat": 34.465561653,
      "lng": 136.870901813,
      "geocoding_level": 8,
      "phone": "0599-26-2600",
      "license_no": "伊 保第 62-0201-0108 号",
      "license_date": null,
      "expire_date": null
    },
    {
      "name": "株式会社女将塾",
      "name_kana": "",
      "business_type": "飲食店営業（旧）",
      "address": "鳥羽市安楽島町８９３－１",
      "lat": 34.465561653,
      "lng": 136.870901813,
      "geocoding_level": 8,
      "phone": "0599-26-2600",
      "license_no": "伊 保第 62-0201-0109 号",
      "license_date": null,
      "expire_date": null
    },
    {
      "name": "株式会社松村",
      "name_kana": "",
      "business_type": "飲食店営業（旧）",
      "address": "鳥羽市浦村町７－１",
      "lat": 34.450152605,
      "lng": 136.874922042,
      "geocoding_level": 8,
      "phone": "0599-32-5352",
      "license_no": "伊 保第 62-0201-0147 号",
      "license_date": null,
      "expire_date": null
    },
    {
      "name": "野村茂幸",
      "name_kana": "",
      "business_type": "飲食店営業（旧）",
      "address": "鳥羽市相差町１０８９－１",
      "lat": 34.389738416,
      "lng": 136.90438092,
      "geocoding_level": 8,
      "phone": "0599-33-6036",
      "license_no": "伊 保第 62-0201-0149 号",
      "license_date": null,
      "expire_date": null
    },
    {
      "name": "伊勢志摩リゾートマネジメント株式会社",
      "name_kana": "",
      "business_type": "菓子製造業（旧）",
      "address": "鳥羽市鳥羽１丁目２３番１号",
      "lat": 34.488321454,
      "lng": 136.839528812,
      "geocoding_level": 8,
      "phone": "0599-26-4123",
      "license_no": "伊 保第 62-0203-0004 号",
      "license_date": null,
      "expire_date": null
    },
    {
      "name": "伊勢志摩リゾートマネジメント株式会社",
      "name_kana": "",
      "business_type": "菓子製造業（旧）",
      "address": "鳥羽市鳥羽１丁目２３番１号",
      "lat": 34.488321454,
      "lng": 136.839528812,
      "geocoding_level": 8,
      "phone": "0599-26-4123",
      "license_no": "伊 保第 62-0203-0005 号",
      "license_date": null,
      "expire_date": null
    },
    {
      "name": "伊勢志摩リゾートマネジメント株式会社",
      "name_kana": "",
      "business_type": "菓子製造業",
      "address": "鳥羽市鳥羽１丁目２３－１",
      "lat": 34.488321454,
      "lng": 136.839528812,
      "geocoding_level": 8,
      "phone": "0599-25‐3121",
      "license_no": "志2511-0020",
      "license_date": null,
      "expire_date": null
    },
    {
      "name": "岡村一郎",
      "name_kana": "",
      "business_type": "菓子製造業（旧）",
      "address": "鳥羽市船津町市場５２１",
      "lat": 34.463553,
      "lng": 136.837264,
      "geocoding_level": 3,
      "phone": "0599-25-2905",
      "license_no": "伊 保第 62-0203-0008 号",
      "license_date": null,
      "expire_date": null
    },
    {
      "name": "松田進次",
      "name_kana": "",
      "business_type": "飲食店営業（旧）",
      "address": "鳥羽市大明東町２０８９－５４",
      "lat": 34.469298,
      "lng": 136.851274,
      "geocoding_level": 3,
      "phone": "0599-26-2520",
      "license_no": "伊 保第 62-0301-0012 号",
      "license_date": null,
      "expire_date": null
    },
    {
      "name": "公益財団法人東海水産科学協会",
      "name_kana": "",
      "business_type": "飲食店営業（旧）",
      "address": "鳥羽市浦村町１７３１－６８",
      "lat": 34.449030883,
      "lng": 136.899616738,
      "geocoding_level": 8,
      "phone": "0599-32-6006",
      "license_no": "伊 保第 62-0301-0037 号",
      "license_date": null,
      "expire_date": null
    },
    {
      "name": "伊藤　千草",
      "name_kana": "",
      "business_type": "飲食店営業",
      "address": "鳥羽市安楽島町１３０３－９",
      "lat": 34.46920138,
      "lng": 136.854427426,
      "geocoding_level": 8,
      "phone": "0599-26-4830",
      "license_no": "志2301-0278",
      "license_date": null,
      "expire_date": null
    },
    {
      "name": "有限会社ＫＡＫＵＴＯ",
      "name_kana": "",
      "business_type": "魚介類販売業（旧）",
      "address": "鳥羽市浦村町１２２９－７９",
      "lat": 34.444124891,
      "lng": 136.88696345,
      "geocoding_level": 8,
      "phone": "0599-32-5966",
      "license_no": "伊 保第 62-0309-0003 号",
      "license_date": null,
      "expire_date": null
    },
    {
      "name": "株式会社羽柴商店",
      "name_kana": "",
      "business_type": "そうざい製造業",
      "address": "鳥羽市鳥羽１丁目２０－３",
      "lat": 34.485994758,
      "lng": 136.835088007,
      "geocoding_level": 8,
      "phone": "0599-25-2252",
      "license_no": "志2225-0008",
      "license_date": null,
      "expire_date": null
    },
    {
      "name": "株式会社羽柴商店",
      "name_kana": "",
      "business_type": "菓子製造業",
      "address": "鳥羽市鳥羽１丁目２０－３",
      "lat": 34.485994758,
      "lng": 136.835088007,
      "geocoding_level": 8,
      "phone": "0599-25-2252",
      "license_no": "志2211-0025",
      "license_date": null,
      "expire_date": null
    },
    {
      "name": "堂下　晴代",
      "name_kana": "",
      "business_type": "飲食店営業",
      "address": "鳥羽市堅神町９９５－５",
      "lat": 34.472593,
      "lng": 136.817687,
      "geocoding_level": 3,
      "phone": "0599-26-7755",
      "license_no": "志2201-0047",
      "license_date": null,
      "expire_date": null
    },
    {
      "name": "鳥羽シーサイドホテル株式会社",
      "name_kana": "",
      "business_type": "飲食店営業",
      "address": "鳥羽市安楽島町１０８４",
      "lat": 34.478417561,
      "lng": 136.851169488,
      "geocoding_level": 8,
      "phone": "0599-25-5151",
      "license_no": "志2201-0049",
      "license_date": null,
      "expire_date": null
    },
    {
      "name": "久世　庸介",
      "name_kana": "",
      "business_type": "飲食店営業",
      "address": "鳥羽市相差町２１２０－１６８",
      "lat": 34.398972391,
      "lng": 136.890521219,
      "geocoding_level": 8,
      "phone": "0599-21-6030",
      "license_no": "志2201-0143",
      "license_date": null,
      "expire_date": null
    },
    {
      "name": "有限会社杉田商店",
      "name_kana": "",
      "business_type": "飲食店営業",
      "address": "鳥羽市菅島町９０",
      "lat": 34.489938,
      "lng": 136.888162,
      "geocoding_level": 3,
      "phone": "0599-34-2020",
      "license_no": "志2401-0326",
      "license_date": null,
      "expire_date": null
    },
    {
      "name": "山本　さやか",
      "name_kana": "",
      "business_type": "飲食店営業",
      "address": "鳥羽市船津町１２０５－７",
      "lat": 34.4618143,
      "lng": 136.845473823,
      "geocoding_level": 8,
      "phone": "0599-25-1305",
      "license_no": "志2201-0162",
      "license_date": null,
      "expire_date": null
    },
    {
      "name": "有限会社天びん屋",
      "name_kana": "",
      "business_type": "飲食店営業",
      "address": "鳥羽市鳥羽１丁目４－６１",
      "lat": 34.484182891,
      "lng": 136.842989587,
      "geocoding_level": 8,
      "phone": "0599-25-2223",
      "license_no": "志2201-0173",
      "license_date": null,
      "expire_date": null
    },
    {
      "name": "有限会社杉田商店",
      "name_kana": "",
      "business_type": "魚介類販売業",
      "address": "鳥羽市菅島町９０",
      "lat": 34.489938,
      "lng": 136.888162,
      "geocoding_level": 3,
      "phone": "0599-34-2020",
      "license_no": "志2404-0021",
      "license_date": null,
      "expire_date": null
    },
    {
      "name": "中村　鈴子",
      "name_kana": "",
      "business_type": "飲食店営業",
      "address": "鳥羽市鳥羽１丁目８－７",
      "lat": 34.485887311,
      "lng": 136.844203066,
      "geocoding_level": 8,
      "phone": "0599-25-2511",
      "license_no": "志2201-0191",
      "license_date": null,
      "expire_date": null
    },
    {
      "name": "日清医療食品株式会社",
      "name_kana": "",
      "business_type": "飲食店営業",
      "address": "鳥羽市安楽島町１０７５－２９",
      "lat": 34.476268932,
      "lng": 136.86179019,
      "geocoding_level": 8,
      "phone": "0599-26-2060",
      "license_no": "志2201-0196",
      "license_date": null,
      "expire_date": null
    },
    {
      "name": "鈴木淑美",
      "name_kana": "",
      "business_type": "飲食店営業",
      "address": "鳥羽市鳥羽１丁目８－７",
      "lat": 34.485887311,
      "lng": 136.844203066,
      "geocoding_level": 8,
      "phone": "0599-26-2929",
      "license_no": "志2401-0452",
      "license_date": null,
      "expire_date": null
    },
    {
      "name": "尾﨑　薫",
      "name_kana": "",
      "business_type": "飲食店営業",
      "address": "鳥羽市鳥羽２丁目９－３",
      "lat": 34.482652789,
      "lng": 136.839772036,
      "geocoding_level": 8,
      "phone": "0599-25-8226",
      "license_no": "志2301-0146",
      "license_date": null,
      "expire_date": null
    },
    {
      "name": "上村　久義",
      "name_kana": "",
      "business_type": "飲食店営業",
      "address": "鳥羽市相差町４３１",
      "lat": 34.38735418000001,
      "lng": 136.907154209,
      "geocoding_level": 8,
      "phone": "0599-33-6221",
      "license_no": "志2301-0215",
      "license_date": null,
      "expire_date": null
    },
    {
      "name": "大門啓士",
      "name_kana": "",
      "business_type": "飲食店営業",
      "address": "鳥羽市鳥羽１丁目２１－１３",
      "lat": 34.486162484,
      "lng": 136.836402536,
      "geocoding_level": 8,
      "phone": "0599-26-6002",
      "license_no": "志2101-0230",
      "license_date": null,
      "expire_date": null
    },
    {
      "name": "鳥羽磯部漁業協同組合",
      "name_kana": "",
      "business_type": "魚介類販売業",
      "address": "鳥羽市鳥羽４丁目２３６０－１４",
      "lat": 34.47465600000001,
      "lng": 136.845378,
      "geocoding_level": 3,
      "phone": "0599-25-1251",
      "license_no": "志2204-0014",
      "license_date": null,
      "expire_date": null
    },
    {
      "name": "橋本和典",
      "name_kana": "",
      "business_type": "魚介類販売業",
      "address": "鳥羽市答志町７９３",
      "lat": 34.524463,
      "lng": 136.891855,
      "geocoding_level": 3,
      "phone": "0599-37-2040",
      "license_no": "志2504-0004",
      "license_date": null,
      "expire_date": null
    },
    {
      "name": "株式会社英治丸",
      "name_kana": "",
      "business_type": "水産製品製造業",
      "address": "鳥羽市浦村町１４２９－６",
      "lat": 34.442148019,
      "lng": 136.895660831,
      "geocoding_level": 8,
      "phone": "0599-32-5519",
      "license_no": "志2416-0012",
      "license_date": null,
      "expire_date": null
    },
    {
      "name": "橋本　和典",
      "name_kana": "",
      "business_type": "そうざい製造業",
      "address": "鳥羽市答志町２１６２",
      "lat": 34.524463,
      "lng": 136.891855,
      "geocoding_level": 3,
      "phone": "0599-37-2040",
      "license_no": "志2325-0006",
      "license_date": null,
      "expire_date": null
    },
    {
      "name": "有限会社ティーケイ写真",
      "name_kana": "",
      "business_type": "飲食店営業",
      "address": "鳥羽市相差町８０１－１４",
      "lat": 34.385687703,
      "lng": 136.899990837,
      "geocoding_level": 8,
      "phone": "0599-33-6056",
      "license_no": "志2301-0311",
      "license_date": null,
      "expire_date": null
    },
    {
      "name": "株式会社英治丸",
      "name_kana": "",
      "business_type": "飲食店営業",
      "address": "鳥羽市浦村町１４２９－６",
      "lat": 34.442148019,
      "lng": 136.895660831,
      "geocoding_level": 8,
      "phone": "0599-32-5519",
      "license_no": "志2501-0370",
      "license_date": null,
      "expire_date": null
    },
    {
      "name": "松井智紀",
      "name_kana": "",
      "business_type": "飲食店営業",
      "address": "鳥羽市鳥羽１丁目３－１０",
      "lat": 34.483093546,
      "lng": 136.841445946,
      "geocoding_level": 8,
      "phone": "0599-26-2045",
      "license_no": "志2401-0015",
      "license_date": null,
      "expire_date": null
    },
    {
      "name": "伊勢湾フェリー株式会社",
      "name_kana": "",
      "business_type": "飲食店営業",
      "address": "鳥羽市鳥羽３丁目１４８４－１１１",
      "lat": 34.480488,
      "lng": 136.843988,
      "geocoding_level": 3,
      "phone": "0599-26-3335",
      "license_no": "志2401-0213",
      "license_date": null,
      "expire_date": null
    },
    {
      "name": "伊勢湾フェリー株式会社",
      "name_kana": "",
      "business_type": "飲食店営業",
      "address": "鳥羽市鳥羽３丁目１４８４－１１１",
      "lat": 34.480488,
      "lng": 136.843988,
      "geocoding_level": 3,
      "phone": "0599-26-3335",
      "license_no": "志2401-0212",
      "license_date": null,
      "expire_date": null
    },
    {
      "name": "伊勢湾フェリー株式会社",
      "name_kana": "",
      "business_type": "飲食店営業",
      "address": "鳥羽市鳥羽３丁目１４８４－１１１",
      "lat": 34.480488,
      "lng": 136.843988,
      "geocoding_level": 3,
      "phone": "0599-26-3335",
      "license_no": "志2401-0214",
      "license_date": null,
      "expire_date": null
    },
    {
      "name": "有限会社カワグチ",
      "name_kana": "",
      "business_type": "飲食店営業",
      "address": "鳥羽市鳥羽１丁目２４－２６　 戸田家内",
      "lat": 34.487955022,
      "lng": 136.841363498,
      "geocoding_level": 8,
      "phone": "",
      "license_no": "志2401-0243",
      "license_date": null,
      "expire_date": null
    },
    {
      "name": "出口幸保",
      "name_kana": "",
      "business_type": "飲食店営業",
      "address": "鳥羽市鳥羽３丁目２４２２",
      "lat": 34.480488,
      "lng": 136.843988,
      "geocoding_level": 3,
      "phone": "0599-26-2923",
      "license_no": "志2401-0244",
      "license_date": null,
      "expire_date": null
    },
    {
      "name": "久保田正徳",
      "name_kana": "",
      "business_type": "飲食店営業",
      "address": "鳥羽市浦村町１７５１－１８",
      "lat": 34.44717415900001,
      "lng": 136.897887985,
      "geocoding_level": 8,
      "phone": "0599-32-5839",
      "license_no": "志2101-0104",
      "license_date": null,
      "expire_date": null
    },
    {
      "name": "久保田正徳",
      "name_kana": "",
      "business_type": "水産製品製造業",
      "address": "鳥羽市浦村町１７５１－１８",
      "lat": 34.44717415900001,
      "lng": 136.897887985,
      "geocoding_level": 8,
      "phone": "0599-32-5839",
      "license_no": "志2116-0007",
      "license_date": null,
      "expire_date": null
    },
    {
      "name": "中山真",
      "name_kana": "",
      "business_type": "飲食店営業",
      "address": "鳥羽市浦村町１２０８－１",
      "lat": 34.441639418,
      "lng": 136.886013232,
      "geocoding_level": 8,
      "phone": "0599-32-5053",
      "license_no": "志2101-0140",
      "license_date": null,
      "expire_date": null
    },
    {
      "name": "株式会社ミネルヴァ",
      "name_kana": "",
      "business_type": "飲食店営業",
      "address": "鳥羽市鳥羽１丁目２３８３－１３",
      "lat": 34.487879,
      "lng": 136.840414,
      "geocoding_level": 3,
      "phone": "0599-26-2082",
      "license_no": "志2401-0318",
      "license_date": null,
      "expire_date": null
    },
    {
      "name": "濱田源洋",
      "name_kana": "",
      "business_type": "飲食店営業",
      "address": "鳥羽市浦村町１５０９",
      "lat": 34.43319700000001,
      "lng": 136.901249,
      "geocoding_level": 3,
      "phone": "0599-32-5742",
      "license_no": "志2101-0235",
      "license_date": null,
      "expire_date": null
    },
    {
      "name": "家田寛子",
      "name_kana": "",
      "business_type": "飲食店営業",
      "address": "鳥羽市鳥羽５丁目２５－２０",
      "lat": 34.469265,
      "lng": 136.841629,
      "geocoding_level": 3,
      "phone": "0599-26-5710",
      "license_no": "志2501-0052",
      "license_date": null,
      "expire_date": null
    },
    {
      "name": "小林一美",
      "name_kana": "",
      "business_type": "飲食店営業",
      "address": "鳥羽市浦村町２４４－１",
      "lat": 34.440684511,
      "lng": 136.879640583,
      "geocoding_level": 8,
      "phone": "",
      "license_no": "志2501-0219",
      "license_date": null,
      "expire_date": null
    },
    {
      "name": "松崎　真治",
      "name_kana": "",
      "business_type": "飲食店営業",
      "address": "鳥羽市鳥羽２丁目８－５１",
      "lat": 34.481565,
      "lng": 136.83898,
      "geocoding_level": 3,
      "phone": "",
      "license_no": "志2201-0178",
      "license_date": null,
      "expire_date": null
    },
    {
      "name": "鳥羽商工会議所",
      "name_kana": "",
      "business_type": "飲食店営業",
      "address": "鳥羽市鳥羽１丁目４－５９",
      "lat": 34.48428194700001,
      "lng": 136.843166621,
      "geocoding_level": 8,
      "phone": "0599-25-1372",
      "license_no": "志2201-0177",
      "license_date": null,
      "expire_date": null
    },
    {
      "name": "株式会社サン浦島",
      "name_kana": "",
      "business_type": "そうざい製造業",
      "address": "鳥羽市浦村町１２１５－５",
      "lat": 34.443023167,
      "lng": 136.886410858,
      "geocoding_level": 8,
      "phone": "0599-32-6111",
      "license_no": "志2525-0010",
      "license_date": null,
      "expire_date": null
    },
    {
      "name": "有限会社錦屋",
      "name_kana": "",
      "business_type": "飲食店営業（旧）",
      "address": "鳥羽市鳥羽３丁目３２番８号",
      "lat": 34.478423604,
      "lng": 136.845630332,
      "geocoding_level": 8,
      "phone": "0599-25-7160",
      "license_no": "伊 保第 62-0801-0071 号",
      "license_date": null,
      "expire_date": null
    },
    {
      "name": "株式会社サン浦島",
      "name_kana": "",
      "business_type": "飲食店営業（旧）",
      "address": "鳥羽市石鏡町中ノ山４７３　他２４筆",
      "lat": 34.441433,
      "lng": 136.917741,
      "geocoding_level": 3,
      "phone": "0599-21-8111",
      "license_no": "伊 保第 62-0801-0079 号",
      "license_date": null,
      "expire_date": null
    },
    {
      "name": "株式会社サン浦島",
      "name_kana": "",
      "business_type": "飲食店営業（旧）",
      "address": "鳥羽市石鏡町中ノ山４７３　他２４筆",
      "lat": 34.441433,
      "lng": 136.917741,
      "geocoding_level": 3,
      "phone": "0599-21-8111",
      "license_no": "伊 保第 62-0801-0080 号",
      "license_date": null,
      "expire_date": null
    },
    {
      "name": "山本　くに代",
      "name_kana": "",
      "business_type": "飲食店営業",
      "address": "鳥羽市浦村町１８５０－１４",
      "lat": 34.447923419000006,
      "lng": 136.91403149,
      "geocoding_level": 8,
      "phone": "0599-32-5177",
      "license_no": "志2301-0168",
      "license_date": null,
      "expire_date": null
    },
    {
      "name": "山本　くに代",
      "name_kana": "",
      "business_type": "水産製品製造業",
      "address": "鳥羽市浦村町１８５０－１４",
      "lat": 34.447923419000006,
      "lng": 136.91403149,
      "geocoding_level": 8,
      "phone": "0599-32-5177",
      "license_no": "志2316-0027",
      "license_date": null,
      "expire_date": null
    },
    {
      "name": "季さらホテル＆リゾーツ株式会社",
      "name_kana": "",
      "business_type": "飲食店営業（旧）",
      "address": "鳥羽市安楽島町字高山１０７５－１１",
      "lat": 34.463592,
      "lng": 136.865802,
      "geocoding_level": 3,
      "phone": "0599-21-1700",
      "license_no": "伊 保第 62-0801-0156 号",
      "license_date": null,
      "expire_date": null
    },
    {
      "name": "山下　栄造",
      "name_kana": "",
      "business_type": "飲食店営業",
      "address": "鳥羽市浦村町１－７",
      "lat": 34.453950416,
      "lng": 136.874632747,
      "geocoding_level": 8,
      "phone": "0599-32-6009",
      "license_no": "志2301-0236",
      "license_date": null,
      "expire_date": null
    },
    {
      "name": "株式会社丸愛",
      "name_kana": "",
      "business_type": "飲食店営業（旧）",
      "address": "鳥羽市堅神町８３３番地",
      "lat": 34.472593,
      "lng": 136.817687,
      "geocoding_level": 3,
      "phone": "0599-21-1010",
      "license_no": "伊 保第 62-0801-0175 号",
      "license_date": null,
      "expire_date": null
    },
    {
      "name": "株式会社寿司丸忠",
      "name_kana": "",
      "business_type": "飲食店営業（旧）",
      "address": "鳥羽市大明西町１番１号",
      "lat": 34.470661709,
      "lng": 136.847552107,
      "geocoding_level": 8,
      "phone": "0599-25-8887",
      "license_no": "伊 保第 62-0801-0177 号",
      "license_date": null,
      "expire_date": null
    },
    {
      "name": "藤原　豊正",
      "name_kana": "",
      "business_type": "菓子製造業",
      "address": "鳥羽市鳥羽３丁目１－５０",
      "lat": 34.4798412,
      "lng": 136.844936478,
      "geocoding_level": 8,
      "phone": "",
      "license_no": "志2311-0003",
      "license_date": null,
      "expire_date": null
    },
    {
      "name": "株式会社共栄産業",
      "name_kana": "",
      "business_type": "そうざい製造業",
      "address": "鳥羽市松尾町６６０",
      "lat": 34.422091,
      "lng": 136.842096,
      "geocoding_level": 3,
      "phone": "0599-21-1136",
      "license_no": "志2525-0013",
      "license_date": null,
      "expire_date": null
    },
    {
      "name": "共栄物産株式会社",
      "name_kana": "",
      "business_type": "飲食店営業",
      "address": "鳥羽市浦村町１４１４－１５",
      "lat": 34.442124576,
      "lng": 136.892543193,
      "geocoding_level": 8,
      "phone": "0599-32-5040",
      "license_no": "志2201-0201",
      "license_date": null,
      "expire_date": null
    },
    {
      "name": "共栄物産株式会社",
      "name_kana": "",
      "business_type": "水産製品製造業",
      "address": "鳥羽市浦村町１４１４－１５",
      "lat": 34.442124576,
      "lng": 136.892543193,
      "geocoding_level": 8,
      "phone": "0599-32-5040",
      "license_no": "志2216-0017",
      "license_date": null,
      "expire_date": null
    },
    {
      "name": "山下　トミ子",
      "name_kana": "",
      "business_type": "飲食店営業",
      "address": "鳥羽市浦村町１５３４－２",
      "lat": 34.446563164,
      "lng": 136.893283213,
      "geocoding_level": 8,
      "phone": "0599-32-5522",
      "license_no": "志2301-0329",
      "license_date": null,
      "expire_date": null
    },
    {
      "name": "久保田　豊一郎",
      "name_kana": "",
      "business_type": "飲食店営業",
      "address": "鳥羽市浦村町１５１０",
      "lat": 34.44492464,
      "lng": 136.891321282,
      "geocoding_level": 8,
      "phone": "0599-32-5230",
      "license_no": "志2301-0331",
      "license_date": null,
      "expire_date": null
    },
    {
      "name": "久保田　豊一郎",
      "name_kana": "",
      "business_type": "水産製品製造業",
      "address": "鳥羽市浦村町１５１０",
      "lat": 34.44492464,
      "lng": 136.891321282,
      "geocoding_level": 8,
      "phone": "0599-32-5230",
      "license_no": "志2316-0029",
      "license_date": null,
      "expire_date": null
    },
    {
      "name": "濵口久幸",
      "name_kana": "",
      "business_type": "飲食店営業（旧）",
      "address": "鳥羽市大明西町１－１",
      "lat": 34.470661709,
      "lng": 136.847552107,
      "geocoding_level": 8,
      "phone": "0599-25-4113",
      "license_no": "伊 保第 62-0901-0035 号",
      "license_date": null,
      "expire_date": null
    },
    {
      "name": "株式会社胡蝶蘭",
      "name_kana": "",
      "business_type": "飲食店営業（旧）",
      "address": "鳥羽市小浜町２３７－１",
      "lat": 34.49671000000001,
      "lng": 136.831265,
      "geocoding_level": 3,
      "phone": "0599-25-2170",
      "license_no": "伊 保第 62-0901-0036 号",
      "license_date": null,
      "expire_date": null
    },
    {
      "name": "鳥羽磯部漁業協同組合",
      "name_kana": "",
      "business_type": "飲食店営業（旧）",
      "address": "鳥羽市堅神町８３３",
      "lat": 34.472593,
      "lng": 136.817687,
      "geocoding_level": 3,
      "phone": "0599-21-1522",
      "license_no": "伊 保第 62-0901-0046 号",
      "license_date": null,
      "expire_date": null
    },
    {
      "name": "株式会社鈴鹿英数学院",
      "name_kana": "",
      "business_type": "飲食店営業（旧）",
      "address": "鳥羽市安楽島町ミヤマ９４９",
      "lat": 34.463592,
      "lng": 136.865802,
      "geocoding_level": 3,
      "phone": "0599-25-3980",
      "license_no": "伊 保第 62-0901-0051 号",
      "license_date": null,
      "expire_date": null
    },
    {
      "name": "有限会社七越本店",
      "name_kana": "",
      "business_type": "飲食店営業",
      "address": "鳥羽市鳥羽５丁目２９－１２",
      "lat": 34.469265,
      "lng": 136.841629,
      "geocoding_level": 3,
      "phone": "0599-25-2264",
      "license_no": "志2101-0100",
      "license_date": null,
      "expire_date": null
    },
    {
      "name": "間宮まり",
      "name_kana": "",
      "business_type": "飲食店営業",
      "address": "鳥羽市安楽島町１－８",
      "lat": 34.454240605,
      "lng": 136.871804882,
      "geocoding_level": 8,
      "phone": "",
      "license_no": "志2401-0209",
      "license_date": null,
      "expire_date": null
    },
    {
      "name": "柴田由紀子",
      "name_kana": "",
      "business_type": "飲食店営業",
      "address": "鳥羽市鳥羽１丁目２３８０－２８",
      "lat": 34.487879,
      "lng": 136.840414,
      "geocoding_level": 3,
      "phone": "0599-25-4809",
      "license_no": "志2401-0317",
      "license_date": null,
      "expire_date": null
    },
    {
      "name": "山下元康",
      "name_kana": "",
      "business_type": "魚介類販売業（旧）",
      "address": "鳥羽市大明西町１－１",
      "lat": 34.470661709,
      "lng": 136.847552107,
      "geocoding_level": 8,
      "phone": "0599-25-2337",
      "license_no": "伊 保第 62-0909-0005 号",
      "license_date": null,
      "expire_date": null
    },
    {
      "name": "小林吉幸",
      "name_kana": "",
      "business_type": "水産製品製造業",
      "address": "鳥羽市答志町９３５",
      "lat": 34.524463,
      "lng": 136.891855,
      "geocoding_level": 3,
      "phone": "0599-37-2259",
      "license_no": "志2116-0022",
      "license_date": null,
      "expire_date": null
    },
    {
      "name": "田島パヨム",
      "name_kana": "",
      "business_type": "飲食店営業",
      "address": "鳥羽市鳥羽１丁目１－５ （Ａ号）",
      "lat": 34.482698903,
      "lng": 136.841304604,
      "geocoding_level": 8,
      "phone": "0599-26-3319",
      "license_no": "志2401-0383",
      "license_date": null,
      "expire_date": null
    },
    {
      "name": "ＧＥＮＳＥＮ　ＨＯＬＤＩＮＧＳ株式会社",
      "name_kana": "",
      "business_type": "飲食店営業",
      "address": "鳥羽市小浜町６１０",
      "lat": 34.49671000000001,
      "lng": 136.831265,
      "geocoding_level": 3,
      "phone": "080‐5760‐4680",
      "license_no": "志2201-0025",
      "license_date": null,
      "expire_date": null
    },
    {
      "name": "下村秀樹",
      "name_kana": "",
      "business_type": "飲食店営業",
      "address": "鳥羽市堅神町８８０－３",
      "lat": 34.472593,
      "lng": 136.817687,
      "geocoding_level": 3,
      "phone": "0599-21-2828",
      "license_no": "志2101-0265",
      "license_date": null,
      "expire_date": null
    },
    {
      "name": "株式会社丸愛",
      "name_kana": "",
      "business_type": "飲食店営業",
      "address": "鳥羽市堅神町８３３",
      "lat": 34.472593,
      "lng": 136.817687,
      "geocoding_level": 3,
      "phone": "0599-21-1010",
      "license_no": "志2201-0007",
      "license_date": null,
      "expire_date": null
    },
    {
      "name": "株式会社松村",
      "name_kana": "",
      "business_type": "飲食店営業",
      "address": "鳥羽市畔蛸町１２７－２７",
      "lat": 34.39638442,
      "lng": 136.892998394,
      "geocoding_level": 8,
      "phone": "0599-33-7108",
      "license_no": "志2201-0057",
      "license_date": null,
      "expire_date": null
    },
    {
      "name": "濱﨑久和",
      "name_kana": "",
      "business_type": "飲食店営業",
      "address": "鳥羽市安楽島町２３",
      "lat": 34.453169681,
      "lng": 136.868596878,
      "geocoding_level": 8,
      "phone": "0599-37-7575",
      "license_no": "志2501-0086",
      "license_date": null,
      "expire_date": null
    },
    {
      "name": "西村あゆみ",
      "name_kana": "",
      "business_type": "飲食店営業",
      "address": "鳥羽市浦村町１３０－２０",
      "lat": 34.447952176,
      "lng": 136.880786246,
      "geocoding_level": 8,
      "phone": "0599-32-1750",
      "license_no": "志2501-0105",
      "license_date": null,
      "expire_date": null
    },
    {
      "name": "株式会社サンビーチ鳥羽",
      "name_kana": "",
      "business_type": "飲食店営業",
      "address": "鳥羽市桃取町１５９１",
      "lat": 34.517914,
      "lng": 136.874594,
      "geocoding_level": 3,
      "phone": "0599-37-1100",
      "license_no": "志2201-0067",
      "license_date": null,
      "expire_date": null
    },
    {
      "name": "株式会社サンビーチ鳥羽",
      "name_kana": "",
      "business_type": "飲食店営業",
      "address": "鳥羽市桃取町１５９１",
      "lat": 34.517914,
      "lng": 136.874594,
      "geocoding_level": 3,
      "phone": "0599-37-1100",
      "license_no": "志2201-0068",
      "license_date": null,
      "expire_date": null
    },
    {
      "name": "直木美保子",
      "name_kana": "",
      "business_type": "飲食店営業",
      "address": "鳥羽市相差町５００－２",
      "lat": 34.388500542,
      "lng": 136.906529388,
      "geocoding_level": 8,
      "phone": "0599-33-7373",
      "license_no": "志2101-0110",
      "license_date": null,
      "expire_date": null
    },
    {
      "name": "岩本　長寛",
      "name_kana": "",
      "business_type": "魚介類販売業",
      "address": "鳥羽市浦村町１２０３",
      "lat": 34.439187018,
      "lng": 136.883436366,
      "geocoding_level": 8,
      "phone": "0599-32-6036",
      "license_no": "志2304-0020",
      "license_date": null,
      "expire_date": null
    },
    {
      "name": "岩本長寛",
      "name_kana": "",
      "business_type": "飲食店営業",
      "address": "鳥羽市浦村町１２０３",
      "lat": 34.439187018,
      "lng": 136.883436366,
      "geocoding_level": 8,
      "phone": "0599-32-6036",
      "license_no": "志2501-0239",
      "license_date": null,
      "expire_date": null
    },
    {
      "name": "松本　誓子",
      "name_kana": "",
      "business_type": "飲食店営業",
      "address": "鳥羽市相差町１１４６",
      "lat": 34.389651555,
      "lng": 136.907593982,
      "geocoding_level": 8,
      "phone": "0599-33-7068",
      "license_no": "志2201-0103",
      "license_date": null,
      "expire_date": null
    },
    {
      "name": "里中　定弘",
      "name_kana": "",
      "business_type": "飲食店営業",
      "address": "鳥羽市鳥羽３丁目９－７",
      "lat": 34.481719639,
      "lng": 136.842527019,
      "geocoding_level": 8,
      "phone": "0599-25-1707",
      "license_no": "志2201-0141",
      "license_date": null,
      "expire_date": null
    },
    {
      "name": "小久保　松彦",
      "name_kana": "",
      "business_type": "飲食店営業",
      "address": "鳥羽市大明西町１－１",
      "lat": 34.470661709,
      "lng": 136.847552107,
      "geocoding_level": 8,
      "phone": "0599-26-2118",
      "license_no": "志2201-0172",
      "license_date": null,
      "expire_date": null
    },
    {
      "name": "有限会社肉料理まつむら",
      "name_kana": "",
      "business_type": "食肉販売業",
      "address": "鳥羽市大明東町２０－４",
      "lat": 34.467321761,
      "lng": 136.849788856,
      "geocoding_level": 8,
      "phone": "0599-25-2515",
      "license_no": "志2103-0005",
      "license_date": null,
      "expire_date": null
    },
    {
      "name": "株式会社マルタ金子商店",
      "name_kana": "",
      "business_type": "水産製品製造業",
      "address": "鳥羽市相差町５０５",
      "lat": 34.38866612,
      "lng": 136.907025273,
      "geocoding_level": 8,
      "phone": "0599-33-6021",
      "license_no": "志2416-0024",
      "license_date": null,
      "expire_date": null
    },
    {
      "name": "株式会社松村",
      "name_kana": "",
      "business_type": "そうざい製造業",
      "address": "鳥羽市畔蛸町１２７－２７",
      "lat": 34.39638442,
      "lng": 136.892998394,
      "geocoding_level": 8,
      "phone": "0599-33-7108",
      "license_no": "志2225-0001",
      "license_date": null,
      "expire_date": null
    },
    {
      "name": "有限会社山善",
      "name_kana": "",
      "business_type": "そうざい製造業",
      "address": "鳥羽市浦村町１５６０",
      "lat": 34.447304379,
      "lng": 136.896179488,
      "geocoding_level": 8,
      "phone": "0599-32-5216",
      "license_no": "志2525-0002",
      "license_date": null,
      "expire_date": null
    },
    {
      "name": "鳥羽磯部漁業協同組合",
      "name_kana": "",
      "business_type": "魚介類競り売り営業",
      "address": "鳥羽市答志町８９３－３地先",
      "lat": 34.524463,
      "lng": 136.891855,
      "geocoding_level": 3,
      "phone": "0599-37-2010",
      "license_no": "志2405-0006",
      "license_date": null,
      "expire_date": null
    },
    {
      "name": "鳥羽磯部漁業協同組合",
      "name_kana": "",
      "business_type": "魚介類競り売り営業",
      "address": "鳥羽市答志町１３５４－１１",
      "lat": 34.524463,
      "lng": 136.891855,
      "geocoding_level": 3,
      "phone": "0599-37-2018",
      "license_no": "志2405-0007",
      "license_date": null,
      "expire_date": null
    },
    {
      "name": "鳥羽磯部漁業協同組合",
      "name_kana": "",
      "business_type": "魚介類競り売り営業",
      "address": "鳥羽市桃取町９３－４",
      "lat": 34.517914,
      "lng": 136.874594,
      "geocoding_level": 3,
      "phone": "0599-37-3007",
      "license_no": "志2405-0005",
      "license_date": null,
      "expire_date": null
    },
    {
      "name": "鳥羽磯部漁業協同組合",
      "name_kana": "",
      "business_type": "魚介類競り売り営業",
      "address": "鳥羽市神島町８５－２",
      "lat": 34.545666,
      "lng": 136.981915,
      "geocoding_level": 3,
      "phone": "0599-38-2211",
      "license_no": "志2405-0008",
      "license_date": null,
      "expire_date": null
    },
    {
      "name": "鳥羽磯部漁業協同組合",
      "name_kana": "",
      "business_type": "魚介類競り売り営業",
      "address": "鳥羽市小浜町６４７－２５",
      "lat": 34.49671000000001,
      "lng": 136.831265,
      "geocoding_level": 3,
      "phone": "0599-25-2118",
      "license_no": "志2405-0001",
      "license_date": null,
      "expire_date": null
    },
    {
      "name": "鳥羽磯部漁業協同組合",
      "name_kana": "",
      "business_type": "魚介類競り売り営業",
      "address": "鳥羽市菅島町３０５",
      "lat": 34.489938,
      "lng": 136.888162,
      "geocoding_level": 3,
      "phone": "0599-34-2211",
      "license_no": "志2405-0004",
      "license_date": null,
      "expire_date": null
    },
    {
      "name": "鳥羽磯部漁業協同組合",
      "name_kana": "",
      "business_type": "魚介類競り売り営業",
      "address": "鳥羽市石鏡町２４２－５",
      "lat": 34.441433,
      "lng": 136.917741,
      "geocoding_level": 3,
      "phone": "0599-32-5004",
      "license_no": "志2405-0002",
      "license_date": null,
      "expire_date": null
    },
    {
      "name": "鳥羽磯部漁業協同組合",
      "name_kana": "",
      "business_type": "魚介類競り売り営業",
      "address": "鳥羽市国崎町４１７",
      "lat": 34.412848012,
      "lng": 136.923235977,
      "geocoding_level": 8,
      "phone": "0599-33-6005",
      "license_no": "志2405-0003",
      "license_date": null,
      "expire_date": null
    },
    {
      "name": "小林一美",
      "name_kana": "",
      "business_type": "みそ又はしょうゆ製造業",
      "address": "鳥羽市浦村町２４４－１",
      "lat": 34.440684511,
      "lng": 136.879640583,
      "geocoding_level": 8,
      "phone": "",
      "license_no": "志2520-0001",
      "license_date": null,
      "expire_date": null
    },
    {
      "name": "森本　昭代",
      "name_kana": "",
      "business_type": "漬物製造業",
      "address": "鳥羽市安楽島町８４４－１２",
      "lat": 34.464170335,
      "lng": 136.869410424,
      "geocoding_level": 8,
      "phone": "",
      "license_no": "志2329-0002",
      "license_date": null,
      "expire_date": null
    },
    {
      "name": "濱口藤弘",
      "name_kana": "",
      "business_type": "飲食店営業",
      "address": "鳥羽市桃取町９３－４",
      "lat": 34.517914,
      "lng": 136.874594,
      "geocoding_level": 3,
      "phone": "0599-37-3700",
      "license_no": "志2501-0331",
      "license_date": null,
      "expire_date": null
    },
    {
      "name": "山本　さよ美",
      "name_kana": "",
      "business_type": "飲食店営業",
      "address": "鳥羽市鳥羽１丁目２３８２－５１",
      "lat": 34.487879,
      "lng": 136.840414,
      "geocoding_level": 3,
      "phone": "0599-25-8235",
      "license_no": "志2201-0234",
      "license_date": null,
      "expire_date": null
    },
    {
      "name": "株式会社コーセン",
      "name_kana": "",
      "business_type": "飲食店営業",
      "address": "鳥羽市松尾町２",
      "lat": 34.422091,
      "lng": 136.842096,
      "geocoding_level": 3,
      "phone": "0599-25-9007",
      "license_no": "志2301-0045",
      "license_date": null,
      "expire_date": null
    },
    {
      "name": "有限会社丸善",
      "name_kana": "",
      "business_type": "飲食店営業",
      "address": "鳥羽市相差町１４８４－１",
      "lat": 34.392478456,
      "lng": 136.907220091,
      "geocoding_level": 8,
      "phone": "0599-33-6734",
      "license_no": "志2301-0072",
      "license_date": null,
      "expire_date": null
    },
    {
      "name": "八木　正人",
      "name_kana": "",
      "business_type": "飲食店営業",
      "address": "鳥羽市鳥羽１丁目８－１３ ＪＲ鳥羽駅２Ｆ",
      "lat": 34.486422524,
      "lng": 136.842755534,
      "geocoding_level": 8,
      "phone": "0599-25-8880",
      "license_no": "志2301-0117",
      "license_date": null,
      "expire_date": null
    },
    {
      "name": "中村　楠次",
      "name_kana": "",
      "business_type": "飲食店営業",
      "address": "鳥羽市浦村町１２０４－３",
      "lat": 34.440033631,
      "lng": 136.883184028,
      "geocoding_level": 8,
      "phone": "",
      "license_no": "志2301-0174",
      "license_date": null,
      "expire_date": null
    },
    {
      "name": "有限会社兵吉屋",
      "name_kana": "",
      "business_type": "飲食店営業",
      "address": "鳥羽市畔蛸町３－３",
      "lat": 34.388325235,
      "lng": 136.898484959,
      "geocoding_level": 8,
      "phone": "0599-33-1023",
      "license_no": "志2101-0192",
      "license_date": null,
      "expire_date": null
    },
    {
      "name": "有限会社華月",
      "name_kana": "",
      "business_type": "飲食店営業",
      "address": "鳥羽市大明東町１６－３",
      "lat": 34.467136772,
      "lng": 136.856892208,
      "geocoding_level": 8,
      "phone": "0599-26-5252",
      "license_no": "志2301-0308",
      "license_date": null,
      "expire_date": null
    },
    {
      "name": "有限会社タケガワ",
      "name_kana": "",
      "business_type": "飲食店営業",
      "address": "鳥羽市鳥羽１丁目２６－１，２",
      "lat": 34.487879,
      "lng": 136.840414,
      "geocoding_level": 3,
      "phone": "0599-25-2563",
      "license_no": "志2301-0325",
      "license_date": null,
      "expire_date": null
    },
    {
      "name": "岡本　六之",
      "name_kana": "",
      "business_type": "飲食店営業",
      "address": "鳥羽市安楽島町３８６－４",
      "lat": 34.462579917,
      "lng": 136.855890104,
      "geocoding_level": 8,
      "phone": "0599-25-4700",
      "license_no": "志2401-0029",
      "license_date": null,
      "expire_date": null
    },
    {
      "name": "伊勢志摩リゾートマネジメント株式会社",
      "name_kana": "",
      "business_type": "飲食店営業",
      "address": "鳥羽市鳥羽１丁目２３－１",
      "lat": 34.488321454,
      "lng": 136.839528812,
      "geocoding_level": 8,
      "phone": "0599-25-3121",
      "license_no": "志2401-0032",
      "license_date": null,
      "expire_date": null
    },
    {
      "name": "伊勢志摩リゾートマネジメント株式会社",
      "name_kana": "",
      "business_type": "飲食店営業",
      "address": "鳥羽市鳥羽１丁目２３－１",
      "lat": 34.488321454,
      "lng": 136.839528812,
      "geocoding_level": 8,
      "phone": "0599-25--3121",
      "license_no": "志2401-0033",
      "license_date": null,
      "expire_date": null
    },
    {
      "name": "下村　なつみ",
      "name_kana": "",
      "business_type": "飲食店営業",
      "address": "鳥羽市相差町１４０３",
      "lat": 34.391833419,
      "lng": 136.906235263,
      "geocoding_level": 8,
      "phone": "",
      "license_no": "志2201-0024",
      "license_date": null,
      "expire_date": null
    },
    {
      "name": "宮濵克行",
      "name_kana": "",
      "business_type": "飲食店営業",
      "address": "鳥羽市安楽島町１９４－１０",
      "lat": 34.457722291,
      "lng": 136.86436613,
      "geocoding_level": 8,
      "phone": "0599-25-3080",
      "license_no": "志2401-0248",
      "license_date": null,
      "expire_date": null
    },
    {
      "name": "有限会社宇田ミート",
      "name_kana": "",
      "business_type": "食肉販売業",
      "address": "鳥羽市大明西町１－１　ハロー内",
      "lat": 34.470661709,
      "lng": 136.847552107,
      "geocoding_level": 8,
      "phone": "0599-25-0029",
      "license_no": "志2403-0001",
      "license_date": null,
      "expire_date": null
    },
    {
      "name": "株式会社丸愛",
      "name_kana": "",
      "business_type": "食品の小分け業",
      "address": "鳥羽市堅神町６４－８",
      "lat": 34.472593,
      "lng": 136.817687,
      "geocoding_level": 3,
      "phone": "0599-21-1616",
      "license_no": "志2431-0001",
      "license_date": null,
      "expire_date": null
    },
    {
      "name": "株式会社丸愛",
      "name_kana": "",
      "business_type": "水産製品製造業",
      "address": "鳥羽市堅神町６４－８",
      "lat": 34.472593,
      "lng": 136.817687,
      "geocoding_level": 3,
      "phone": "0599-21-1616",
      "license_no": "志2416-0015",
      "license_date": null,
      "expire_date": null
    },
    {
      "name": "殿尾元将",
      "name_kana": "",
      "business_type": "飲食店営業",
      "address": "鳥羽市鳥羽１丁目２３８３－１３",
      "lat": 34.487879,
      "lng": 136.840414,
      "geocoding_level": 3,
      "phone": "0599-26-3018",
      "license_no": "志2101-0125",
      "license_date": null,
      "expire_date": null
    },
    {
      "name": "殿尾元将",
      "name_kana": "",
      "business_type": "菓子製造業",
      "address": "鳥羽市鳥羽１丁目２３８３－１３",
      "lat": 34.487879,
      "lng": 136.840414,
      "geocoding_level": 3,
      "phone": "0599-26-3018",
      "license_no": "志2111-0012",
      "license_date": null,
      "expire_date": null
    },
    {
      "name": "株式会社コーセン",
      "name_kana": "",
      "business_type": "飲食店営業",
      "address": "鳥羽市鳥羽５丁目６－５",
      "lat": 34.469075355,
      "lng": 136.841974667,
      "geocoding_level": 8,
      "phone": "0599-21-1907",
      "license_no": "志2501-0196",
      "license_date": null,
      "expire_date": null
    },
    {
      "name": "株式会社近鉄リテーリング",
      "name_kana": "",
      "business_type": "飲食店営業",
      "address": "鳥羽市鳥羽１丁目８－１３",
      "lat": 34.486422524,
      "lng": 136.842755534,
      "geocoding_level": 8,
      "phone": "",
      "license_no": "志2501-0120",
      "license_date": null,
      "expire_date": null
    },
    {
      "name": "間宮　昌昭",
      "name_kana": "",
      "business_type": "飲食店営業",
      "address": "鳥羽市浦村町１５３０－１",
      "lat": 34.447001371,
      "lng": 136.892944292,
      "geocoding_level": 8,
      "phone": "0599-32-5500",
      "license_no": "志2301-0175",
      "license_date": null,
      "expire_date": null
    },
    {
      "name": "間宮昌昭",
      "name_kana": "",
      "business_type": "魚介類販売業",
      "address": "鳥羽市浦村町１５３０－１",
      "lat": 34.447001371,
      "lng": 136.892944292,
      "geocoding_level": 8,
      "phone": "",
      "license_no": "志2404-0013",
      "license_date": null,
      "expire_date": null
    },
    {
      "name": "有限会社レジャーメゾン",
      "name_kana": "",
      "business_type": "飲食店営業",
      "address": "鳥羽市大明東町１９－５",
      "lat": 34.466862214,
      "lng": 136.853848949,
      "geocoding_level": 8,
      "phone": "0599-21-1717",
      "license_no": "志2401-0012",
      "license_date": null,
      "expire_date": null
    },
    {
      "name": "遠藤隆宏",
      "name_kana": "",
      "business_type": "飲食店営業",
      "address": "鳥羽市鳥羽３丁目５－２４",
      "lat": 34.483733755,
      "lng": 136.843475073,
      "geocoding_level": 8,
      "phone": "0599-37-7211",
      "license_no": "志2501-0329",
      "license_date": null,
      "expire_date": null
    },
    {
      "name": "株式会社丸愛",
      "name_kana": "",
      "business_type": "水産製品製造業",
      "address": "鳥羽市小浜町２７２－６０",
      "lat": 34.49671000000001,
      "lng": 136.831265,
      "geocoding_level": 3,
      "phone": "0599-37-7700",
      "license_no": "志2116-0011",
      "license_date": null,
      "expire_date": null
    },
    {
      "name": "株式会社丸愛",
      "name_kana": "",
      "business_type": "そうざい製造業",
      "address": "鳥羽市小浜町２７２－６０",
      "lat": 34.49671000000001,
      "lng": 136.831265,
      "geocoding_level": 3,
      "phone": "0599-37-7700",
      "license_no": "志2125-0008",
      "license_date": null,
      "expire_date": null
    },
    {
      "name": "株式会社ブランカ",
      "name_kana": "",
      "business_type": "飲食店営業",
      "address": "鳥羽市安楽島町１３３１－２２",
      "lat": 34.473655297,
      "lng": 136.857675481,
      "geocoding_level": 8,
      "phone": "0599-25-2772",
      "license_no": "志2501-0368",
      "license_date": null,
      "expire_date": null
    },
    {
      "name": "株式会社マリンおきた",
      "name_kana": "",
      "business_type": "飲食店営業",
      "address": "鳥羽市鳥羽１丁目２３８３－５１地先",
      "lat": 34.487879,
      "lng": 136.840414,
      "geocoding_level": 3,
      "phone": "0599-25-7133",
      "license_no": "志2401-0007",
      "license_date": null,
      "expire_date": null
    },
    {
      "name": "株式会社魚国総本社",
      "name_kana": "",
      "business_type": "飲食店営業",
      "address": "鳥羽市池上町１－３",
      "lat": 34.480798,
      "lng": 136.829623,
      "geocoding_level": 3,
      "phone": "0599-26-3001",
      "license_no": "志2501-0375",
      "license_date": null,
      "expire_date": null
    },
    {
      "name": "中村　和馬",
      "name_kana": "",
      "business_type": "飲食店営業",
      "address": "鳥羽市浦村町３１０－１７",
      "lat": 34.439340196,
      "lng": 136.876671347,
      "geocoding_level": 8,
      "phone": "0599-32-5914",
      "license_no": "志2401-0005",
      "license_date": null,
      "expire_date": null
    },
    {
      "name": "株式会社ＬＥＯＣ",
      "name_kana": "",
      "business_type": "飲食店営業",
      "address": "鳥羽市安楽島町１６９－２",
      "lat": 34.455178607,
      "lng": 136.864931699,
      "geocoding_level": 8,
      "phone": "0599-26-3055",
      "license_no": "志2601-0007",
      "license_date": null,
      "expire_date": null
    },
    {
      "name": "株式会社まる天",
      "name_kana": "",
      "business_type": "飲食店営業",
      "address": "鳥羽市鳥羽１丁目８－１３ 近鉄鳥羽駅構内",
      "lat": 34.486422524,
      "lng": 136.842755534,
      "geocoding_level": 8,
      "phone": "0599-25-8190",
      "license_no": "志2601-0012",
      "license_date": null,
      "expire_date": null
    },
    {
      "name": "遠藤　美和",
      "name_kana": "",
      "business_type": "飲食店営業",
      "address": "鳥羽市鳥羽４丁目６－３",
      "lat": 34.475677634,
      "lng": 136.843410801,
      "geocoding_level": 8,
      "phone": "",
      "license_no": "志2401-0006",
      "license_date": null,
      "expire_date": null
    },
    {
      "name": "山本　研光",
      "name_kana": "",
      "business_type": "飲食店営業",
      "address": "鳥羽市浦村町１４３１",
      "lat": 34.444488246,
      "lng": 136.893293384,
      "geocoding_level": 8,
      "phone": "090-6465-5664",
      "license_no": "志2401-0116",
      "license_date": null,
      "expire_date": null
    },
    {
      "name": "濵口雅行",
      "name_kana": "",
      "business_type": "飲食店営業（旧）",
      "address": "鳥羽市鳥羽１－２３８３－１３",
      "lat": 34.487879,
      "lng": 136.840414,
      "geocoding_level": 3,
      "phone": "0599-26-3331",
      "license_no": "伊 保第 62-1401-0125 号",
      "license_date": null,
      "expire_date": null
    },
    {
      "name": "株式会社戸田家",
      "name_kana": "",
      "business_type": "飲食店営業（旧）",
      "address": "鳥羽市鳥羽１丁目２４－２６",
      "lat": 34.487955022,
      "lng": 136.841363498,
      "geocoding_level": 8,
      "phone": "0599-25-2500",
      "license_no": "伊 保第 62-1401-0139 号",
      "license_date": null,
      "expire_date": null
    },
    {
      "name": "中村貴一",
      "name_kana": "",
      "business_type": "飲食店営業（旧）",
      "address": "鳥羽市菅島町４４",
      "lat": 34.489938,
      "lng": 136.888162,
      "geocoding_level": 3,
      "phone": "0599-34-2525",
      "license_no": "伊 保第 62-1401-0189 号",
      "license_date": null,
      "expire_date": null
    },
    {
      "name": "鳥羽磯部漁業協同組合",
      "name_kana": "",
      "business_type": "飲食店営業（旧）",
      "address": "鳥羽市鳥羽一丁目２３８３番地４２",
      "lat": 34.487879,
      "lng": 136.840414,
      "geocoding_level": 3,
      "phone": "0599-21-1080",
      "license_no": "伊 保第 62-1401-0193 号",
      "license_date": null,
      "expire_date": null
    },
    {
      "name": "鳥羽磯部漁業協同組合",
      "name_kana": "",
      "business_type": "飲食店営業",
      "address": "鳥羽市鳥羽１丁目２３８３－４２",
      "lat": 34.487879,
      "lng": 136.840414,
      "geocoding_level": 3,
      "phone": "0599-21-1080",
      "license_no": "志2401-0295",
      "license_date": null,
      "expire_date": null
    },
    {
      "name": "中島　葵",
      "name_kana": "",
      "business_type": "飲食店営業",
      "address": "鳥羽市鳥羽２丁目５－１１",
      "lat": 34.482707812,
      "lng": 136.840369138,
      "geocoding_level": 8,
      "phone": "0599-26-7178",
      "license_no": "志2401-0377",
      "license_date": null,
      "expire_date": null
    },
    {
      "name": "鳥羽磯部漁業協同組合",
      "name_kana": "",
      "business_type": "水産製品製造業",
      "address": "鳥羽市答志町１３５４－３１",
      "lat": 34.524463,
      "lng": 136.891855,
      "geocoding_level": 3,
      "phone": "",
      "license_no": "志2416-0005",
      "license_date": null,
      "expire_date": null
    },
    {
      "name": "中村菊三商店株式会社",
      "name_kana": "",
      "business_type": "魚介類販売業",
      "address": "鳥羽市鳥羽１丁目１８－７",
      "lat": 34.485555758,
      "lng": 136.827364122,
      "geocoding_level": 8,
      "phone": "0599-25-5466",
      "license_no": "志2404-0007",
      "license_date": null,
      "expire_date": null
    },
    {
      "name": "くざき鰒おべん企業組合",
      "name_kana": "",
      "business_type": "そうざい製造業",
      "address": "鳥羽市国崎町５８５－１",
      "lat": 34.412837372,
      "lng": 136.921129666,
      "geocoding_level": 8,
      "phone": "0599-20-0013",
      "license_no": "志2525-0014",
      "license_date": null,
      "expire_date": null
    },
    {
      "name": "鳥羽磯部漁業協同組合",
      "name_kana": "",
      "business_type": "惣菜製造業（旧）",
      "address": "鳥羽市鳥羽一丁目２３８３－４２",
      "lat": 34.487879,
      "lng": 136.840414,
      "geocoding_level": 3,
      "phone": "0599-21-1080",
      "license_no": "伊 保第 62-1414-0008 号",
      "license_date": null,
      "expire_date": null
    },
    {
      "name": "株式会社ＳＩＮＣＥＲＥ",
      "name_kana": "",
      "business_type": "飲食店営業（旧）",
      "address": "鳥羽市鳥羽１－６－１７",
      "lat": 34.484648939,
      "lng": 136.844313258,
      "geocoding_level": 8,
      "phone": "0599-26-3143",
      "license_no": "伊 保第 62-1501-0005 号",
      "license_date": null,
      "expire_date": null
    },
    {
      "name": "中村修",
      "name_kana": "",
      "business_type": "飲食店営業（旧）",
      "address": "鳥羽市鳥羽１丁目２３８３－１３鳥羽１番街３Ｆ",
      "lat": 34.487879,
      "lng": 136.840414,
      "geocoding_level": 3,
      "phone": "0599-25-6376",
      "license_no": "伊 保第 62-1501-0026 号",
      "license_date": null,
      "expire_date": null
    },
    {
      "name": "有限会社天びん屋",
      "name_kana": "",
      "business_type": "飲食店営業（旧）",
      "address": "鳥羽市鳥羽１丁目５－１０",
      "lat": 34.484090243,
      "lng": 136.842960272,
      "geocoding_level": 8,
      "phone": "0599-25-2011",
      "license_no": "伊 保第 62-1501-0028 号",
      "license_date": null,
      "expire_date": null
    },
    {
      "name": "株式会社魚国総本社",
      "name_kana": "",
      "business_type": "飲食店営業（旧）",
      "address": "鳥羽市池上町１－１",
      "lat": 34.480798,
      "lng": 136.829623,
      "geocoding_level": 3,
      "phone": "0599-26-3001",
      "license_no": "伊 保第 62-1501-0030 号",
      "license_date": null,
      "expire_date": null
    },
    {
      "name": "松本純也",
      "name_kana": "",
      "business_type": "飲食店営業",
      "address": "鳥羽市相差町１１４６",
      "lat": 34.389651555,
      "lng": 136.907593982,
      "geocoding_level": 8,
      "phone": "0599-33-7780",
      "license_no": "志2501-0123",
      "license_date": null,
      "expire_date": null
    },
    {
      "name": "サコウ食品株式会社",
      "name_kana": "",
      "business_type": "飲食店営業",
      "address": "鳥羽市松尾町１５－１",
      "lat": 34.422091,
      "lng": 136.842096,
      "geocoding_level": 3,
      "phone": "0599-26-3100",
      "license_no": "志2501-0263",
      "license_date": null,
      "expire_date": null
    },
    {
      "name": "社会福祉法人有明の里",
      "name_kana": "",
      "business_type": "菓子製造業",
      "address": "鳥羽市相差町２０２０－６７",
      "lat": 34.394882,
      "lng": 136.901629,
      "geocoding_level": 3,
      "phone": "0599-37-7222",
      "license_no": "志2511-0019",
      "license_date": null,
      "expire_date": null
    },
    {
      "name": "株式会社山三",
      "name_kana": "",
      "business_type": "水産製品製造業",
      "address": "鳥羽市答志町１４８６－１",
      "lat": 34.524463,
      "lng": 136.891855,
      "geocoding_level": 3,
      "phone": "0599-37-2210",
      "license_no": "志2116-0016",
      "license_date": null,
      "expire_date": null
    },
    {
      "name": "リゾートトラスト株式会社",
      "name_kana": "",
      "business_type": "飲食店営業",
      "address": "鳥羽市安楽島町２１２－８",
      "lat": 34.45809588,
      "lng": 136.868393744,
      "geocoding_level": 8,
      "phone": "0599-21-2666",
      "license_no": "志2101-0272",
      "license_date": null,
      "expire_date": null
    },
    {
      "name": "リゾートトラスト株式会社",
      "name_kana": "",
      "business_type": "飲食店営業",
      "address": "鳥羽市安楽島町２１２－８",
      "lat": 34.45809588,
      "lng": 136.868393744,
      "geocoding_level": 8,
      "phone": "0599-21-2666",
      "license_no": "志2101-0273",
      "license_date": null,
      "expire_date": null
    },
    {
      "name": "リゾートトラスト株式会社",
      "name_kana": "",
      "business_type": "飲食店営業",
      "address": "鳥羽市安楽島町２１２－８",
      "lat": 34.45809588,
      "lng": 136.868393744,
      "geocoding_level": 8,
      "phone": "0599-21-2666",
      "license_no": "志2101-0274",
      "license_date": null,
      "expire_date": null
    },
    {
      "name": "遠藤隆宏",
      "name_kana": "",
      "business_type": "飲食店営業",
      "address": "鳥羽市鳥羽３丁目３－６ １階",
      "lat": 34.483773456,
      "lng": 136.843828358,
      "geocoding_level": 8,
      "phone": "0599-37-7211",
      "license_no": "志2401-0373",
      "license_date": null,
      "expire_date": null
    },
    {
      "name": "松村益男",
      "name_kana": "",
      "business_type": "飲食店営業",
      "address": "鳥羽市畔蛸町２１",
      "lat": 34.389604201,
      "lng": 136.896649339,
      "geocoding_level": 8,
      "phone": "0599-33-7168",
      "license_no": "志2201-0001",
      "license_date": null,
      "expire_date": null
    },
    {
      "name": "鳥羽シーサイドホテル株式会社",
      "name_kana": "",
      "business_type": "飲食店営業",
      "address": "鳥羽市安楽島町１０８４",
      "lat": 34.478417561,
      "lng": 136.851169488,
      "geocoding_level": 8,
      "phone": "0599-25-5151",
      "license_no": "志2201-0048",
      "license_date": null,
      "expire_date": null
    },
    {
      "name": "杉原　和美",
      "name_kana": "",
      "business_type": "飲食店営業",
      "address": "鳥羽市安楽島町３２９－１７５",
      "lat": 34.460547047,
      "lng": 136.8590316,
      "geocoding_level": 8,
      "phone": "050-3550-0108",
      "license_no": "志2201-0146",
      "license_date": null,
      "expire_date": null
    },
    {
      "name": "木場まゆみ",
      "name_kana": "",
      "business_type": "飲食店営業",
      "address": "鳥羽市船津町５８０",
      "lat": 34.463553,
      "lng": 136.837264,
      "geocoding_level": 3,
      "phone": "0599-25-1513",
      "license_no": "志2101-0163",
      "license_date": null,
      "expire_date": null
    },
    {
      "name": "櫻井　宏和",
      "name_kana": "",
      "business_type": "飲食店営業",
      "address": "鳥羽市安楽島町２０９０－２８７",
      "lat": 34.467392945,
      "lng": 136.852003594,
      "geocoding_level": 8,
      "phone": "0599-25-7173",
      "license_no": "志2201-0107",
      "license_date": null,
      "expire_date": null
    },
    {
      "name": "井上之子",
      "name_kana": "",
      "business_type": "飲食店営業",
      "address": "鳥羽市鳥羽３丁目９－４",
      "lat": 34.481514152,
      "lng": 136.842689183,
      "geocoding_level": 8,
      "phone": "",
      "license_no": "志2101-0181",
      "license_date": null,
      "expire_date": null
    },
    {
      "name": "株式会社浦村ＳｅａＦａｒｍ",
      "name_kana": "",
      "business_type": "飲食店営業",
      "address": "鳥羽市浦村町１５６９",
      "lat": 34.43319700000001,
      "lng": 136.901249,
      "geocoding_level": 3,
      "phone": "090-7433-2219",
      "license_no": "志2101-0190",
      "license_date": null,
      "expire_date": null
    },
    {
      "name": "株式会社浦村ＳｅａＦａｒｍ",
      "name_kana": "",
      "business_type": "そうざい製造業",
      "address": "鳥羽市浦村町１５６９",
      "lat": 34.43319700000001,
      "lng": 136.901249,
      "geocoding_level": 3,
      "phone": "090-7433-2219",
      "license_no": "志2125-0009",
      "license_date": null,
      "expire_date": null
    },
    {
      "name": "加藤　るみ",
      "name_kana": "",
      "business_type": "飲食店営業",
      "address": "鳥羽市鳥羽１丁目８－７",
      "lat": 34.485887311,
      "lng": 136.844203066,
      "geocoding_level": 8,
      "phone": "0599-25-5188",
      "license_no": "志2201-0138",
      "license_date": null,
      "expire_date": null
    },
    {
      "name": "ブレイ　珠子",
      "name_kana": "",
      "business_type": "飲食店営業",
      "address": "鳥羽市鳥羽１丁目４－６５",
      "lat": 34.483982946,
      "lng": 136.842631684,
      "geocoding_level": 8,
      "phone": "0599-37-7337",
      "license_no": "志2201-0174",
      "license_date": null,
      "expire_date": null
    },
    {
      "name": "ブレイ　珠子",
      "name_kana": "",
      "business_type": "菓子製造業",
      "address": "鳥羽市鳥羽１丁目４－６５",
      "lat": 34.483982946,
      "lng": 136.842631684,
      "geocoding_level": 8,
      "phone": "0599-37-7337",
      "license_no": "志2211-0021",
      "license_date": null,
      "expire_date": null
    },
    {
      "name": "上村順一",
      "name_kana": "",
      "business_type": "菓子製造業",
      "address": "鳥羽市相差町２６９",
      "lat": 34.386592498,
      "lng": 136.904205811,
      "geocoding_level": 8,
      "phone": "080‐9482‐2160",
      "license_no": "志2511-0025",
      "license_date": null,
      "expire_date": null
    },
    {
      "name": "杉原　和美",
      "name_kana": "",
      "business_type": "菓子製造業",
      "address": "鳥羽市安楽島町３２９－１７５",
      "lat": 34.460547047,
      "lng": 136.8590316,
      "geocoding_level": 8,
      "phone": "050-3550-0108",
      "license_no": "志2211-0014",
      "license_date": null,
      "expire_date": null
    },
    {
      "name": "山下　弘将",
      "name_kana": "",
      "business_type": "水産製品製造業",
      "address": "鳥羽市浦村町１－７",
      "lat": 34.453950416,
      "lng": 136.874632747,
      "geocoding_level": 8,
      "phone": "0599-32-6009",
      "license_no": "志2216-0001",
      "license_date": null,
      "expire_date": null
    },
    {
      "name": "株式会社ヤマキ水産",
      "name_kana": "",
      "business_type": "魚介類販売業",
      "address": "鳥羽市浦村町１２２９－６５",
      "lat": 34.44432678500001,
      "lng": 136.887008217,
      "geocoding_level": 8,
      "phone": "0599-32-5659",
      "license_no": "志2104-0017",
      "license_date": null,
      "expire_date": null
    },
    {
      "name": "濱﨑　英生",
      "name_kana": "",
      "business_type": "飲食店営業",
      "address": "鳥羽市答志町１３５４－１３",
      "lat": 34.524463,
      "lng": 136.891855,
      "geocoding_level": 3,
      "phone": "0599-37-2047",
      "license_no": "志2201-0199",
      "license_date": null,
      "expire_date": null
    },
    {
      "name": "株式会社エムアンドエムサービス",
      "name_kana": "",
      "business_type": "飲食店営業",
      "address": "鳥羽市安楽島町１０７５－４０",
      "lat": 34.474420971,
      "lng": 136.861030711,
      "geocoding_level": 8,
      "phone": "0599-26-4694",
      "license_no": "志2201-0221",
      "license_date": null,
      "expire_date": null
    },
    {
      "name": "山下輝子",
      "name_kana": "",
      "business_type": "飲食店営業",
      "address": "鳥羽市答志町１４２１－１",
      "lat": 34.524463,
      "lng": 136.891855,
      "geocoding_level": 3,
      "phone": "",
      "license_no": "志2201-0017",
      "license_date": null,
      "expire_date": null
    },
    {
      "name": "特定非営利活動法人海の子",
      "name_kana": "",
      "business_type": "飲食店営業",
      "address": "鳥羽市大明西町１８－４",
      "lat": 34.4669359,
      "lng": 136.845367533,
      "geocoding_level": 8,
      "phone": "",
      "license_no": "志2301-0171",
      "license_date": null,
      "expire_date": null
    },
    {
      "name": "伊勢農業協同組合",
      "name_kana": "",
      "business_type": "菓子製造業",
      "address": "鳥羽市鳥羽１丁目２３８３－４２",
      "lat": 34.487879,
      "lng": 136.840414,
      "geocoding_level": 3,
      "phone": "0599-21-1080",
      "license_no": "志2311-0006",
      "license_date": null,
      "expire_date": null
    },
    {
      "name": "伊勢農業協同組合",
      "name_kana": "",
      "business_type": "密封包装食品製造業",
      "address": "鳥羽市鳥羽１丁目２３８３－４２",
      "lat": 34.487879,
      "lng": 136.840414,
      "geocoding_level": 3,
      "phone": "0599-21-1080",
      "license_no": "志2330-0001",
      "license_date": null,
      "expire_date": null
    },
    {
      "name": "株式会社パール食品店",
      "name_kana": "",
      "business_type": "食肉販売業",
      "address": "鳥羽市大明東町１０－１４",
      "lat": 34.466918993,
      "lng": 136.855767922,
      "geocoding_level": 8,
      "phone": "0599-26-3338",
      "license_no": "志2303-0001",
      "license_date": null,
      "expire_date": null
    },
    {
      "name": "株式会社丸愛",
      "name_kana": "",
      "business_type": "水産製品製造業",
      "address": "鳥羽市堅神町８３３",
      "lat": 34.472593,
      "lng": 136.817687,
      "geocoding_level": 3,
      "phone": "0599-211-0101",
      "license_no": "志2216-0016",
      "license_date": null,
      "expire_date": null
    },
    {
      "name": "株式会社はましん",
      "name_kana": "",
      "business_type": "水産製品製造業",
      "address": "鳥羽市鳥羽１丁目１９６－１５",
      "lat": 34.487879,
      "lng": 136.840414,
      "geocoding_level": 3,
      "phone": "0599-21-0788",
      "license_no": "志2116-0013",
      "license_date": null,
      "expire_date": null
    },
    {
      "name": "株式会社松村",
      "name_kana": "",
      "business_type": "魚介類販売業",
      "address": "鳥羽市畔蛸町９１－２",
      "lat": 34.390348103,
      "lng": 136.897092596,
      "geocoding_level": 8,
      "phone": "0599-33-6262",
      "license_no": "志2304-0038",
      "license_date": null,
      "expire_date": null
    },
    {
      "name": "株式会社ヤマキ勢力菊次郎商店",
      "name_kana": "",
      "business_type": "水産製品製造業",
      "address": "鳥羽市答志町１１１１",
      "lat": 34.524463,
      "lng": 136.891855,
      "geocoding_level": 3,
      "phone": "0599-37-2719",
      "license_no": "志2216-0010",
      "license_date": null,
      "expire_date": null
    },
    {
      "name": "竹本　敦史",
      "name_kana": "",
      "business_type": "水産製品製造業",
      "address": "鳥羽市安楽島町１９－３",
      "lat": 34.45411919,
      "lng": 136.870055995,
      "geocoding_level": 8,
      "phone": "0599-26-5795",
      "license_no": "志2216-0013",
      "license_date": null,
      "expire_date": null
    },
    {
      "name": "橋本　和恵",
      "name_kana": "",
      "business_type": "飲食店営業",
      "address": "鳥羽市鳥羽１丁目２３８３－１３",
      "lat": 34.487879,
      "lng": 136.840414,
      "geocoding_level": 3,
      "phone": "0599-21-1256",
      "license_no": "志2301-0365",
      "license_date": null,
      "expire_date": null
    },
    {
      "name": "野村　卓司",
      "name_kana": "",
      "business_type": "飲食店営業",
      "address": "鳥羽市堅神町５５４－１",
      "lat": 34.472593,
      "lng": 136.817687,
      "geocoding_level": 3,
      "phone": "0599-26-6330",
      "license_no": "志2301-0334",
      "license_date": null,
      "expire_date": null
    },
    {
      "name": "山下　ありさ",
      "name_kana": "",
      "business_type": "飲食店営業",
      "address": "鳥羽市桃取町２６３－４",
      "lat": 34.517914,
      "lng": 136.874594,
      "geocoding_level": 3,
      "phone": "090‐7041‐5470",
      "license_no": "志2201-0240",
      "license_date": null,
      "expire_date": null
    },
    {
      "name": "濱口　貞義",
      "name_kana": "",
      "business_type": "飲食店営業",
      "address": "鳥羽市鳥羽１丁目５－６",
      "lat": 34.483883914,
      "lng": 136.842594837,
      "geocoding_level": 8,
      "phone": "0599-25-3377",
      "license_no": "志2301-0373",
      "license_date": null,
      "expire_date": null
    },
    {
      "name": "天野　明子",
      "name_kana": "",
      "business_type": "飲食店営業",
      "address": "鳥羽市浦村町１５５９－１",
      "lat": 34.43319700000001,
      "lng": 136.901249,
      "geocoding_level": 3,
      "phone": "0599-32-5885",
      "license_no": "志2401-0078",
      "license_date": null,
      "expire_date": null
    },
    {
      "name": "上村佳鶴",
      "name_kana": "",
      "business_type": "飲食店営業",
      "address": "鳥羽市相差町１２４０",
      "lat": 34.394882,
      "lng": 136.901629,
      "geocoding_level": 3,
      "phone": "0599-37-7101",
      "license_no": "志2101-0198",
      "license_date": null,
      "expire_date": null
    },
    {
      "name": "上村佳鶴",
      "name_kana": "",
      "business_type": "菓子製造業",
      "address": "鳥羽市相差町１２４０",
      "lat": 34.394882,
      "lng": 136.901629,
      "geocoding_level": 3,
      "phone": "0599-37-7101",
      "license_no": "志2111-0017",
      "license_date": null,
      "expire_date": null
    },
    {
      "name": "松本　理沙",
      "name_kana": "",
      "business_type": "飲食店営業",
      "address": "鳥羽市相差町１２３１",
      "lat": 34.391216098,
      "lng": 136.907794499,
      "geocoding_level": 8,
      "phone": "0599-33-6909",
      "license_no": "志2401-0023",
      "license_date": null,
      "expire_date": null
    },
    {
      "name": "松本　理沙",
      "name_kana": "",
      "business_type": "豆腐製造業",
      "address": "鳥羽市相差町１２３１",
      "lat": 34.391216098,
      "lng": 136.907794499,
      "geocoding_level": 8,
      "phone": "0599-33-6909",
      "license_no": "志2422-0001",
      "license_date": null,
      "expire_date": null
    },
    {
      "name": "木場啓貴",
      "name_kana": "",
      "business_type": "飲食店営業",
      "address": "鳥羽市相差町１１３７",
      "lat": 34.390663637,
      "lng": 136.906990834,
      "geocoding_level": 8,
      "phone": "",
      "license_no": "志2401-0250",
      "license_date": null,
      "expire_date": null
    },
    {
      "name": "株式会社Ｔｒｉｔｏｎ",
      "name_kana": "",
      "business_type": "飲食店営業",
      "address": "鳥羽市千賀町１８３",
      "lat": 34.391336,
      "lng": 136.880175,
      "geocoding_level": 3,
      "phone": "0599-33-6073",
      "license_no": "志2301-0216",
      "license_date": null,
      "expire_date": null
    },
    {
      "name": "中川浩司",
      "name_kana": "",
      "business_type": "飲食店営業",
      "address": "鳥羽市安楽島町３５０－１",
      "lat": 34.460853632,
      "lng": 136.859482301,
      "geocoding_level": 8,
      "phone": "0599-25-4320",
      "license_no": "志2401-0352",
      "license_date": null,
      "expire_date": null
    },
    {
      "name": "かんえい株式会社",
      "name_kana": "",
      "business_type": "飲食店営業",
      "address": "鳥羽市相差町３８２",
      "lat": 34.386708091,
      "lng": 136.906020067,
      "geocoding_level": 8,
      "phone": "0599-33-6134",
      "license_no": "志2401-0334",
      "license_date": null,
      "expire_date": null
    },
    {
      "name": "有限会社猪島",
      "name_kana": "",
      "business_type": "菓子製造業",
      "address": "鳥羽市浦村町１４８２",
      "lat": 34.446209437,
      "lng": 136.893642744,
      "geocoding_level": 8,
      "phone": "0599-32-5020",
      "license_no": "志2311-0002",
      "license_date": null,
      "expire_date": null
    },
    {
      "name": "株式会社松村",
      "name_kana": "",
      "business_type": "魚介類販売業",
      "address": "鳥羽市畔蛸町１０３",
      "lat": 34.39425,
      "lng": 136.88994,
      "geocoding_level": 3,
      "phone": "0599-33-0005",
      "license_no": "志2404-0020",
      "license_date": null,
      "expire_date": null
    },
    {
      "name": "世古素大",
      "name_kana": "",
      "business_type": "飲食店営業",
      "address": "鳥羽市相差町２５５－２",
      "lat": 34.385938515,
      "lng": 136.903460957,
      "geocoding_level": 8,
      "phone": "0599-33-6166",
      "license_no": "志2401-0403",
      "license_date": null,
      "expire_date": null
    },
    {
      "name": "ＧＥＮＳＥＮ　ＨＯＬＤＩＮＧＳ株式会社",
      "name_kana": "",
      "business_type": "飲食店営業",
      "address": "鳥羽市浦村町１８２６－１",
      "lat": 34.450313567,
      "lng": 136.90759454,
      "geocoding_level": 8,
      "phone": "050-3666-9868",
      "license_no": "志2501-0037",
      "license_date": null,
      "expire_date": null
    },
    {
      "name": "株式会社ティー・エフ・ピー",
      "name_kana": "",
      "business_type": "飲食店営業",
      "address": "鳥羽市小浜町３００－７３",
      "lat": 34.49671000000001,
      "lng": 136.831265,
      "geocoding_level": 3,
      "phone": "070-5367-4065",
      "license_no": "志2401-0425",
      "license_date": null,
      "expire_date": null
    },
    {
      "name": "松井　君子",
      "name_kana": "",
      "business_type": "飲食店営業",
      "address": "鳥羽市相差町４３６－２",
      "lat": 34.387970294,
      "lng": 136.907630316,
      "geocoding_level": 8,
      "phone": "0599-33-6098",
      "license_no": "志2301-0073",
      "license_date": null,
      "expire_date": null
    },
    {
      "name": "井村　信子",
      "name_kana": "",
      "business_type": "飲食店営業",
      "address": "鳥羽市鳥羽２丁目８－８",
      "lat": 34.482315441,
      "lng": 136.839301834,
      "geocoding_level": 8,
      "phone": "0599-25-5248",
      "license_no": "志2301-0157",
      "license_date": null,
      "expire_date": null
    },
    {
      "name": "中村　加寿代",
      "name_kana": "",
      "business_type": "飲食店営業",
      "address": "鳥羽市答志町２９２",
      "lat": 34.524463,
      "lng": 136.891855,
      "geocoding_level": 3,
      "phone": "0599-37-2420",
      "license_no": "志2301-0284",
      "license_date": null,
      "expire_date": null
    },
    {
      "name": "小久保明美",
      "name_kana": "",
      "business_type": "飲食店営業",
      "address": "鳥羽市神島町６０２－２２",
      "lat": 34.545666,
      "lng": 136.981915,
      "geocoding_level": 3,
      "phone": "0599-38-2251",
      "license_no": "志2401-0369",
      "license_date": null,
      "expire_date": null
    },
    {
      "name": "木田　裕三",
      "name_kana": "",
      "business_type": "飲食店営業",
      "address": "鳥羽市坂手町１０６４－２５",
      "lat": 34.486496,
      "lng": 136.858203,
      "geocoding_level": 3,
      "phone": "0599-26-3155",
      "license_no": "志2301-0011",
      "license_date": null,
      "expire_date": null
    },
    {
      "name": "下村広枝",
      "name_kana": "",
      "business_type": "飲食店営業（旧）",
      "address": "鳥羽市相差町１４１０－１",
      "lat": 34.391588468,
      "lng": 136.907028132,
      "geocoding_level": 8,
      "phone": "0599-33-6239",
      "license_no": "伊 保第 62-8301-1067 号",
      "license_date": null,
      "expire_date": null
    },
    {
      "name": "中村吉次",
      "name_kana": "",
      "business_type": "飲食店営業（旧）",
      "address": "鳥羽市答志町９５８",
      "lat": 34.524463,
      "lng": 136.891855,
      "geocoding_level": 3,
      "phone": "0599-37-2034",
      "license_no": "伊 保第 62-8301-1068 号",
      "license_date": null,
      "expire_date": null
    },
    {
      "name": "濱口　光次",
      "name_kana": "",
      "business_type": "飲食店営業",
      "address": "鳥羽市答志町１１０７",
      "lat": 34.524463,
      "lng": 136.891855,
      "geocoding_level": 3,
      "phone": "0599-37-2148",
      "license_no": "志2301-0059",
      "license_date": null,
      "expire_date": null
    },
    {
      "name": "濵口　惠子",
      "name_kana": "",
      "business_type": "飲食店営業",
      "address": "鳥羽市答志町２１５６",
      "lat": 34.524463,
      "lng": 136.891855,
      "geocoding_level": 3,
      "phone": "0599-37-2133",
      "license_no": "志2301-0119",
      "license_date": null,
      "expire_date": null
    },
    {
      "name": "濱崎久和",
      "name_kana": "",
      "business_type": "飲食店営業",
      "address": "鳥羽市畔蛸町１８８",
      "lat": 34.39425,
      "lng": 136.88994,
      "geocoding_level": 3,
      "phone": "0599-33-6348",
      "license_no": "志2101-0169",
      "license_date": null,
      "expire_date": null
    },
    {
      "name": "国家公務員共済組合連合会",
      "name_kana": "",
      "business_type": "飲食店営業",
      "address": "鳥羽市安楽島町１０７５",
      "lat": 34.463592,
      "lng": 136.865802,
      "geocoding_level": 3,
      "phone": "0599-25-3226",
      "license_no": "志2101-0172",
      "license_date": null,
      "expire_date": null
    },
    {
      "name": "グリーン・サービス株式会社",
      "name_kana": "",
      "business_type": "飲食店営業",
      "address": "鳥羽市安楽島町１０４５－１７",
      "lat": 34.47465121,
      "lng": 136.867708817,
      "geocoding_level": 8,
      "phone": "0599-26-4821",
      "license_no": "志2301-0279",
      "license_date": null,
      "expire_date": null
    },
    {
      "name": "濱﨑ちづ代",
      "name_kana": "",
      "business_type": "飲食店営業",
      "address": "鳥羽市答志町４７",
      "lat": 34.524463,
      "lng": 136.891855,
      "geocoding_level": 3,
      "phone": "",
      "license_no": "志2401-0407",
      "license_date": null,
      "expire_date": null
    },
    {
      "name": "川原　紀久広",
      "name_kana": "",
      "business_type": "飲食店営業",
      "address": "鳥羽市答志町５０７－２",
      "lat": 34.524463,
      "lng": 136.891855,
      "geocoding_level": 3,
      "phone": "0599-37-2166",
      "license_no": "志2301-0348",
      "license_date": null,
      "expire_date": null
    },
    {
      "name": "山下博也",
      "name_kana": "",
      "business_type": "飲食店営業",
      "address": "鳥羽市答志町９９",
      "lat": 34.524463,
      "lng": 136.891855,
      "geocoding_level": 3,
      "phone": "0599-37-2121",
      "license_no": "志2501-0081",
      "license_date": null,
      "expire_date": null
    },
    {
      "name": "有限会社勝原産業",
      "name_kana": "",
      "business_type": "飲食店営業",
      "address": "鳥羽市大明西町１－１",
      "lat": 34.470661709,
      "lng": 136.847552107,
      "geocoding_level": 8,
      "phone": "0599-26-3845",
      "license_no": "志2401-0147",
      "license_date": null,
      "expire_date": null
    },
    {
      "name": "下村武彦",
      "name_kana": "",
      "business_type": "飲食店営業",
      "address": "鳥羽市相差町１２８４",
      "lat": 34.390234483,
      "lng": 136.903835967,
      "geocoding_level": 8,
      "phone": "0599-33-6886",
      "license_no": "志2501-0118",
      "license_date": null,
      "expire_date": null
    },
    {
      "name": "木下重昭",
      "name_kana": "",
      "business_type": "飲食店営業",
      "address": "鳥羽市菅島町４－３",
      "lat": 34.489938,
      "lng": 136.888162,
      "geocoding_level": 3,
      "phone": "0599-34-2208",
      "license_no": "志2501-0088",
      "license_date": null,
      "expire_date": null
    },
    {
      "name": "藤村由紀子",
      "name_kana": "",
      "business_type": "飲食店営業",
      "address": "鳥羽市安楽島町８０２",
      "lat": 34.464213594,
      "lng": 136.87214781,
      "geocoding_level": 8,
      "phone": "0599-25-3838",
      "license_no": "志2501-0150",
      "license_date": null,
      "expire_date": null
    },
    {
      "name": "西川　豊幸",
      "name_kana": "",
      "business_type": "飲食店営業",
      "address": "鳥羽市答志町２４０",
      "lat": 34.524463,
      "lng": 136.891855,
      "geocoding_level": 3,
      "phone": "0599-37-2058",
      "license_no": "志2401-0162",
      "license_date": null,
      "expire_date": null
    },
    {
      "name": "上村　徹",
      "name_kana": "",
      "business_type": "飲食店営業",
      "address": "鳥羽市相差町 千鳥ケ浜",
      "lat": 34.394882,
      "lng": 136.901629,
      "geocoding_level": 3,
      "phone": "0599-33-6209",
      "license_no": "志2501-0141",
      "license_date": null,
      "expire_date": null
    },
    {
      "name": "永富　和廣",
      "name_kana": "",
      "business_type": "飲食店営業",
      "address": "鳥羽市答志町１９６",
      "lat": 34.524463,
      "lng": 136.891855,
      "geocoding_level": 3,
      "phone": "0599-37-2036",
      "license_no": "志2301-0347",
      "license_date": null,
      "expire_date": null
    },
    {
      "name": "伊藤　嘉朗",
      "name_kana": "",
      "business_type": "飲食店営業",
      "address": "鳥羽市相差町１５３５－３、１５２２－１５",
      "lat": 34.39558556,
      "lng": 136.906868307,
      "geocoding_level": 8,
      "phone": "0599-33-6382",
      "license_no": "志2401-0022",
      "license_date": null,
      "expire_date": null
    },
    {
      "name": "家田　広美",
      "name_kana": "",
      "business_type": "飲食店営業",
      "address": "鳥羽市相差町１３６２－５",
      "lat": 34.390880169,
      "lng": 136.904744194,
      "geocoding_level": 8,
      "phone": "0599-33-7112",
      "license_no": "志2401-0050",
      "license_date": null,
      "expire_date": null
    },
    {
      "name": "杉田　健",
      "name_kana": "",
      "business_type": "飲食店営業",
      "address": "鳥羽市安楽島町１０７５－１５６",
      "lat": 34.474085964,
      "lng": 136.860280243,
      "geocoding_level": 8,
      "phone": "0599-26-5288",
      "license_no": "志2401-0079",
      "license_date": null,
      "expire_date": null
    },
    {
      "name": "中田雅雄",
      "name_kana": "",
      "business_type": "飲食店営業",
      "address": "鳥羽市相差町１２４９－１",
      "lat": 34.390480994,
      "lng": 136.906377934,
      "geocoding_level": 8,
      "phone": "0599-33-7071",
      "license_no": "志2401-0095",
      "license_date": null,
      "expire_date": null
    },
    {
      "name": "株式会社服部",
      "name_kana": "",
      "business_type": "飲食店営業",
      "address": "鳥羽市相差町１５２２－３１、３４、３５",
      "lat": 34.394330416,
      "lng": 136.908037639,
      "geocoding_level": 8,
      "phone": "0599-33-7111",
      "license_no": "志2301-0312",
      "license_date": null,
      "expire_date": null
    },
    {
      "name": "瀬﨑　豊一",
      "name_kana": "",
      "business_type": "飲食店営業",
      "address": "鳥羽市畔蛸町１８６",
      "lat": 34.39425,
      "lng": 136.88994,
      "geocoding_level": 3,
      "phone": "0599-33-6154",
      "license_no": "志2401-0188",
      "license_date": null,
      "expire_date": null
    },
    {
      "name": "中村伊知郎",
      "name_kana": "",
      "business_type": "飲食店営業",
      "address": "鳥羽市安楽島町６７６－２",
      "lat": 34.4626655,
      "lng": 136.868824157,
      "geocoding_level": 8,
      "phone": "0599-25-6133",
      "license_no": "志2501-0195",
      "license_date": null,
      "expire_date": null
    },
    {
      "name": "上村昌史",
      "name_kana": "",
      "business_type": "飲食店営業",
      "address": "鳥羽市相差町１１２６",
      "lat": 34.394882,
      "lng": 136.901629,
      "geocoding_level": 3,
      "phone": "0599-33-6017",
      "license_no": "志2401-0208",
      "license_date": null,
      "expire_date": null
    },
    {
      "name": "松本　林",
      "name_kana": "",
      "business_type": "飲食店営業",
      "address": "鳥羽市相差町３４６",
      "lat": 34.385255468,
      "lng": 136.906294989,
      "geocoding_level": 8,
      "phone": "0599-33-6205",
      "license_no": "志2401-0330",
      "license_date": null,
      "expire_date": null
    },
    {
      "name": "株式会社サン浦島",
      "name_kana": "",
      "business_type": "飲食店営業",
      "address": "鳥羽市浦村町１２１５－５",
      "lat": 34.443023167,
      "lng": 136.886410858,
      "geocoding_level": 8,
      "phone": "0599-32-5221",
      "license_no": "志2401-0333",
      "license_date": null,
      "expire_date": null
    },
    {
      "name": "中村信弘",
      "name_kana": "",
      "business_type": "飲食店営業",
      "address": "鳥羽市答志町５５",
      "lat": 34.524463,
      "lng": 136.891855,
      "geocoding_level": 3,
      "phone": "0599-37-2020",
      "license_no": "志2501-0316",
      "license_date": null,
      "expire_date": null
    },
    {
      "name": "株式会社御木本真珠島",
      "name_kana": "",
      "business_type": "飲食店営業",
      "address": "鳥羽市鳥羽１丁目７－１",
      "lat": 34.487879,
      "lng": 136.840414,
      "geocoding_level": 3,
      "phone": "0599-25-2028",
      "license_no": "志2401-0163",
      "license_date": null,
      "expire_date": null
    },
    {
      "name": "山津静香",
      "name_kana": "",
      "business_type": "菓子製造業",
      "address": "鳥羽市答志町４１２－４",
      "lat": 34.524463,
      "lng": 136.891855,
      "geocoding_level": 3,
      "phone": "0599-37-2139",
      "license_no": "志2511-0001",
      "license_date": null,
      "expire_date": null
    },
    {
      "name": "橋本　登",
      "name_kana": "",
      "business_type": "飲食店営業",
      "address": "鳥羽市答志町１１０６",
      "lat": 34.524463,
      "lng": 136.891855,
      "geocoding_level": 3,
      "phone": "0599-37-2314",
      "license_no": "志2501-0314",
      "license_date": null,
      "expire_date": null
    },
    {
      "name": "小久保松彦",
      "name_kana": "",
      "business_type": "飲食店営業",
      "address": "鳥羽市大明西町１－１ イオン鳥羽店内",
      "lat": 34.470661709,
      "lng": 136.847552107,
      "geocoding_level": 8,
      "phone": "0599-26-2115",
      "license_no": "志2401-0357",
      "license_date": null,
      "expire_date": null
    },
    {
      "name": "中山博良",
      "name_kana": "",
      "business_type": "飲食店営業",
      "address": "鳥羽市大明西町１－１ イオン鳥羽店内",
      "lat": 34.470661709,
      "lng": 136.847552107,
      "geocoding_level": 8,
      "phone": "0599-26-3843",
      "license_no": "志2401-0358",
      "license_date": null,
      "expire_date": null
    },
    {
      "name": "有限会社大阪屋",
      "name_kana": "",
      "business_type": "飲食店営業",
      "address": "鳥羽市鳥羽１丁目４－６４",
      "lat": 34.484030411,
      "lng": 136.842716269,
      "geocoding_level": 8,
      "phone": "0599-25-2336",
      "license_no": "志2401-0447",
      "license_date": null,
      "expire_date": null
    },
    {
      "name": "坂田　茂樹",
      "name_kana": "",
      "business_type": "飲食店営業",
      "address": "鳥羽市鳥羽２丁目４－３",
      "lat": 34.482834309,
      "lng": 136.840761487,
      "geocoding_level": 8,
      "phone": "0599-25-5506",
      "license_no": "志2601-0010",
      "license_date": null,
      "expire_date": null
    },
    {
      "name": "株式会社漣",
      "name_kana": "",
      "business_type": "飲食店営業",
      "address": "鳥羽市鳥羽３丁目５－２８",
      "lat": 34.48351479,
      "lng": 136.843114943,
      "geocoding_level": 8,
      "phone": "0599-25-2220",
      "license_no": "志2501-0108",
      "license_date": null,
      "expire_date": null
    },
    {
      "name": "宮崎栄二",
      "name_kana": "",
      "business_type": "飲食店営業",
      "address": "鳥羽市小浜町２７２－１１",
      "lat": 34.49671000000001,
      "lng": 136.831265,
      "geocoding_level": 3,
      "phone": "0599-26-2241",
      "license_no": "志2501-0243",
      "license_date": null,
      "expire_date": null
    },
    {
      "name": "濱口安永",
      "name_kana": "",
      "business_type": "飲食店営業",
      "address": "鳥羽市答志町８８８－３",
      "lat": 34.524463,
      "lng": 136.891855,
      "geocoding_level": 3,
      "phone": "0599-37-2102",
      "license_no": "志2501-0315",
      "license_date": null,
      "expire_date": null
    },
    {
      "name": "合資会社丸栄商店",
      "name_kana": "",
      "business_type": "飲食店営業",
      "address": "鳥羽市鳥羽１丁目６－１９",
      "lat": 34.484507448,
      "lng": 136.844442381,
      "geocoding_level": 8,
      "phone": "0599-25-3155",
      "license_no": "志2501-0322",
      "license_date": null,
      "expire_date": null
    },
    {
      "name": "松本寛司",
      "name_kana": "",
      "business_type": "飲食店営業",
      "address": "鳥羽市相差町１２２１",
      "lat": 34.391140409,
      "lng": 136.908720272,
      "geocoding_level": 8,
      "phone": "0599-33-6373",
      "license_no": "志2401-0402",
      "license_date": null,
      "expire_date": null
    },
    {
      "name": "中村與裕",
      "name_kana": "",
      "business_type": "飲食店営業",
      "address": "鳥羽市菅島町３５９－２",
      "lat": 34.489938,
      "lng": 136.888162,
      "geocoding_level": 3,
      "phone": "0599-34-2229",
      "license_no": "志2501-0345",
      "license_date": null,
      "expire_date": null
    },
    {
      "name": "有限会社ホテルニューいろは",
      "name_kana": "",
      "business_type": "飲食店営業",
      "address": "鳥羽市安楽島町１０７５－１４９",
      "lat": 34.477652627,
      "lng": 136.862909818,
      "geocoding_level": 8,
      "phone": "0599-25-2559",
      "license_no": "志2401-0410",
      "license_date": null,
      "expire_date": null
    },
    {
      "name": "中村伸市",
      "name_kana": "",
      "business_type": "飲食店営業",
      "address": "鳥羽市相差町１２２７",
      "lat": 34.390863681,
      "lng": 136.908056532,
      "geocoding_level": 8,
      "phone": "0599-33-6780",
      "license_no": "志2401-0446",
      "license_date": null,
      "expire_date": null
    },
    {
      "name": "山本　茂",
      "name_kana": "",
      "business_type": "飲食店営業",
      "address": "鳥羽市答志町１０２５－３",
      "lat": 34.524463,
      "lng": 136.891855,
      "geocoding_level": 3,
      "phone": "0599-37-2216",
      "license_no": "志2501-0074",
      "license_date": null,
      "expire_date": null
    },
    {
      "name": "世古安秀",
      "name_kana": "",
      "business_type": "飲食店営業",
      "address": "鳥羽市国崎町字横山下７３３－４",
      "lat": 34.416224,
      "lng": 136.915252,
      "geocoding_level": 3,
      "phone": "0599-33-6561",
      "license_no": "志2501-0103",
      "license_date": null,
      "expire_date": null
    },
    {
      "name": "中村愛子",
      "name_kana": "",
      "business_type": "飲食店営業",
      "address": "鳥羽市安楽島町１０７５－１６３",
      "lat": 34.477118146,
      "lng": 136.856251277,
      "geocoding_level": 8,
      "phone": "0599-26-5666",
      "license_no": "志2501-0062",
      "license_date": null,
      "expire_date": null
    },
    {
      "name": "小寺勝廣",
      "name_kana": "",
      "business_type": "飲食店営業",
      "address": "鳥羽市菅島町３６４－２０",
      "lat": 34.489938,
      "lng": 136.888162,
      "geocoding_level": 3,
      "phone": "0599-34-2027",
      "license_no": "志2501-0089",
      "license_date": null,
      "expire_date": null
    },
    {
      "name": "家田和人",
      "name_kana": "",
      "business_type": "飲食店営業",
      "address": "鳥羽市畔蛸町１９５０－１",
      "lat": 34.39425,
      "lng": 136.88994,
      "geocoding_level": 3,
      "phone": "0599-33-6026",
      "license_no": "志2501-0122",
      "license_date": null,
      "expire_date": null
    },
    {
      "name": "有限会社錦屋",
      "name_kana": "",
      "business_type": "飲食店営業",
      "address": "鳥羽市鳥羽３丁目３２－８",
      "lat": 34.478423604,
      "lng": 136.845630332,
      "geocoding_level": 8,
      "phone": "0599-25-2412",
      "license_no": "志2501-0178",
      "license_date": null,
      "expire_date": null
    },
    {
      "name": "株式会社石鏡第一ホテル",
      "name_kana": "",
      "business_type": "飲食店営業",
      "address": "鳥羽市石鏡町３３８－５",
      "lat": 34.442286576,
      "lng": 136.919701923,
      "geocoding_level": 8,
      "phone": "0599-32-5301",
      "license_no": "志2501-0144",
      "license_date": null,
      "expire_date": null
    },
    {
      "name": "上野観光株式会社",
      "name_kana": "",
      "business_type": "飲食店営業",
      "address": "鳥羽市小浜町２３９－９",
      "lat": 34.49671000000001,
      "lng": 136.831265,
      "geocoding_level": 3,
      "phone": "0599-25-4141",
      "license_no": "志2501-0181",
      "license_date": null,
      "expire_date": null
    },
    {
      "name": "合名会社錦浦館",
      "name_kana": "",
      "business_type": "飲食店営業",
      "address": "鳥羽市鳥羽１丁目１０－３８",
      "lat": 34.485788229,
      "lng": 136.844122228,
      "geocoding_level": 8,
      "phone": "0599-25-2001",
      "license_no": "志2501-0213",
      "license_date": null,
      "expire_date": null
    },
    {
      "name": "青山峯男",
      "name_kana": "",
      "business_type": "飲食店営業",
      "address": "鳥羽市相差町３９２",
      "lat": 34.386587841,
      "lng": 136.904684249,
      "geocoding_level": 8,
      "phone": "0599-33-6185",
      "license_no": "志2501-0205",
      "license_date": null,
      "expire_date": null
    },
    {
      "name": "井村房代",
      "name_kana": "",
      "business_type": "飲食店営業",
      "address": "鳥羽市相差町１９２４",
      "lat": 34.391535364,
      "lng": 136.898775857,
      "geocoding_level": 8,
      "phone": "0599-33-6972",
      "license_no": "志2501-0203",
      "license_date": null,
      "expire_date": null
    },
    {
      "name": "中村好利",
      "name_kana": "",
      "business_type": "飲食店営業",
      "address": "鳥羽市答志町２１９６－１",
      "lat": 34.524463,
      "lng": 136.891855,
      "geocoding_level": 3,
      "phone": "0599-37-2309",
      "license_no": "志2501-0224",
      "license_date": null,
      "expire_date": null
    },
    {
      "name": "有限会社扇芳閣",
      "name_kana": "",
      "business_type": "飲食店営業",
      "address": "鳥羽市鳥羽２丁目１２－２４",
      "lat": 34.480928761,
      "lng": 136.838636114,
      "geocoding_level": 8,
      "phone": "0599-25-3151",
      "license_no": "志2501-0244",
      "license_date": null,
      "expire_date": null
    },
    {
      "name": "中村嘉敏",
      "name_kana": "",
      "business_type": "飲食店営業",
      "address": "鳥羽市相差町１２１９、１２２０",
      "lat": 34.39098831100001,
      "lng": 136.908515757,
      "geocoding_level": 8,
      "phone": "0599-33-6750",
      "license_no": "志2501-0303",
      "license_date": null,
      "expire_date": null
    },
    {
      "name": "株式会社石鏡第一ホテル",
      "name_kana": "",
      "business_type": "飲食店営業（旧）",
      "address": "鳥羽市小浜町２９９－４０",
      "lat": 34.49671000000001,
      "lng": 136.831265,
      "geocoding_level": 3,
      "phone": "0599-25-3202",
      "license_no": "伊 保第 62-8501-1314 号",
      "license_date": null,
      "expire_date": null
    },
    {
      "name": "有限会社寿々波",
      "name_kana": "",
      "business_type": "飲食店営業",
      "address": "鳥羽市答志町７３５",
      "lat": 34.524463,
      "lng": 136.891855,
      "geocoding_level": 3,
      "phone": "0599-37-2001",
      "license_no": "志2501-0347",
      "license_date": null,
      "expire_date": null
    },
    {
      "name": "上野観光株式会社",
      "name_kana": "",
      "business_type": "飲食店営業",
      "address": "鳥羽市小浜町２３９－９",
      "lat": 34.49671000000001,
      "lng": 136.831265,
      "geocoding_level": 3,
      "phone": "0599-25-4141",
      "license_no": "志2501-0180",
      "license_date": null,
      "expire_date": null
    },
    {
      "name": "大形修一",
      "name_kana": "",
      "business_type": "食肉販売業",
      "address": "鳥羽市鳥羽４丁目３－１９",
      "lat": 34.4758604,
      "lng": 136.844456847,
      "geocoding_level": 8,
      "phone": "0599-26-3269",
      "license_no": "志2103-0002",
      "license_date": null,
      "expire_date": null
    },
    {
      "name": "大形修一",
      "name_kana": "",
      "business_type": "魚介類販売業",
      "address": "鳥羽市鳥羽４丁目３－１９",
      "lat": 34.4758604,
      "lng": 136.844456847,
      "geocoding_level": 8,
      "phone": "0599-26-3269",
      "license_no": "志2104-0011",
      "license_date": null,
      "expire_date": null
    },
    {
      "name": "合資会社丸佐商店",
      "name_kana": "",
      "business_type": "みそ又はしょうゆ製造業",
      "address": "鳥羽市鳥羽４丁目１６－２",
      "lat": 34.475248785,
      "lng": 136.844314531,
      "geocoding_level": 8,
      "phone": "0599-25-2040",
      "license_no": "志2120-0002",
      "license_date": null,
      "expire_date": null
    },
    {
      "name": "中村喜美子",
      "name_kana": "",
      "business_type": "飲食店営業（旧）",
      "address": "鳥羽市鳥羽３丁目３２－１７",
      "lat": 34.477620405,
      "lng": 136.845539205,
      "geocoding_level": 8,
      "phone": "0599-25-2218",
      "license_no": "伊 保第 62-8601-0059 号",
      "license_date": null,
      "expire_date": null
    },
    {
      "name": "中村吉次",
      "name_kana": "",
      "business_type": "飲食店営業（旧）",
      "address": "鳥羽市答志町９５８",
      "lat": 34.524463,
      "lng": 136.891855,
      "geocoding_level": 3,
      "phone": "0599-37-2034",
      "license_no": "伊 保第 62-8601-0060 号",
      "license_date": null,
      "expire_date": null
    },
    {
      "name": "イオンリテール株式会社",
      "name_kana": "",
      "business_type": "飲食店営業",
      "address": "鳥羽市大明西町１－１",
      "lat": 34.470661709,
      "lng": 136.847552107,
      "geocoding_level": 8,
      "phone": "0599-26-5133",
      "license_no": "志2101-0166",
      "license_date": null,
      "expire_date": null
    },
    {
      "name": "イオンリテール株式会社",
      "name_kana": "",
      "business_type": "そうざい製造業",
      "address": "鳥羽市大明西町１－１",
      "lat": 34.470661709,
      "lng": 136.847552107,
      "geocoding_level": 8,
      "phone": "0599-26-5133",
      "license_no": "志2125-0007",
      "license_date": null,
      "expire_date": null
    },
    {
      "name": "角田孝弘",
      "name_kana": "",
      "business_type": "飲食店営業",
      "address": "鳥羽市浦村町１２２５－３",
      "lat": 34.443295663,
      "lng": 136.885784239,
      "geocoding_level": 8,
      "phone": "0599-32-5945",
      "license_no": "志2301-0297",
      "license_date": null,
      "expire_date": null
    },
    {
      "name": "イオンリテール株式会社",
      "name_kana": "",
      "business_type": "食肉販売業",
      "address": "鳥羽市大明西町１－１",
      "lat": 34.470661709,
      "lng": 136.847552107,
      "geocoding_level": 8,
      "phone": "0599-26-5133",
      "license_no": "志2103-0003",
      "license_date": null,
      "expire_date": null
    },
    {
      "name": "イオンリテール株式会社",
      "name_kana": "",
      "business_type": "魚介類販売業",
      "address": "鳥羽市大明西町１－１",
      "lat": 34.470661709,
      "lng": 136.847552107,
      "geocoding_level": 8,
      "phone": "0599-26-5133",
      "license_no": "志2104-0012",
      "license_date": null,
      "expire_date": null
    },
    {
      "name": "中村　岳晴",
      "name_kana": "",
      "business_type": "魚介類販売業",
      "address": "鳥羽市鳥羽１丁目２２－８",
      "lat": 34.488679611,
      "lng": 136.837482216,
      "geocoding_level": 8,
      "phone": "0599-25-2132",
      "license_no": "志2304-0033",
      "license_date": null,
      "expire_date": null
    },
    {
      "name": "松井　恵美子",
      "name_kana": "",
      "business_type": "飲食店営業",
      "address": "鳥羽市相差町９３５－１",
      "lat": 34.389517462,
      "lng": 136.901773034,
      "geocoding_level": 8,
      "phone": "0599-33-6242",
      "license_no": "志2301-0290",
      "license_date": null,
      "expire_date": null
    },