{
  "meta": {
    "updated": 1783906731,
    "sources": [
      {
        "source": "岐阜県食品営業許可施設情報",
        "license": "CC BY 2.0"
      },
      {
        "source": "厚生労働省 食品衛生申請等システム（オープンデータ）",
        "license": "公共データ利用規約（第1.0版, PDL1.0）"
      }
    ]
  },
  "data": [
    {
      "name": "茶屋　木曽馬",
      "name_kana": "",
      "business_type": "飲食店営業",
      "address": "岐阜県多治見市小泉町８丁目２５－１",
      "lat": 35.347461,
      "lng": 137.098726,
      "geocoding_level": 3,
      "phone": "090-9896-6994",
      "license_no": "59000004",
      "license_date": "2021-06-14",
      "expire_date": "2027-02-28"
    },
    {
      "name": "ｆａｍｆａｍ",
      "name_kana": "",
      "business_type": "菓子製造業",
      "address": "岐阜県多治見市弁天町４丁目１２",
      "lat": 35.343034,
      "lng": 137.131625,
      "geocoding_level": 3,
      "phone": "0572-24-2223",
      "license_no": "59000005",
      "license_date": "2021-06-14",
      "expire_date": "2027-02-28"
    },
    {
      "name": "黒家　本店",
      "name_kana": "",
      "business_type": "食肉販売業",
      "address": "岐阜県多治見市宝町５丁目９８　　レオパレス宝パートⅡ",
      "lat": 35.341385,
      "lng": 137.110274,
      "geocoding_level": 3,
      "phone": "0572-24-2229",
      "license_no": "59000011",
      "license_date": "2021-06-09",
      "expire_date": "2027-02-28"
    },
    {
      "name": "黒家　上野町店",
      "name_kana": "",
      "business_type": "食肉販売業",
      "address": "岐阜県多治見市上野町１丁目１０",
      "lat": 35.337799,
      "lng": 137.124787,
      "geocoding_level": 3,
      "phone": "0572-24-0968",
      "license_no": "59000012",
      "license_date": "2021-06-09",
      "expire_date": "2027-02-28"
    },
    {
      "name": "焼肉苑　咲万",
      "name_kana": "",
      "business_type": "飲食店営業",
      "address": "岐阜県多治見市本町２丁目２２　リリービル１－Ｂ",
      "lat": 35.334935,
      "lng": 137.122472,
      "geocoding_level": 3,
      "phone": "0572-56-8884",
      "license_no": "59000014",
      "license_date": "2021-07-06",
      "expire_date": "2027-02-28"
    },
    {
      "name": "麺亭　まきた",
      "name_kana": "",
      "business_type": "飲食店営業",
      "address": "岐阜県多治見市前畑町４丁目１０４　井澤ビル１０１",
      "lat": 35.330905,
      "lng": 137.11390300000002,
      "geocoding_level": 3,
      "phone": "0572-23-8555",
      "license_no": "59000015",
      "license_date": "2021-06-21",
      "expire_date": "2027-02-28"
    },
    {
      "name": "つむぎ",
      "name_kana": "",
      "business_type": "飲食店営業",
      "address": "岐阜県多治見市東栄町１丁目１４－１",
      "lat": 35.35367,
      "lng": 137.137981,
      "geocoding_level": 3,
      "phone": "0572-26-7146",
      "license_no": "59000016",
      "license_date": "2021-06-21",
      "expire_date": "2027-02-28"
    },
    {
      "name": "ジャパンレンタカー株式会社　多治見店",
      "name_kana": "",
      "business_type": "飲食店営業",
      "address": "岐阜県多治見市若松町２丁目１９－１",
      "lat": 35.341723,
      "lng": 137.114811,
      "geocoding_level": 3,
      "phone": "0572-24-2121",
      "license_no": "59000017",
      "license_date": "2021-06-16",
      "expire_date": "2027-02-28"
    },
    {
      "name": "ＮＥＷ喫茶　コトブキヤ",
      "name_kana": "",
      "business_type": "飲食店営業",
      "address": "岐阜県多治見市笠原町神戸２１３３－２",
      "lat": 35.293425,
      "lng": 137.160497,
      "geocoding_level": 3,
      "phone": "",
      "license_no": "59000018",
      "license_date": "2021-07-12",
      "expire_date": "2026-11-30"
    },
    {
      "name": "ＣＬＵＢ　ＰＬＡＴＩＮＵＭ",
      "name_kana": "",
      "business_type": "飲食店営業",
      "address": "岐阜県多治見市若松町２丁目２１－１　タウンＬ＆Ｇタジミ２階５号室",
      "lat": 35.341723,
      "lng": 137.114811,
      "geocoding_level": 3,
      "phone": "0572-56-0167",
      "license_no": "59000019",
      "license_date": "2021-06-22",
      "expire_date": "2027-02-28"
    },
    {
      "name": "宴",
      "name_kana": "",
      "business_type": "飲食店営業",
      "address": "岐阜県多治見市宝町５丁目９７　レオパレス宝　１０７号",
      "lat": 35.341385,
      "lng": 137.110274,
      "geocoding_level": 3,
      "phone": "",
      "license_no": "59000020",
      "license_date": "2021-06-25",
      "expire_date": "2027-02-28"
    },
    {
      "name": "森の工房",
      "name_kana": "",
      "business_type": "そうざい製造業",
      "address": "岐阜県多治見市生田町６丁目７１－１",
      "lat": 35.334947032,
      "lng": 137.14716184,
      "geocoding_level": 8,
      "phone": "0572-56-8585",
      "license_no": "59000021",
      "license_date": "2021-07-06",
      "expire_date": "2026-11-30"
    },
    {
      "name": "森の工房",
      "name_kana": "",
      "business_type": "菓子製造業",
      "address": "岐阜県多治見市生田町６丁目７１－１",
      "lat": 35.334947032,
      "lng": 137.14716184,
      "geocoding_level": 8,
      "phone": "0572-56-8585",
      "license_no": "59000022",
      "license_date": "2021-07-06",
      "expire_date": "2026-11-30"
    },
    {
      "name": "まんぼう屋",
      "name_kana": "",
      "business_type": "そうざい製造業",
      "address": "岐阜県多治見市大畑町大洞４８－２８　レインボーハイツ１０３",
      "lat": 35.314257,
      "lng": 137.124638,
      "geocoding_level": 3,
      "phone": "090-3933-4452",
      "license_no": "59000029",
      "license_date": "2021-07-28",
      "expire_date": "2026-11-30"
    },
    {
      "name": "まんぼう屋",
      "name_kana": "",
      "business_type": "菓子製造業",
      "address": "岐阜県多治見市大畑町大洞４８－２８　レインボーハイツ１０３",
      "lat": 35.314257,
      "lng": 137.124638,
      "geocoding_level": 3,
      "phone": "090-3933-4452",
      "license_no": "59000030",
      "license_date": "2021-07-28",
      "expire_date": "2026-11-30"
    },
    {
      "name": "韓国市場　セットン",
      "name_kana": "",
      "business_type": "飲食店営業",
      "address": "岐阜県多治見市太平町６丁目６５　リバティ太平１０２号室",
      "lat": 35.337368,
      "lng": 137.10975100000002,
      "geocoding_level": 3,
      "phone": "090-5634-3047",
      "license_no": "59000035",
      "license_date": "2021-07-26",
      "expire_date": "2027-02-28"
    },
    {
      "name": "茶菓小",
      "name_kana": "",
      "business_type": "飲食店営業",
      "address": "岐阜県多治見市三笠町４丁目１３",
      "lat": 35.328753000000006,
      "lng": 137.128098,
      "geocoding_level": 3,
      "phone": "090-6090-8706",
      "license_no": "59000041",
      "license_date": "2021-08-02",
      "expire_date": "2026-11-30"
    },
    {
      "name": "ＭＫ１１３３９事業所",
      "name_kana": "",
      "business_type": "飲食店営業",
      "address": "岐阜県多治見市平和町４丁目１８０　多治見市昭和小学校近接校対応調理場内",
      "lat": 35.328749,
      "lng": 137.119959,
      "geocoding_level": 3,
      "phone": "070-8699-4239",
      "license_no": "59000043",
      "license_date": "2021-08-10",
      "expire_date": "2026-11-30"
    },
    {
      "name": "ＭＫ１１３４７事業所",
      "name_kana": "",
      "business_type": "飲食店営業",
      "address": "岐阜県多治見市滝呂町１２丁目１８６－４　多治見市滝呂小学校内",
      "lat": 35.316379,
      "lng": 137.16087,
      "geocoding_level": 3,
      "phone": "070-8699-4240",
      "license_no": "59000044",
      "license_date": "2021-08-10",
      "expire_date": "2026-11-30"
    },
    {
      "name": "肉のわたなべ",
      "name_kana": "",
      "business_type": "飲食店営業",
      "address": "岐阜県多治見市音羽町４丁目１０４",
      "lat": 35.33624700000001,
      "lng": 137.115533,
      "geocoding_level": 3,
      "phone": "0572-22-7117",
      "license_no": "59000045",
      "license_date": "2021-08-10",
      "expire_date": "2027-02-28"
    },
    {
      "name": "肉のわたなべ",
      "name_kana": "",
      "business_type": "食肉販売業",
      "address": "岐阜県多治見市音羽町４丁目１０４",
      "lat": 35.33624700000001,
      "lng": 137.115533,
      "geocoding_level": 3,
      "phone": "0572-22-7117",
      "license_no": "59000046",
      "license_date": "2021-08-10",
      "expire_date": "2027-02-28"
    },
    {
      "name": "小川珈琲　多治見店",
      "name_kana": "",
      "business_type": "飲食店営業",
      "address": "岐阜県多治見市住吉町３丁目１９－１　ピアゴ多治見店　１Ｆ",
      "lat": 35.343703353,
      "lng": 137.122013716,
      "geocoding_level": 8,
      "phone": "0572-24-2330",
      "license_no": "59000047",
      "license_date": "2021-08-23",
      "expire_date": "2027-02-28"
    },
    {
      "name": "千菊ファーム",
      "name_kana": "",
      "business_type": "漬物製造業",
      "address": "岐阜県多治見市小泉町４丁目９０",
      "lat": 35.348346,
      "lng": 137.0927,
      "geocoding_level": 3,
      "phone": "0572-29-3715",
      "license_no": "59000156",
      "license_date": "2021-08-27",
      "expire_date": "2027-02-28"
    },
    {
      "name": "ファミリーマート多治見明和町店",
      "name_kana": "",
      "business_type": "飲食店営業",
      "address": "岐阜県多治見市明和町２丁目７７",
      "lat": 35.356815211,
      "lng": 137.097102726,
      "geocoding_level": 8,
      "phone": "0572-20-0520",
      "license_no": "59000159",
      "license_date": "2021-08-27",
      "expire_date": "2027-02-28"
    },
    {
      "name": "ファミリーマート多治見小泉町店",
      "name_kana": "",
      "business_type": "飲食店営業",
      "address": "岐阜県多治見市小泉町８丁目１００",
      "lat": 35.347461,
      "lng": 137.098726,
      "geocoding_level": 3,
      "phone": "0572-20-1037",
      "license_no": "59000160",
      "license_date": "2021-08-27",
      "expire_date": "2027-02-28"
    },
    {
      "name": "焼肉苑　咲万",
      "name_kana": "",
      "business_type": "食肉販売業",
      "address": "岐阜県多治見市本町２丁目２２　リリービル１－Ｂ",
      "lat": 35.334935,
      "lng": 137.122472,
      "geocoding_level": 3,
      "phone": "0572-56-8884",
      "license_no": "59000162",
      "license_date": "2021-09-13",
      "expire_date": "2027-02-28"
    },
    {
      "name": "黒家セントラルキッチン",
      "name_kana": "",
      "business_type": "食肉処理業",
      "address": "岐阜県多治見市宝町５丁目９８　レオパレス宝パートII　１０７号",
      "lat": 35.341385,
      "lng": 137.110274,
      "geocoding_level": 3,
      "phone": "090-8677-6655",
      "license_no": "59000167",
      "license_date": "2021-09-13",
      "expire_date": "2027-02-28"
    },
    {
      "name": "からみそラーメンふくろう　多治見店",
      "name_kana": "",
      "business_type": "そうざい製造業",
      "address": "岐阜県多治見市虎渓町２丁目４５－２",
      "lat": 35.337452,
      "lng": 137.126156,
      "geocoding_level": 3,
      "phone": "0572-26-8404",
      "license_no": "59000175",
      "license_date": "2021-09-27",
      "expire_date": "2027-02-28"
    },
    {
      "name": "ＬＢ　ＧＩＦＵ",
      "name_kana": "",
      "business_type": "飲食店営業",
      "address": "岐阜県多治見市大針町６２４－１１",
      "lat": 35.371436,
      "lng": 137.073744,
      "geocoding_level": 3,
      "phone": "0572-56-1192",
      "license_no": "59000180",
      "license_date": "2021-10-08",
      "expire_date": "2027-02-28"
    },
    {
      "name": "ｈａｚｉｃｃｏ",
      "name_kana": "",
      "business_type": "飲食店営業",
      "address": "岐阜県多治見市十九田町１丁目７－７　メゾン小島１Ｆ　１０１号",
      "lat": 35.341295,
      "lng": 137.124125,
      "geocoding_level": 3,
      "phone": "0572-87-2077",
      "license_no": "59000182",
      "license_date": "2021-10-08",
      "expire_date": "2027-02-28"
    },
    {
      "name": "ｈａｚｉｃｃｏ",
      "name_kana": "",
      "business_type": "菓子製造業",
      "address": "岐阜県多治見市十九田町１丁目７－７　メゾン小島１Ｆ　１０１号",
      "lat": 35.341295,
      "lng": 137.124125,
      "geocoding_level": 3,
      "phone": "0572-87-2077",
      "license_no": "59000183",
      "license_date": "2021-10-08",
      "expire_date": "2027-02-28"
    },
    {
      "name": "ホテル　ワオッ　多治見",
      "name_kana": "",
      "business_type": "飲食店営業",
      "address": "岐阜県多治見市市之倉町１３丁目３５",
      "lat": 35.305948,
      "lng": 137.10657,
      "geocoding_level": 3,
      "phone": "0572-24-5550",
      "license_no": "59000184",
      "license_date": "2021-10-15",
      "expire_date": "2026-11-30"
    },
    {
      "name": "１２ｔｓｕｋｉ",
      "name_kana": "",
      "business_type": "菓子製造業",
      "address": "岐阜県多治見市滝呂町９丁目１５５－７３",
      "lat": 35.31566575600001,
      "lng": 137.15071387,
      "geocoding_level": 8,
      "phone": "0572-22-4247",
      "license_no": "59000189",
      "license_date": "2021-10-29",
      "expire_date": "2026-11-30"
    },
    {
      "name": "ｃａｆｅ　ＫａＲＡ　ＫａＲＡ",
      "name_kana": "",
      "business_type": "食品の小分け業",
      "address": "岐阜県多治見市笠原町４１１４－２１",
      "lat": 35.293425,
      "lng": 137.160497,
      "geocoding_level": 3,
      "phone": "0572-44-2288",
      "license_no": "59000191",
      "license_date": "2021-10-18",
      "expire_date": "2026-11-30"
    },
    {
      "name": "木曽路　多治見店",
      "name_kana": "",
      "business_type": "飲食店営業",
      "address": "岐阜県多治見市音羽町４丁目２－２",
      "lat": 35.33624700000001,
      "lng": 137.115533,
      "geocoding_level": 3,
      "phone": "0572-25-7077",
      "license_no": "59000194",
      "license_date": "2021-10-25",
      "expire_date": "2027-02-28"
    },
    {
      "name": "木曽路　多治見店",
      "name_kana": "",
      "business_type": "魚介類販売業",
      "address": "岐阜県多治見市音羽町４丁目２－２",
      "lat": 35.33624700000001,
      "lng": 137.115533,
      "geocoding_level": 3,
      "phone": "0572-25-7077",
      "license_no": "59000195",
      "license_date": "2021-10-25",
      "expire_date": "2027-02-28"
    },
    {
      "name": "大衆うなぎ　炭焼　源",
      "name_kana": "",
      "business_type": "飲食店営業",
      "address": "岐阜県多治見市宝町５丁目９７　レオパレス宝１０２",
      "lat": 35.341385,
      "lng": 137.110274,
      "geocoding_level": 3,
      "phone": "0572-74-4649",
      "license_no": "59000197",
      "license_date": "2021-10-29",
      "expire_date": "2027-02-28"
    },
    {
      "name": "喫茶　窯",
      "name_kana": "",
      "business_type": "飲食店営業",
      "address": "岐阜県多治見市笠原町３９１９",
      "lat": 35.293425,
      "lng": 137.160497,
      "geocoding_level": 3,
      "phone": "0572-43-4617",
      "license_no": "59000199",
      "license_date": "2021-11-11",
      "expire_date": "2026-11-30"
    },
    {
      "name": "オオマツフード笠原店",
      "name_kana": "",
      "business_type": "食肉販売業",
      "address": "岐阜県多治見市笠原町２７４３－１",
      "lat": 35.293425,
      "lng": 137.160497,
      "geocoding_level": 3,
      "phone": "0572-43-6811",
      "license_no": "59000201",
      "license_date": "2021-11-11",
      "expire_date": "2026-11-30"
    },
    {
      "name": "オオマツフード笠原店",
      "name_kana": "",
      "business_type": "飲食店営業",
      "address": "岐阜県多治見市笠原町２７４３－１",
      "lat": 35.293425,
      "lng": 137.160497,
      "geocoding_level": 3,
      "phone": "0572-43-6811",
      "license_no": "59000202",
      "license_date": "2021-11-11",
      "expire_date": "2026-11-30"
    },
    {
      "name": "オオマツフード笠原店",
      "name_kana": "",
      "business_type": "魚介類販売業",
      "address": "岐阜県多治見市笠原町２７４３－１",
      "lat": 35.293425,
      "lng": 137.160497,
      "geocoding_level": 3,
      "phone": "0572-43-6811",
      "license_no": "59000203",
      "license_date": "2021-11-11",
      "expire_date": "2026-11-30"
    },
    {
      "name": "スマイルメディカ　２号館",
      "name_kana": "",
      "business_type": "飲食店営業",
      "address": "岐阜県多治見市笠原町２４５５－４１",
      "lat": 35.293425,
      "lng": 137.160497,
      "geocoding_level": 3,
      "phone": "0572-45-2077",
      "license_no": "59000204",
      "license_date": "2021-11-11",
      "expire_date": "2026-11-30"
    },
    {
      "name": "玉野屋",
      "name_kana": "",
      "business_type": "飲食店営業",
      "address": "岐阜県多治見市笠原町２４６９－２",
      "lat": 35.293425,
      "lng": 137.160497,
      "geocoding_level": 3,
      "phone": "0572-43-2002",
      "license_no": "59000205",
      "license_date": "2021-11-11",
      "expire_date": "2026-11-30"
    },
    {
      "name": "玉野屋",
      "name_kana": "",
      "business_type": "魚介類販売業",
      "address": "岐阜県多治見市笠原町２４６９－２",
      "lat": 35.293425,
      "lng": 137.160497,
      "geocoding_level": 3,
      "phone": "0572-43-2002",
      "license_no": "59000206",
      "license_date": "2021-11-11",
      "expire_date": "2026-11-30"
    },
    {
      "name": "玉野屋",
      "name_kana": "",
      "business_type": "食肉販売業",
      "address": "岐阜県多治見市笠原町２４６９－２",
      "lat": 35.293425,
      "lng": 137.160497,
      "geocoding_level": 3,
      "phone": "0572-43-2002",
      "license_no": "59000207",
      "license_date": "2021-11-11",
      "expire_date": "2026-11-30"
    },
    {
      "name": "デリカポイント笠原店",
      "name_kana": "",
      "business_type": "飲食店営業",
      "address": "岐阜県多治見市笠原町２４６９－２",
      "lat": 35.293425,
      "lng": 137.160497,
      "geocoding_level": 3,
      "phone": "050-3822-5386",
      "license_no": "59000208",
      "license_date": "2021-11-11",
      "expire_date": "2026-11-30"
    },
    {
      "name": "横綱寿司",
      "name_kana": "",
      "business_type": "飲食店営業",
      "address": "岐阜県多治見市笠原町２４６９－２",
      "lat": 35.293425,
      "lng": 137.160497,
      "geocoding_level": 3,
      "phone": "0572-43-3313",
      "license_no": "59000209",
      "license_date": "2021-11-11",
      "expire_date": "2026-11-30"
    },
    {
      "name": "ＭＩＤＯＲＩＹＡ　ＣＯＦＦＥＥ　ＣＬＵＢ",
      "name_kana": "",
      "business_type": "飲食店営業",
      "address": "岐阜県多治見市笠原町２８８０－１",
      "lat": 35.293425,
      "lng": 137.160497,
      "geocoding_level": 3,
      "phone": "0572-43-2658",
      "license_no": "59000211",
      "license_date": "2021-11-11",
      "expire_date": "2026-11-30"
    },
    {
      "name": "めん六や　岐阜多治見店",
      "name_kana": "",
      "business_type": "飲食店営業",
      "address": "岐阜県多治見市笠原町森下１６４７－３５",
      "lat": 35.293425,
      "lng": 137.160497,
      "geocoding_level": 3,
      "phone": "070-1455-5635",
      "license_no": "59000212",
      "license_date": "2021-11-11",
      "expire_date": "2026-11-30"
    },
    {
      "name": "柴田屋",
      "name_kana": "",
      "business_type": "飲食店営業",
      "address": "岐阜県多治見市笠原町上原１２６４",
      "lat": 35.293425,
      "lng": 137.160497,
      "geocoding_level": 3,
      "phone": "0572-43-2940",
      "license_no": "59000213",
      "license_date": "2021-11-11",
      "expire_date": "2026-11-30"
    },
    {
      "name": "マルショウフード",
      "name_kana": "",
      "business_type": "魚介類販売業",
      "address": "岐阜県多治見市新町２丁目３１",
      "lat": 35.332848,
      "lng": 137.129638,
      "geocoding_level": 3,
      "phone": "0572-22-2856",
      "license_no": "59000215",
      "license_date": "2021-11-11",
      "expire_date": "2026-11-30"
    },
    {
      "name": "うな千",
      "name_kana": "",
      "business_type": "飲食店営業",
      "address": "岐阜県多治見市青木町１",
      "lat": 35.3331,
      "lng": 137.127225,
      "geocoding_level": 3,
      "phone": "0572-22-3410",
      "license_no": "59000216",
      "license_date": "2021-11-11",
      "expire_date": "2026-11-30"
    },
    {
      "name": "中央亭",
      "name_kana": "",
      "business_type": "飲食店営業",
      "address": "岐阜県多治見市広小路３丁目１８",
      "lat": 35.331938,
      "lng": 137.129012,
      "geocoding_level": 3,
      "phone": "0572-22-3643",
      "license_no": "59000217",
      "license_date": "2021-11-11",
      "expire_date": "2026-11-30"
    },
    {
      "name": "社会就労センターけやき",
      "name_kana": "",
      "business_type": "飲食店営業",
      "address": "岐阜県多治見市平和町６丁目３６４",
      "lat": 35.32607363500001,
      "lng": 137.118115753,
      "geocoding_level": 8,
      "phone": "0572-22-1011",
      "license_no": "59000218",
      "license_date": "2021-11-11",
      "expire_date": "2026-11-30"
    },
    {
      "name": "パンの店　トップ",
      "name_kana": "",
      "business_type": "菓子製造業",
      "address": "岐阜県多治見市金山町１１",
      "lat": 35.332466,
      "lng": 137.128993,
      "geocoding_level": 3,
      "phone": "0572-22-0433",
      "license_no": "59000219",
      "license_date": "2021-11-11",
      "expire_date": "2026-11-30"
    },
    {
      "name": "カネス鈴木商店",
      "name_kana": "",
      "business_type": "魚介類販売業",
      "address": "岐阜県多治見市市之倉町６丁目７９",
      "lat": 35.300152,
      "lng": 137.12547800000002,
      "geocoding_level": 3,
      "phone": "0572-22-3827",
      "license_no": "59000220",
      "license_date": "2021-11-11",
      "expire_date": "2026-11-30"
    },
    {
      "name": "お好み焼き　はらしな",
      "name_kana": "",
      "business_type": "飲食店営業",
      "address": "岐阜県多治見市金山町２７－１",
      "lat": 35.332466,
      "lng": 137.128993,
      "geocoding_level": 3,
      "phone": "0572-25-2781",
      "license_no": "59000221",
      "license_date": "2021-11-11",
      "expire_date": "2026-11-30"
    },
    {
      "name": "ビッグ・ボーン",
      "name_kana": "",
      "business_type": "飲食店営業",
      "address": "岐阜県多治見市市之倉町６丁目５５",
      "lat": 35.300152,
      "lng": 137.12547800000002,
      "geocoding_level": 3,
      "phone": "0572-23-7225",
      "license_no": "59000223",
      "license_date": "2021-11-11",
      "expire_date": "2026-11-30"
    },
    {
      "name": "魚綱",
      "name_kana": "",
      "business_type": "飲食店営業",
      "address": "岐阜県多治見市市之倉町２丁目３２１",
      "lat": 35.304122,
      "lng": 137.131648,
      "geocoding_level": 3,
      "phone": "0572-22-3807",
      "license_no": "59000224",
      "license_date": "2021-11-11",
      "expire_date": "2026-11-30"
    },
    {
      "name": "ＣＡＦＥ　ＲＥＳＴＡＵＲＡＮＴ　Ａｃｑｕａ　Ｐａｚｚａ",
      "name_kana": "",
      "business_type": "飲食店営業",
      "address": "岐阜県多治見市市之倉町２丁目８０",
      "lat": 35.304122,
      "lng": 137.131648,
      "geocoding_level": 3,
      "phone": "0572-23-3725",
      "license_no": "59000225",
      "license_date": "2021-11-11",
      "expire_date": "2026-11-30"
    },
    {
      "name": "ガスト　多治見南店",
      "name_kana": "",
      "business_type": "飲食店営業",
      "address": "岐阜県多治見市大畑町赤松９６－１",
      "lat": 35.311025,
      "lng": 137.133036,
      "geocoding_level": 3,
      "phone": "0572-28-3683",
      "license_no": "59000226",
      "license_date": "2021-11-11",
      "expire_date": "2026-11-30"
    },
    {
      "name": "仲田屋",
      "name_kana": "",
      "business_type": "飲食店営業",
      "address": "岐阜県多治見市大畑町５丁目１７６",
      "lat": 35.320542,
      "lng": 137.136413,
      "geocoding_level": 3,
      "phone": "0572-22-2472",
      "license_no": "59000227",
      "license_date": "2021-11-11",
      "expire_date": "2026-11-30"
    },
    {
      "name": "仲田屋",
      "name_kana": "",
      "business_type": "菓子製造業",
      "address": "岐阜県多治見市大畑町５丁目１７６",
      "lat": 35.320542,
      "lng": 137.136413,
      "geocoding_level": 3,
      "phone": "0572-22-2472",
      "license_no": "59000228",
      "license_date": "2021-11-11",
      "expire_date": "2026-11-30"
    },
    {
      "name": "有限会社　奥村製菓",
      "name_kana": "",
      "business_type": "菓子製造業",
      "address": "岐阜県多治見市京町５丁目７８－２",
      "lat": 35.32163,
      "lng": 137.126658,
      "geocoding_level": 3,
      "phone": "0572-22-2537",
      "license_no": "59000229",
      "license_date": "2021-11-11",
      "expire_date": "2026-11-30"
    },
    {
      "name": "有限会社　奥村製菓",
      "name_kana": "",
      "business_type": "そうざい製造業",
      "address": "岐阜県多治見市京町５丁目７８－２",
      "lat": 35.32163,
      "lng": 137.126658,
      "geocoding_level": 3,
      "phone": "0572-22-2537",
      "license_no": "59000230",
      "license_date": "2021-11-11",
      "expire_date": "2026-11-30"
    },
    {
      "name": "焼肉　大畑苑",
      "name_kana": "",
      "business_type": "飲食店営業",
      "address": "岐阜県多治見市大畑町７丁目１４４",
      "lat": 35.319487,
      "lng": 137.140724,
      "geocoding_level": 3,
      "phone": "0572-23-6673",
      "license_no": "59000231",
      "license_date": "2021-11-11",
      "expire_date": "2026-11-30"
    },
    {
      "name": "七輪炭火焼肉　和や",
      "name_kana": "",
      "business_type": "飲食店営業",
      "address": "岐阜県多治見市京町２丁目１８５",
      "lat": 35.325757,
      "lng": 137.127666,
      "geocoding_level": 3,
      "phone": "0572-22-8161",
      "license_no": "59000232",
      "license_date": "2021-11-11",
      "expire_date": "2026-11-30"
    },
    {
      "name": "ＫＵＲＩ　ＫＵＲＩ",
      "name_kana": "",
      "business_type": "飲食店営業",
      "address": "岐阜県多治見市大畑町大洞４８－２８　レインボ－ハイツ１０２",
      "lat": 35.314257,
      "lng": 137.124638,
      "geocoding_level": 3,
      "phone": "0572-25-0964",
      "license_no": "59000233",
      "license_date": "2021-11-11",
      "expire_date": "2026-11-30"
    },
    {
      "name": "Ｊｏｎｇ　Ｃａｆｅ",
      "name_kana": "",
      "business_type": "飲食店営業",
      "address": "岐阜県多治見市小路町１８－２　藤久ビル２Ｆ",
      "lat": 35.333303,
      "lng": 137.130725,
      "geocoding_level": 3,
      "phone": "0572-74-0677",
      "license_no": "59000234",
      "license_date": "2021-11-11",
      "expire_date": "2026-11-30"
    },
    {
      "name": "喫茶　フォルティシモ",
      "name_kana": "",
      "business_type": "飲食店営業",
      "address": "岐阜県多治見市日ノ出町１丁目２９",
      "lat": 35.333439,
      "lng": 137.13187800000003,
      "geocoding_level": 3,
      "phone": "090-8334-7107",
      "license_no": "59000235",
      "license_date": "2021-11-11",
      "expire_date": "2026-11-30"
    },
    {
      "name": "中華亭",
      "name_kana": "",
      "business_type": "飲食店営業",
      "address": "岐阜県多治見市御幸町２丁目８４",
      "lat": 35.330757,
      "lng": 137.127782,
      "geocoding_level": 3,
      "phone": "0572-22-5729",
      "license_no": "59000239",
      "license_date": "2021-11-11",
      "expire_date": "2026-11-30"
    },
    {
      "name": "喫茶　ハミン",
      "name_kana": "",
      "business_type": "飲食店営業",
      "address": "岐阜県多治見市下沢町４丁目２７－１５",
      "lat": 35.321760328,
      "lng": 137.149982481,
      "geocoding_level": 8,
      "phone": "0572-23-4016",
      "license_no": "59000240",
      "license_date": "2021-11-11",
      "expire_date": "2026-11-30"
    },
    {
      "name": "喫茶チップス",
      "name_kana": "",
      "business_type": "飲食店営業",
      "address": "岐阜県多治見市明治町１丁目１６",
      "lat": 35.335835,
      "lng": 137.131328,
      "geocoding_level": 3,
      "phone": "070-4284-3335",
      "license_no": "59000241",
      "license_date": "2021-11-11",
      "expire_date": "2026-11-30"
    },
    {
      "name": "セブンイレブン多治見美坂町店",
      "name_kana": "",
      "business_type": "飲食店営業",
      "address": "岐阜県多治見市美坂町５丁目３３－１",
      "lat": 35.331277,
      "lng": 137.143428,
      "geocoding_level": 3,
      "phone": "0572-22-3755",
      "license_no": "59000242",
      "license_date": "2021-11-11",
      "expire_date": "2026-11-30"
    },
    {
      "name": "ロマンス",
      "name_kana": "",
      "business_type": "飲食店営業",
      "address": "岐阜県多治見市大畑町５丁目１５６",
      "lat": 35.320542,
      "lng": 137.136413,
      "geocoding_level": 3,
      "phone": "0572-23-6577",
      "license_no": "59000244",
      "license_date": "2021-11-11",
      "expire_date": "2026-11-30"
    },
    {
      "name": "チャープ",
      "name_kana": "",
      "business_type": "飲食店営業",
      "address": "岐阜県多治見市滝呂町１２丁目１４８－４５７",
      "lat": 35.316379,
      "lng": 137.16087,
      "geocoding_level": 3,
      "phone": "0572-43-3974",
      "license_no": "59000246",
      "license_date": "2021-11-11",
      "expire_date": "2026-11-30"
    },
    {
      "name": "空歩",
      "name_kana": "",
      "business_type": "飲食店営業",
      "address": "岐阜県多治見市生田町６丁目１８１－１　Ｍ－ＢＯＸ多治見",
      "lat": 35.333603557,
      "lng": 137.147486002,
      "geocoding_level": 8,
      "phone": "0572-26-9970",
      "license_no": "59000247",
      "license_date": "2021-11-11",
      "expire_date": "2026-11-30"
    },
    {
      "name": "多治見サービスセンター　Ｔ－Ｖｉｌｌａｇｅ　宿泊棟レストラン",
      "name_kana": "",
      "business_type": "飲食店営業",
      "address": "岐阜県多治見市山吹町１丁目１－１",
      "lat": 35.345037161,
      "lng": 137.142126962,
      "geocoding_level": 8,
      "phone": "0572-44-9806",
      "license_no": "59000248",
      "license_date": "2021-11-11",
      "expire_date": "2026-11-30"
    },
    {
      "name": "イタリア食堂ＣＨＥＦＳ",
      "name_kana": "",
      "business_type": "飲食店営業",
      "address": "岐阜県多治見市宝町３丁目９１－１２",
      "lat": 35.339483,
      "lng": 137.108172,
      "geocoding_level": 3,
      "phone": "0572-56-8000",
      "license_no": "59000249",
      "license_date": "2021-11-08",
      "expire_date": "2027-02-28"
    },
    {
      "name": "松正旅館",
      "name_kana": "",
      "business_type": "そうざい製造業",
      "address": "岐阜県多治見市本町５丁目２９",
      "lat": 35.334868,
      "lng": 137.130104,
      "geocoding_level": 3,
      "phone": "0572-22-5195",
      "license_no": "59000250",
      "license_date": "2021-11-08",
      "expire_date": "2026-11-30"
    },
    {
      "name": "Ｂａｒ　ｋｏ・ｒｅ・ｋａ・ｒａ",
      "name_kana": "",
      "business_type": "飲食店営業",
      "address": "岐阜県多治見市本町２丁目２９－１",
      "lat": 35.334935,
      "lng": 137.122472,
      "geocoding_level": 3,
      "phone": "0572-26-7379",
      "license_no": "59000258",
      "license_date": "2021-12-01",
      "expire_date": "2027-02-28"
    },
    {
      "name": "焼肉　大",
      "name_kana": "",
      "business_type": "飲食店営業",
      "address": "岐阜県多治見市小路町１８－２　藤久ビル　１階東側店舗",
      "lat": 35.333303,
      "lng": 137.130725,
      "geocoding_level": 3,
      "phone": "",
      "license_no": "59000260",
      "license_date": "2021-11-29",
      "expire_date": "2026-11-30"
    },
    {
      "name": "真心",
      "name_kana": "",
      "business_type": "飲食店営業",
      "address": "岐阜県多治見市笠原町１５８６－１",
      "lat": 35.30164598,
      "lng": 137.165306905,
      "geocoding_level": 8,
      "phone": "090-5629-0811",
      "license_no": "59000266",
      "license_date": "2021-12-07",
      "expire_date": "2027-11-30"
    },
    {
      "name": "邦や",
      "name_kana": "",
      "business_type": "飲食店営業",
      "address": "岐阜県多治見市幸町２丁目１０６－２",
      "lat": 35.352675,
      "lng": 137.097606,
      "geocoding_level": 3,
      "phone": "0572-74-2794",
      "license_no": "59000274",
      "license_date": "2022-01-18",
      "expire_date": "2027-02-28"
    },
    {
      "name": "ヒナタボッコ",
      "name_kana": "",
      "business_type": "飲食店営業",
      "address": "岐阜県多治見市宮前町２丁目３８",
      "lat": 35.337745,
      "lng": 137.127541,
      "geocoding_level": 3,
      "phone": "0572-22-2270",
      "license_no": "59000276",
      "license_date": "2022-02-10",
      "expire_date": "2027-02-28"
    },
    {
      "name": "うみ",
      "name_kana": "",
      "business_type": "飲食店営業",
      "address": "岐阜県多治見市若松町３丁目４１－２",
      "lat": 35.342805,
      "lng": 137.114413,
      "geocoding_level": 3,
      "phone": "090-7027-0019",
      "license_no": "59000277",
      "license_date": "2022-02-10",
      "expire_date": "2027-02-28"
    },
    {
      "name": "渡辺精肉店",
      "name_kana": "",
      "business_type": "飲食店営業",
      "address": "岐阜県多治見市宮前町１丁目５３",
      "lat": 35.336238,
      "lng": 137.128279,
      "geocoding_level": 3,
      "phone": "0572-22-0348",
      "license_no": "59000279",
      "license_date": "2022-02-10",
      "expire_date": "2027-02-28"
    },
    {
      "name": "元禄うな長　多治見店",
      "name_kana": "",
      "business_type": "飲食店営業",
      "address": "岐阜県多治見市金岡町４丁目８０",
      "lat": 35.347091,
      "lng": 137.114751,
      "geocoding_level": 3,
      "phone": "0572-25-0152",
      "license_no": "59000282",
      "license_date": "2022-02-10",
      "expire_date": "2027-02-28"
    },
    {
      "name": "スナック恵夢",
      "name_kana": "",
      "business_type": "飲食店営業",
      "address": "岐阜県多治見市若松町２丁目２１－１　タウンＬ＆Ｇ多治見２階",
      "lat": 35.341723,
      "lng": 137.114811,
      "geocoding_level": 3,
      "phone": "0572-25-8415",
      "license_no": "59000283",
      "license_date": "2022-02-10",
      "expire_date": "2027-02-28"
    },
    {
      "name": "東濃信用金庫　食堂",
      "name_kana": "",
      "business_type": "飲食店営業",
      "address": "岐阜県多治見市本町２丁目５－１",
      "lat": 35.334935,
      "lng": 137.122472,
      "geocoding_level": 3,
      "phone": "090-5859-8717",
      "license_no": "59000285",
      "license_date": "2021-12-17",
      "expire_date": "2027-02-28"
    },
    {
      "name": "おはな",
      "name_kana": "",
      "business_type": "飲食店営業",
      "address": "岐阜県多治見市宮前町２丁目５４－１",
      "lat": 35.337745,
      "lng": 137.127541,
      "geocoding_level": 3,
      "phone": "0572-25-0713",
      "license_no": "59000286",
      "license_date": "2022-02-10",
      "expire_date": "2027-02-28"
    },
    {
      "name": "ＩＴＰ　多治見オフィス食堂",
      "name_kana": "",
      "business_type": "飲食店営業",
      "address": "岐阜県多治見市金岡町１丁目６０－１",
      "lat": 35.344477314,
      "lng": 137.118378317,
      "geocoding_level": 8,
      "phone": "0572-21-3210",
      "license_no": "59000289",
      "license_date": "2022-02-10",
      "expire_date": "2027-02-28"
    },
    {
      "name": "酒楽座　ぼけなす",
      "name_kana": "",
      "business_type": "飲食店営業",
      "address": "岐阜県多治見市住吉町７丁目２９－６　ファインビル住吉II　１０３号",
      "lat": 35.34754,
      "lng": 137.121189,
      "geocoding_level": 3,
      "phone": "0572-24-6329",
      "license_no": "59000293",
      "license_date": "2022-02-10",
      "expire_date": "2027-02-28"
    },
    {
      "name": "くるま",
      "name_kana": "",
      "business_type": "飲食店営業",
      "address": "岐阜県多治見市宝町１丁目１６－１",
      "lat": 35.338382,
      "lng": 137.113085,
      "geocoding_level": 3,
      "phone": "0572-25-1281",
      "license_no": "59000295",
      "license_date": "2022-02-10",
      "expire_date": "2027-02-28"
    },
    {
      "name": "瑞浪サンド多治見店",
      "name_kana": "",
      "business_type": "菓子製造業",
      "address": "岐阜県多治見市西坂町５丁目３１－１　多治見インターモール２Ｆ",
      "lat": 35.353662,
      "lng": 137.107149,
      "geocoding_level": 3,
      "phone": "090-1629-3937",
      "license_no": "59000296",
      "license_date": "2022-01-06",
      "expire_date": "2027-02-28"
    },
    {
      "name": "たから茶屋",
      "name_kana": "",
      "business_type": "飲食店営業",
      "address": "岐阜県多治見市宝町５丁目１０５－１　レオパレス宝Ⅲ",
      "lat": 35.341385,
      "lng": 137.110274,
      "geocoding_level": 3,
      "phone": "0572-23-8222",
      "license_no": "59000297",
      "license_date": "2022-02-10",
      "expire_date": "2027-02-28"
    },
    {
      "name": "多治見北ゴルフ倶楽部",
      "name_kana": "",
      "business_type": "飲食店営業",
      "address": "岐阜県多治見市北小木町６２０－１",
      "lat": 35.351668,
      "lng": 137.057923,
      "geocoding_level": 3,
      "phone": "0572-20-0221",
      "license_no": "59000299",
      "license_date": "2022-02-10",
      "expire_date": "2027-02-28"
    },
    {
      "name": "セブンイレブン多治見光ケ丘２丁目店",
      "name_kana": "",
      "business_type": "飲食店営業",
      "address": "岐阜県多治見市光ケ丘２丁目５３－１",
      "lat": 35.346097,
      "lng": 137.108683,
      "geocoding_level": 3,
      "phone": "0572-23-9929",
      "license_no": "59000300",
      "license_date": "2022-02-10",
      "expire_date": "2027-02-28"
    },
    {
      "name": "ｅｒｉｓ",
      "name_kana": "",
      "business_type": "菓子製造業",
      "address": "岐阜県多治見市西坂町４丁目２０１",
      "lat": 35.352013,
      "lng": 137.109033,
      "geocoding_level": 3,
      "phone": "0572-51-4313",
      "license_no": "59000302",
      "license_date": "2022-02-10",
      "expire_date": "2027-02-28"
    },
    {
      "name": "茶味　一福",
      "name_kana": "",
      "business_type": "飲食店営業",
      "address": "岐阜県多治見市大針町６２４－１０",
      "lat": 35.371436,
      "lng": 137.073744,
      "geocoding_level": 3,
      "phone": "0572-29-4349",
      "license_no": "59000306",
      "license_date": "2022-02-21",
      "expire_date": "2027-02-28"
    },
    {
      "name": "兎美庵",
      "name_kana": "",
      "business_type": "菓子製造業",
      "address": "岐阜県多治見市西坂町５丁目１３７",
      "lat": 35.353662,
      "lng": 137.107149,
      "geocoding_level": 3,
      "phone": "0572-25-7787",
      "license_no": "59000307",
      "license_date": "2022-02-10",
      "expire_date": "2027-02-28"
    },
    {
      "name": "季節居酒屋　わだち",
      "name_kana": "",
      "business_type": "飲食店営業",
      "address": "岐阜県多治見市音羽町５丁目４５",
      "lat": 35.338112,
      "lng": 137.115925,
      "geocoding_level": 3,
      "phone": "0572-24-4408",
      "license_no": "59000308",
      "license_date": "2022-02-10",
      "expire_date": "2027-02-28"
    },
    {
      "name": "黒家　上野町店",
      "name_kana": "",
      "business_type": "飲食店営業",
      "address": "岐阜県多治見市上野町１丁目１０",
      "lat": 35.337799,
      "lng": 137.124787,
      "geocoding_level": 3,
      "phone": "0572-24-0968",
      "license_no": "59000309",
      "license_date": "2022-02-10",
      "expire_date": "2027-02-28"
    },
    {
      "name": "風林堂",
      "name_kana": "",
      "business_type": "菓子製造業",
      "address": "岐阜県多治見市虎渓山町６丁目４５－３",
      "lat": 35.351992,
      "lng": 137.134324,
      "geocoding_level": 3,
      "phone": "0572-23-0216",
      "license_no": "59000311",
      "license_date": "2022-02-10",
      "expire_date": "2027-02-28"
    },
    {
      "name": "洋菓子　ルポ",
      "name_kana": "",
      "business_type": "飲食店営業",
      "address": "岐阜県多治見市明和町５丁目１３－７",
      "lat": 35.357209569,
      "lng": 137.10650139,
      "geocoding_level": 8,
      "phone": "0572-26-8893",
      "license_no": "59000312",
      "license_date": "2022-02-10",
      "expire_date": "2027-02-28"
    },
    {
      "name": "洋菓子　ルポ",
      "name_kana": "",
      "business_type": "菓子製造業",
      "address": "岐阜県多治見市明和町５丁目１３－７",
      "lat": 35.357209569,
      "lng": 137.10650139,
      "geocoding_level": 8,
      "phone": "0572-26-8893",
      "license_no": "59000313",
      "license_date": "2022-02-10",
      "expire_date": "2027-02-28"
    },
    {
      "name": "医療法人仁寿会　介護老人保健施設アルマ・マータ喫茶・売店",
      "name_kana": "",
      "business_type": "飲食店営業",
      "address": "岐阜県多治見市小名田町西ヶ洞７１－１",
      "lat": 35.367696,
      "lng": 137.121031,
      "geocoding_level": 3,
      "phone": "0572-24-6787",
      "license_no": "59000314",
      "license_date": "2022-02-10",
      "expire_date": "2027-02-28"
    },
    {
      "name": "漢方ラーメン渡辺",
      "name_kana": "",
      "business_type": "飲食店営業",
      "address": "岐阜県多治見市宝町５丁目９８　レオパレス宝パートⅡ１０３号",
      "lat": 35.341385,
      "lng": 137.110274,
      "geocoding_level": 3,
      "phone": "090-3255-9012",
      "license_no": "59000315",
      "license_date": "2022-02-10",
      "expire_date": "2027-02-28"
    },
    {
      "name": "Ｌｅ　Ｄｏｙａ　Ｈｏｕｓｅ",
      "name_kana": "",
      "business_type": "菓子製造業",
      "address": "岐阜県多治見市明和町３丁目１－１７８",
      "lat": 35.359544104,
      "lng": 137.098231179,
      "geocoding_level": 8,
      "phone": "0572-29-1916",
      "license_no": "59000317",
      "license_date": "2022-02-10",
      "expire_date": "2027-02-28"
    },
    {
      "name": "珈琲工房　豆家",
      "name_kana": "",
      "business_type": "飲食店営業",
      "address": "岐阜県多治見市虎渓山町２丁目６３",
      "lat": 35.347958,
      "lng": 137.125288,
      "geocoding_level": 3,
      "phone": "0572-21-6189",
      "license_no": "59000318",
      "license_date": "2022-02-10",
      "expire_date": "2027-02-28"
    },
    {
      "name": "さんだ屋",
      "name_kana": "",
      "business_type": "飲食店営業",
      "address": "岐阜県多治見市小名田町１丁目３３－２",
      "lat": 35.359894,
      "lng": 137.129414,
      "geocoding_level": 3,
      "phone": "0572-25-2319",
      "license_no": "59000319",
      "license_date": "2022-02-10",
      "expire_date": "2027-02-28"
    },
    {
      "name": "居酒屋大森",
      "name_kana": "",
      "business_type": "飲食店営業",
      "address": "岐阜県多治見市松坂町１丁目８７",
      "lat": 35.364926,
      "lng": 137.089984,
      "geocoding_level": 3,
      "phone": "090-1414-3703",
      "license_no": "59000320",
      "license_date": "2022-02-10",
      "expire_date": "2027-02-28"
    },
    {
      "name": "ＦＥＥＬ",
      "name_kana": "",
      "business_type": "飲食店営業",
      "address": "岐阜県多治見市栄町１丁目４６　　浪花ビル２Ｆ",
      "lat": 35.332199,
      "lng": 137.121986,
      "geocoding_level": 3,
      "phone": "0572-24-7483",
      "license_no": "59000321",
      "license_date": "2022-02-10",
      "expire_date": "2027-02-28"
    },
    {
      "name": "株式会社エイシン",
      "name_kana": "",
      "business_type": "飲食店営業",
      "address": "岐阜県多治見市金岡町２丁目２５－３",
      "lat": 35.344673918,
      "lng": 137.116757618,
      "geocoding_level": 8,
      "phone": "0572-23-8684",
      "license_no": "59000323",
      "license_date": "2022-02-10",
      "expire_date": "2027-02-28"
    },
    {
      "name": "株式会社エイシン",
      "name_kana": "",
      "business_type": "菓子製造業",
      "address": "岐阜県多治見市金岡町２丁目２５－３",
      "lat": 35.344673918,
      "lng": 137.116757618,
      "geocoding_level": 8,
      "phone": "0572-23-8684",
      "license_no": "59000324",
      "license_date": "2022-02-10",
      "expire_date": "2027-02-28"
    },
    {
      "name": "株式会社エイシン",
      "name_kana": "",
      "business_type": "アイスクリーム類製造業",
      "address": "岐阜県多治見市金岡町２丁目２５－３",
      "lat": 35.344673918,
      "lng": 137.116757618,
      "geocoding_level": 8,
      "phone": "0572-23-8684",
      "license_no": "59000325",
      "license_date": "2022-02-10",
      "expire_date": "2027-02-28"
    },
    {
      "name": "株式会社ホワイトハウス",
      "name_kana": "",
      "business_type": "食品の小分け業",
      "address": "岐阜県多治見市廿原町２２６－１－１",
      "lat": 35.318374,
      "lng": 137.078163,
      "geocoding_level": 3,
      "phone": "0572-23-6464",
      "license_no": "59000327",
      "license_date": "2022-02-10",
      "expire_date": "2027-02-28"
    },
    {
      "name": "Ｃａｆｅ　ｍａｍａｅ",
      "name_kana": "",
      "business_type": "飲食店営業",
      "address": "岐阜県多治見市宝町１０丁目７２－３",
      "lat": 35.343706,
      "lng": 137.10684,
      "geocoding_level": 3,
      "phone": "0572-26-7007",
      "license_no": "59000328",
      "license_date": "2022-01-24",
      "expire_date": "2027-02-28"
    },
    {
      "name": "築輪",
      "name_kana": "",
      "business_type": "飲食店営業",
      "address": "岐阜県多治見市金山町２８－２",
      "lat": 35.332466,
      "lng": 137.128993,
      "geocoding_level": 3,
      "phone": "",
      "license_no": "59000330",
      "license_date": "2022-02-01",
      "expire_date": "2027-11-30"
    },
    {
      "name": "日清医療食品株式会社　指定介護老人福祉施設　清凉苑事務所",
      "name_kana": "",
      "business_type": "飲食店営業",
      "address": "岐阜県多治見市旭ケ丘７丁目１７－１",
      "lat": 35.365434,
      "lng": 137.100679,
      "geocoding_level": 3,
      "phone": "0572-20-2314",
      "license_no": "59000331",
      "license_date": "2022-02-10",
      "expire_date": "2027-02-28"
    },
    {
      "name": "串もんず",
      "name_kana": "",
      "business_type": "飲食店営業",
      "address": "岐阜県多治見市宝町５丁目９８　レオパレス宝２－１０１",
      "lat": 35.341385,
      "lng": 137.110274,
      "geocoding_level": 3,
      "phone": "0572-56-2155",
      "license_no": "59000335",
      "license_date": "2022-02-10",
      "expire_date": "2027-02-28"
    },
    {
      "name": "カフェレスト　うえ野",
      "name_kana": "",
      "business_type": "飲食店営業",
      "address": "岐阜県多治見市本町１丁目５７－２",
      "lat": 35.334046,
      "lng": 137.121975,
      "geocoding_level": 3,
      "phone": "0572-24-0209",
      "license_no": "59000336",
      "license_date": "2022-02-10",
      "expire_date": "2027-02-28"
    },
    {
      "name": "道",
      "name_kana": "",
      "business_type": "飲食店営業",
      "address": "岐阜県多治見市音羽町４丁目２４－１　第一日栄ビル１Ｆ",
      "lat": 35.33624700000001,
      "lng": 137.115533,
      "geocoding_level": 3,
      "phone": "0572-25-8989",
      "license_no": "59000337",
      "license_date": "2022-02-10",
      "expire_date": "2027-02-28"
    },
    {
      "name": "ひよし",
      "name_kana": "",
      "business_type": "飲食店営業",
      "address": "岐阜県多治見市音羽町４丁目７５－１",
      "lat": 35.33624700000001,
      "lng": 137.115533,
      "geocoding_level": 3,
      "phone": "0572-22-7500",
      "license_no": "59000340",
      "license_date": "2022-02-10",
      "expire_date": "2027-02-28"
    },
    {
      "name": "茶房　ビオさいさい",
      "name_kana": "",
      "business_type": "飲食店営業",
      "address": "岐阜県多治見市赤坂町８丁目１６１",
      "lat": 35.336647,
      "lng": 137.092724,
      "geocoding_level": 3,
      "phone": "0572-22-8434",
      "license_no": "59000341",
      "license_date": "2022-02-10",
      "expire_date": "2027-02-28"
    },
    {
      "name": "ロッヂうつつ",
      "name_kana": "",
      "business_type": "飲食店営業",
      "address": "岐阜県多治見市廿原町２０３",
      "lat": 35.318374,
      "lng": 137.078163,
      "geocoding_level": 3,
      "phone": "0572-22-9221",
      "license_no": "59000343",
      "license_date": "2022-02-10",
      "expire_date": "2027-02-28"
    },
    {
      "name": "ホテル多治見ヒルズ　リバーサイド店",
      "name_kana": "",
      "business_type": "飲食店営業",
      "address": "岐阜県多治見市宝町７丁目４９",
      "lat": 35.342763,
      "lng": 137.111121,
      "geocoding_level": 3,
      "phone": "0572-23-5406",
      "license_no": "59000344",
      "license_date": "2022-02-10",
      "expire_date": "2027-02-28"
    },
    {
      "name": "きたひつじ",
      "name_kana": "",
      "business_type": "飲食店営業",
      "address": "岐阜県多治見市若松町２丁目３８－１",
      "lat": 35.341723,
      "lng": 137.114811,
      "geocoding_level": 3,
      "phone": "0572-22-0887",
      "license_no": "59000346",
      "license_date": "2022-02-10",
      "expire_date": "2027-02-28"
    },
    {
      "name": "自遊空間多治見店",
      "name_kana": "",
      "business_type": "飲食店営業",
      "address": "岐阜県多治見市明和町５丁目６９－１",
      "lat": 35.353224936,
      "lng": 137.104124903,
      "geocoding_level": 8,
      "phone": "0572-20-2235",
      "license_no": "59000348",
      "license_date": "2022-02-10",
      "expire_date": "2027-02-28"
    },
    {
      "name": "ふぁーむ",
      "name_kana": "",
      "business_type": "飲食店営業",
      "address": "岐阜県多治見市若松町３丁目４１－２",
      "lat": 35.342805,
      "lng": 137.114413,
      "geocoding_level": 3,
      "phone": "0572-25-4757",
      "license_no": "59000350",
      "license_date": "2022-02-10",
      "expire_date": "2027-02-28"
    },
    {
      "name": "ローソン多治見池田町店",
      "name_kana": "",
      "business_type": "飲食店営業",
      "address": "岐阜県多治見市池田町５丁目１９",
      "lat": 35.333581,
      "lng": 137.107613,
      "geocoding_level": 3,
      "phone": "0572-24-1611",
      "license_no": "59000353",
      "license_date": "2022-02-10",
      "expire_date": "2027-02-28"
    },
    {
      "name": "陽気なイタリアンバル　Ｂｏｒｃｏ",
      "name_kana": "",
      "business_type": "飲食店営業",
      "address": "岐阜県多治見市本町２丁目４３　　佐藤ビル２Ａ",
      "lat": 35.334935,
      "lng": 137.122472,
      "geocoding_level": 3,
      "phone": "0572-26-9929",
      "license_no": "59000354",
      "license_date": "2022-02-10",
      "expire_date": "2027-02-28"
    },
    {
      "name": "ＪＡＤＥ",
      "name_kana": "",
      "business_type": "飲食店営業",
      "address": "岐阜県多治見市音羽町４丁目３２－１　オリエンタルプラザ２階",
      "lat": 35.33624700000001,
      "lng": 137.115533,
      "geocoding_level": 3,
      "phone": "0572-28-2066",
      "license_no": "59000355",
      "license_date": "2022-02-10",
      "expire_date": "2027-02-28"
    },
    {
      "name": "ｃａＬｏｒｅ　Ｂａｒ",
      "name_kana": "",
      "business_type": "飲食店営業",
      "address": "岐阜県多治見市音羽町４丁目１３－１　オリエンタルタワーズＥＡＳＴ２０２",
      "lat": 35.33624700000001,
      "lng": 137.115533,
      "geocoding_level": 3,
      "phone": "090-4855-8708",
      "license_no": "59000356",
      "license_date": "2022-02-10",
      "expire_date": "2027-02-28"
    },
    {
      "name": "ＬＯＴＵＳ　ＣＡＦＥ",
      "name_kana": "",
      "business_type": "飲食店営業",
      "address": "岐阜県多治見市宮前町２丁目４４－１　コーポみやまえ１－Ｂ",
      "lat": 35.337745,
      "lng": 137.127541,
      "geocoding_level": 3,
      "phone": "0572-21-6537",
      "license_no": "59000360",
      "license_date": "2022-01-25",
      "expire_date": "2027-02-28"
    },
    {
      "name": "有限会社堀製あん所",
      "name_kana": "",
      "business_type": "菓子製造業",
      "address": "岐阜県多治見市前畑町５丁目８－２０",
      "lat": 35.328018,
      "lng": 137.110442,
      "geocoding_level": 3,
      "phone": "0572-23-1870",
      "license_no": "59000361",
      "license_date": "2022-02-10",
      "expire_date": "2027-02-28"
    },
    {
      "name": "ｃｈｉｌｌ",
      "name_kana": "",
      "business_type": "飲食店営業",
      "address": "岐阜県多治見市太平町６丁目６７　　ＯＳ５ビル１Ｆ",
      "lat": 35.337368,
      "lng": 137.10975100000002,
      "geocoding_level": 3,
      "phone": "0572-25-5028",
      "license_no": "59000362",
      "license_date": "2022-02-10",
      "expire_date": "2027-02-28"
    },
    {
      "name": "ｓｅｌｖａｔｉｃｏ　ｋｉｄｏｇｕｃｈｉ／虎渓山ＰＡＳＴＡ",
      "name_kana": "",
      "business_type": "飲食店営業",
      "address": "岐阜県多治見市高田町１丁目８１－３",
      "lat": 35.35624,
      "lng": 137.133485,
      "geocoding_level": 3,
      "phone": "0572-26-8888",
      "license_no": "59000363",
      "license_date": "2022-02-10",
      "expire_date": "2027-02-28"
    },
    {
      "name": "キャッツカフェ多治見店",
      "name_kana": "",
      "business_type": "飲食店営業",
      "address": "岐阜県多治見市幸町３丁目８－１",
      "lat": 35.355448,
      "lng": 137.093106,
      "geocoding_level": 3,
      "phone": "0572-29-5620",
      "license_no": "59000366",
      "license_date": "2022-02-10",
      "expire_date": "2027-02-28"
    },
    {
      "name": "本町ロマンス",
      "name_kana": "",
      "business_type": "飲食店営業",
      "address": "岐阜県多治見市本町２丁目２６－３　東文堂ビル１Ｆ",
      "lat": 35.334935,
      "lng": 137.122472,
      "geocoding_level": 3,
      "phone": "0572-25-6850",
      "license_no": "59000367",
      "license_date": "2022-02-10",
      "expire_date": "2027-02-28"
    },
    {
      "name": "でんちゃん農園",
      "name_kana": "",
      "business_type": "漬物製造業",
      "address": "岐阜県多治見市美坂町５丁目５－２",
      "lat": 35.331813875,
      "lng": 137.14315352,
      "geocoding_level": 8,
      "phone": "0572-24-0030",
      "license_no": "59000370",
      "license_date": "2022-02-07",
      "expire_date": "2027-11-30"
    },
    {
      "name": "古民家焼肉　古登里",
      "name_kana": "",
      "business_type": "食肉販売業",
      "address": "岐阜県多治見市宝町３丁目３８",
      "lat": 35.339483,
      "lng": 137.108172,
      "geocoding_level": 3,
      "phone": "0572-56-2929",
      "license_no": "59000371",
      "license_date": "2022-02-07",
      "expire_date": "2027-02-28"
    },
    {
      "name": "シグマポチャ",
      "name_kana": "",
      "business_type": "飲食店営業",
      "address": "岐阜県多治見市本町２丁目２１",
      "lat": 35.334935,
      "lng": 137.122472,
      "geocoding_level": 3,
      "phone": "0572-74-7490",
      "license_no": "59000375",
      "license_date": "2022-02-07",
      "expire_date": "2027-02-28"
    },
    {
      "name": "Ｃａｆｆ’ｅ　と　Ｚａｋｋａ　Ｒ",
      "name_kana": "",
      "business_type": "飲食店営業",
      "address": "岐阜県多治見市赤坂町６丁目２－１０８",
      "lat": 35.340164,
      "lng": 137.091112,
      "geocoding_level": 3,
      "phone": "0572-24-4368",
      "license_no": "59000377",
      "license_date": "2022-02-10",
      "expire_date": "2027-02-28"
    },
    {
      "name": "円茶寮パン工房",
      "name_kana": "",
      "business_type": "菓子製造業",
      "address": "岐阜県多治見市小名田町３丁目１５２",
      "lat": 35.363775,
      "lng": 137.132817,
      "geocoding_level": 3,
      "phone": "0572-25-3955",
      "license_no": "59000378",
      "license_date": "2022-02-10",
      "expire_date": "2027-02-28"
    },
    {
      "name": "らご",
      "name_kana": "",
      "business_type": "飲食店営業",
      "address": "岐阜県多治見市宝町６丁目４１－４",
      "lat": 35.340444,
      "lng": 137.112378,
      "geocoding_level": 3,
      "phone": "0572-24-6001",
      "license_no": "59000379",
      "license_date": "2022-02-10",
      "expire_date": "2027-02-28"
    },
    {
      "name": "らご",
      "name_kana": "",
      "business_type": "麺類製造業",
      "address": "岐阜県多治見市宝町６丁目４１－４",
      "lat": 35.340444,
      "lng": 137.112378,
      "geocoding_level": 3,
      "phone": "0572-24-6001",
      "license_no": "59000380",
      "license_date": "2022-02-10",
      "expire_date": "2027-02-28"
    },
    {
      "name": "日本ゼネラルフード（０２４９）事業所",
      "name_kana": "",
      "business_type": "飲食店営業",
      "address": "岐阜県多治見市小名田町西ケ洞７１－１　老人保健施設アルマ・マータ　給食室",
      "lat": 35.367696,
      "lng": 137.121031,
      "geocoding_level": 3,
      "phone": "0572-24-5371",
      "license_no": "59000381",
      "license_date": "2022-02-10",
      "expire_date": "2027-02-28"
    },
    {
      "name": "日本ゼネラルフード（０３０６）事業所",
      "name_kana": "",
      "business_type": "飲食店営業",
      "address": "岐阜県多治見市上山町１丁目９７－２　特養ビアンカ　給食室",
      "lat": 35.33941,
      "lng": 137.135909,
      "geocoding_level": 3,
      "phone": "0572-21-4833",
      "license_no": "59000382",
      "license_date": "2022-02-10",
      "expire_date": "2027-02-28"
    },
    {
      "name": "満天レストラン慶",
      "name_kana": "",
      "business_type": "飲食店営業",
      "address": "岐阜県多治見市旭ケ丘１丁目８６－９",
      "lat": 35.364632,
      "lng": 137.097186,
      "geocoding_level": 3,
      "phone": "0572293371",
      "license_no": "59000384",
      "license_date": "2022-02-10",
      "expire_date": "2027-02-28"
    },
    {
      "name": "タチヤ多治見店",
      "name_kana": "",
      "business_type": "魚介類販売業",
      "address": "岐阜県多治見市希望ヶ丘４丁目７５－３",
      "lat": 35.36694286,
      "lng": 137.115863412,
      "geocoding_level": 8,
      "phone": "0572-25-5405",
      "license_no": "59000387",
      "license_date": "2022-02-10",
      "expire_date": "2027-02-28"
    },
    {
      "name": "タチヤ多治見店",
      "name_kana": "",
      "business_type": "食肉販売業",
      "address": "岐阜県多治見市希望ヶ丘４丁目７５－３",
      "lat": 35.36694286,
      "lng": 137.115863412,
      "geocoding_level": 8,
      "phone": "0572-25-5405",
      "license_no": "59000388",
      "license_date": "2022-02-10",
      "expire_date": "2027-02-28"
    },
    {
      "name": "たけのこや",
      "name_kana": "",
      "business_type": "漬物製造業",
      "address": "岐阜県多治見市廿原町３１８",
      "lat": 35.318374,
      "lng": 137.078163,
      "geocoding_level": 3,
      "phone": "0572-23-4686",
      "license_no": "59000391",
      "license_date": "2022-02-28",
      "expire_date": "2027-02-28"
    },
    {
      "name": "ＳＡＢＡＲ多治見店",
      "name_kana": "",
      "business_type": "飲食店営業",
      "address": "岐阜県多治見市本町１丁目１８－２",
      "lat": 35.334046,
      "lng": 137.121975,
      "geocoding_level": 3,
      "phone": "",
      "license_no": "59000395",
      "license_date": "2022-02-28",
      "expire_date": "2027-02-28"
    },
    {
      "name": "串もんず",
      "name_kana": "",
      "business_type": "そうざい製造業",
      "address": "岐阜県多治見市宝町５丁目９８　レオパレス宝２－１０１",
      "lat": 35.341385,
      "lng": 137.110274,
      "geocoding_level": 3,
      "phone": "0572-56-2155",
      "license_no": "59000398",
      "license_date": "2022-02-28",
      "expire_date": "2027-02-28"
    },
    {
      "name": "エンパイア",
      "name_kana": "",
      "business_type": "飲食店営業",
      "address": "岐阜県多治見市音羽町４丁目１５－１",
      "lat": 35.33624700000001,
      "lng": 137.115533,
      "geocoding_level": 3,
      "phone": "",
      "license_no": "59000401",
      "license_date": "2022-03-02",
      "expire_date": "2028-02-29"
    },
    {
      "name": "アコアターブル",
      "name_kana": "",
      "business_type": "菓子製造業",
      "address": "岐阜県多治見市虎渓山町２丁目６０－２",
      "lat": 35.347958,
      "lng": 137.125288,
      "geocoding_level": 3,
      "phone": "080-8556-1394",
      "license_no": "59000403",
      "license_date": "2022-03-22",
      "expire_date": "2028-02-29"
    },
    {
      "name": "ラボラトワールアコ",
      "name_kana": "",
      "business_type": "飲食店営業",
      "address": "岐阜県多治見市虎渓山町３丁目１００",
      "lat": 35.351703,
      "lng": 137.124333,
      "geocoding_level": 3,
      "phone": "090-8556-1394",
      "license_no": "59000404",
      "license_date": "2022-03-29",
      "expire_date": "2028-02-29"
    },
    {
      "name": "インドレストラン　ニュー　チャンダニ",
      "name_kana": "",
      "business_type": "そうざい製造業",
      "address": "岐阜県多治見市音羽町４丁目３２－１",
      "lat": 35.33624700000001,
      "lng": 137.115533,
      "geocoding_level": 3,
      "phone": "0572-24-1155",
      "license_no": "59000405",
      "license_date": "2022-03-14",
      "expire_date": "2028-02-29"
    },
    {
      "name": "わははの喫茶店",
      "name_kana": "",
      "business_type": "飲食店営業",
      "address": "岐阜県多治見市本町５丁目９－１",
      "lat": 35.334868,
      "lng": 137.130104,
      "geocoding_level": 3,
      "phone": "",
      "license_no": "59000410",
      "license_date": "2022-03-22",
      "expire_date": "2027-11-30"
    },
    {
      "name": "丸亀製麺　多治見店",
      "name_kana": "",
      "business_type": "麺類製造業",
      "address": "岐阜県多治見市光ケ丘１丁目２１",
      "lat": 35.344464,
      "lng": 137.111308,
      "geocoding_level": 3,
      "phone": "0572-25-3255",
      "license_no": "59000411",
      "license_date": "2022-03-29",
      "expire_date": "2028-02-29"
    },
    {
      "name": "ボードゲームカフェ　ふらっと－ｆｌａｔ",
      "name_kana": "",
      "business_type": "飲食店営業",
      "address": "岐阜県多治見市新町１丁目４８",
      "lat": 35.334186,
      "lng": 137.128986,
      "geocoding_level": 3,
      "phone": "090-1096-2926",
      "license_no": "59000412",
      "license_date": "2022-03-29",
      "expire_date": "2027-11-30"
    },
    {
      "name": "さかづき茶屋",
      "name_kana": "",
      "business_type": "飲食店営業",
      "address": "岐阜県多治見市市之倉町６丁目３０－１",
      "lat": 35.300152,
      "lng": 137.12547800000002,
      "geocoding_level": 3,
      "phone": "",
      "license_no": "59000414",
      "license_date": "2022-03-25",
      "expire_date": "2027-11-30"
    },
    {
      "name": "愛ｎａｎｏ",
      "name_kana": "",
      "business_type": "飲食店営業",
      "address": "岐阜県多治見市池田町１丁目３７　五反田ビル　１－Ｃ",
      "lat": 35.332205,
      "lng": 137.110331,
      "geocoding_level": 3,
      "phone": "080-9482-8448",
      "license_no": "59000415",
      "license_date": "2022-03-25",
      "expire_date": "2028-02-29"
    },
    {
      "name": "株式会社西友　多治見店　若菜",
      "name_kana": "",
      "business_type": "飲食店営業",
      "address": "岐阜県多治見市上山町１丁目１７５",
      "lat": 35.33941,
      "lng": 137.135909,
      "geocoding_level": 3,
      "phone": "0572-22-6162",
      "license_no": "59000417",
      "license_date": "2022-03-24",
      "expire_date": "2028-02-29"
    },
    {
      "name": "せんまぐ",
      "name_kana": "",
      "business_type": "魚介類販売業",
      "address": "岐阜県多治見市宝町８丁目４５",
      "lat": 35.343941,
      "lng": 137.109136,
      "geocoding_level": 3,
      "phone": "",
      "license_no": "59000440",
      "license_date": "2022-04-13",
      "expire_date": "2028-02-29"
    },
    {
      "name": "パドック",
      "name_kana": "",
      "business_type": "飲食店営業",
      "address": "岐阜県多治見市広小路３丁目１７",
      "lat": 35.331938,
      "lng": 137.129012,
      "geocoding_level": 3,
      "phone": "090-7917-5537",
      "license_no": "59000452",
      "license_date": "2022-04-21",
      "expire_date": "2027-11-30"
    },
    {
      "name": "Ｔ・９カフェー",
      "name_kana": "",
      "business_type": "飲食店営業",
      "address": "岐阜県多治見市喜多町６丁目１０８",
      "lat": 35.340332,
      "lng": 137.102823,
      "geocoding_level": 3,
      "phone": "",
      "license_no": "59000480",
      "license_date": "2022-04-28",
      "expire_date": "2028-02-29"
    },
    {
      "name": "おむすび　すずや",
      "name_kana": "",
      "business_type": "飲食店営業",
      "address": "岐阜県多治見市美坂町８丁目５２",
      "lat": 35.330769,
      "lng": 137.146399,
      "geocoding_level": 3,
      "phone": "0572-28-0343",
      "license_no": "59000483",
      "license_date": "2022-05-02",
      "expire_date": "2027-11-30"
    },
    {
      "name": "多治見クリニック",
      "name_kana": "",
      "business_type": "飲食店営業",
      "address": "岐阜県多治見市音羽町２丁目５１",
      "lat": 35.335093,
      "lng": 137.119359,
      "geocoding_level": 3,
      "phone": "0572-22-5566",
      "license_no": "59000490",
      "license_date": "2022-04-28",
      "expire_date": "2028-02-29"
    },
    {
      "name": "ラウンジ　メリア",
      "name_kana": "",
      "business_type": "飲食店営業",
      "address": "岐阜県多治見市若松町２丁目２１－１　ＬＧ多治見２Ｆ　２号室",
      "lat": 35.341723,
      "lng": 137.114811,
      "geocoding_level": 3,
      "phone": "090-7608-2579",
      "license_no": "59000493",
      "license_date": "2022-05-16",
      "expire_date": "2028-02-29"
    },
    {
      "name": "ファミリーマート多治見松坂町店",
      "name_kana": "",
      "business_type": "飲食店営業",
      "address": "岐阜県多治見市松坂町２丁目１１－４４",
      "lat": 35.367149,
      "lng": 137.086537,
      "geocoding_level": 3,
      "phone": "0572-20-1476",
      "license_no": "59000497",
      "license_date": "2022-05-24",
      "expire_date": "2028-02-29"
    },
    {
      "name": "キッチン付きレンタルルーム",
      "name_kana": "",
      "business_type": "飲食店営業",
      "address": "岐阜県多治見市本町３丁目２５　ヒラクビル２Ｆ",
      "lat": 35.335096,
      "lng": 137.124843,
      "geocoding_level": 3,
      "phone": "0572-23-2636",
      "license_no": "59000498",
      "license_date": "2022-05-24",
      "expire_date": "2028-02-29"
    },
    {
      "name": "キッチン付きレンタルルーム",
      "name_kana": "",
      "business_type": "菓子製造業",
      "address": "岐阜県多治見市本町３丁目２５　ヒラクビル２Ｆ",
      "lat": 35.335096,
      "lng": 137.124843,
      "geocoding_level": 3,
      "phone": "0572-23-2636",
      "license_no": "59000499",
      "license_date": "2022-05-24",
      "expire_date": "2028-02-29"
    },
    {
      "name": "喫茶わに",
      "name_kana": "",
      "business_type": "飲食店営業",
      "address": "岐阜県多治見市本町３丁目２５　ヒラクビル１Ｆ",
      "lat": 35.335096,
      "lng": 137.124843,
      "geocoding_level": 3,
      "phone": "080-6956-8271",
      "license_no": "59000500",
      "license_date": "2022-05-24",
      "expire_date": "2028-02-29"
    },
    {
      "name": "ぺんぎんむら",
      "name_kana": "",
      "business_type": "飲食店営業",
      "address": "岐阜県多治見市本町３丁目４１　サンクエスパス　八棟Ｄ号",
      "lat": 35.335096,
      "lng": 137.124843,
      "geocoding_level": 3,
      "phone": "080-5290-7248",
      "license_no": "59000502",
      "license_date": "2022-05-25",
      "expire_date": "2028-02-29"
    },
    {
      "name": "スパイスファクトリー　あべべ",
      "name_kana": "",
      "business_type": "飲食店営業",
      "address": "岐阜県多治見市本町２丁目４９－７",
      "lat": 35.334935,
      "lng": 137.122472,
      "geocoding_level": 3,
      "phone": "080-6244-1188",
      "license_no": "59000506",
      "license_date": "2022-06-02",
      "expire_date": "2028-02-29"
    },
    {
      "name": "今夜はアキピー",
      "name_kana": "",
      "business_type": "飲食店営業",
      "address": "岐阜県多治見市本町２丁目２９－１",
      "lat": 35.334935,
      "lng": 137.122472,
      "geocoding_level": 3,
      "phone": "090-9129-6537",
      "license_no": "59000510",
      "license_date": "2022-06-06",
      "expire_date": "2028-02-29"
    },
    {
      "name": "スパイスファクトリー　あべべ",
      "name_kana": "",
      "business_type": "そうざい製造業",
      "address": "岐阜県多治見市本町２丁目４９－７",
      "lat": 35.334935,
      "lng": 137.122472,
      "geocoding_level": 3,
      "phone": "080-6244-1188",
      "license_no": "59000515",
      "license_date": "2022-06-02",
      "expire_date": "2028-02-29"
    },
    {
      "name": "肉の一久",
      "name_kana": "",
      "business_type": "食肉処理業",
      "address": "岐阜県多治見市宝町２丁目４１",
      "lat": 35.33954000000001,
      "lng": 137.110277,
      "geocoding_level": 3,
      "phone": "0572-21-1129",
      "license_no": "59000519",
      "license_date": "2022-06-09",
      "expire_date": "2028-02-29"
    },
    {
      "name": "フルキャスト",
      "name_kana": "",
      "business_type": "飲食店営業",
      "address": "岐阜県多治見市市之倉町５丁目７０",
      "lat": 35.297069,
      "lng": 137.125924,
      "geocoding_level": 3,
      "phone": "0572-23-7809",
      "license_no": "59000528",
      "license_date": "2022-07-08",
      "expire_date": "2027-11-30"
    },
    {
      "name": "羊鳴軒",
      "name_kana": "",
      "business_type": "飲食店営業",
      "address": "岐阜県多治見市笠原町２１０９－１",
      "lat": 35.299140435,
      "lng": 137.158657368,
      "geocoding_level": 8,
      "phone": "0572-43-3171",
      "license_no": "59000534",
      "license_date": "2022-06-29",
      "expire_date": "2027-11-30"
    },
    {
      "name": "ＥＧ　ＨＵＧ",
      "name_kana": "",
      "business_type": "飲食店営業",
      "address": "岐阜県多治見市大日町１１８－１",
      "lat": 35.336377000000006,
      "lng": 137.124584,
      "geocoding_level": 3,
      "phone": "090-9197-4404",
      "license_no": "59000536",
      "license_date": "2022-09-06",
      "expire_date": "2028-02-29"
    },
    {
      "name": "マスカレード",
      "name_kana": "",
      "business_type": "飲食店営業",
      "address": "岐阜県多治見市音羽町５丁目４５",
      "lat": 35.338112,
      "lng": 137.115925,
      "geocoding_level": 3,
      "phone": "080-4213-0690",
      "license_no": "59000543",
      "license_date": "2022-07-14",
      "expire_date": "2028-02-29"
    },
    {
      "name": "イロドリ",
      "name_kana": "",
      "business_type": "飲食店営業",
      "address": "岐阜県多治見市本町２丁目２９－１",
      "lat": 35.334935,
      "lng": 137.122472,
      "geocoding_level": 3,
      "phone": "080-2628-0009",
      "license_no": "59000546",
      "license_date": "2022-07-25",
      "expire_date": "2028-02-29"
    },
    {
      "name": "東美濃",
      "name_kana": "",
      "business_type": "飲食店営業",
      "address": "岐阜県多治見市本町２丁目１８",
      "lat": 35.334935,
      "lng": 137.122472,
      "geocoding_level": 3,
      "phone": "0572-22-8105",
      "license_no": "59000549",
      "license_date": "2022-08-01",
      "expire_date": "2028-02-29"
    },
    {
      "name": "いつものごはん　ひとてま屋",
      "name_kana": "",
      "business_type": "菓子製造業",
      "address": "岐阜県多治見市三笠町２丁目１　　メゾンエトワール１０５",
      "lat": 35.328548,
      "lng": 137.125346,
      "geocoding_level": 3,
      "phone": "090-7721-9806",
      "license_no": "59000583",
      "license_date": "2022-07-27",
      "expire_date": "2027-11-30"
    },
    {
      "name": "ホテル　クイーン",
      "name_kana": "",
      "business_type": "飲食店営業",
      "address": "岐阜県多治見市金岡町４丁目４５",
      "lat": 35.347091,
      "lng": 137.114751,
      "geocoding_level": 3,
      "phone": "0572-24-7788",
      "license_no": "59000634",
      "license_date": "2022-08-22",
      "expire_date": "2028-02-29"
    },
    {
      "name": "瀬城商店",
      "name_kana": "",
      "business_type": "飲食店営業",
      "address": "岐阜県多治見市金岡町２丁目８７－３",
      "lat": 35.343875631,
      "lng": 137.116625919,
      "geocoding_level": 8,
      "phone": "090-9896-6182",
      "license_no": "59000637",
      "license_date": "2022-09-09",
      "expire_date": "2028-02-29"
    },
    {
      "name": "笑心",
      "name_kana": "",
      "business_type": "飲食店営業",
      "address": "岐阜県多治見市昭和町７５",
      "lat": 35.330795,
      "lng": 137.124437,
      "geocoding_level": 3,
      "phone": "",
      "license_no": "59000642",
      "license_date": "2022-08-24",
      "expire_date": "2027-11-30"
    },
    {
      "name": "ファミリーマート多治見宝町店",
      "name_kana": "",
      "business_type": "飲食店営業",
      "address": "岐阜県多治見市宝町９丁目２４",
      "lat": 35.342554,
      "lng": 137.107213,
      "geocoding_level": 3,
      "phone": "0572-21-0181",
      "license_no": "59000644",
      "license_date": "2022-08-24",
      "expire_date": "2028-02-29"
    },
    {
      "name": "伝説の酒美さゆりん",
      "name_kana": "",
      "business_type": "飲食店営業",
      "address": "岐阜県多治見市新町２丁目２８－２",
      "lat": 35.332848,
      "lng": 137.129638,
      "geocoding_level": 3,
      "phone": "090-5453-0114",
      "license_no": "59000645",
      "license_date": "2022-08-29",
      "expire_date": "2027-11-30"
    },
    {
      "name": "ファミリーマート　多治見池田町店",
      "name_kana": "",
      "business_type": "飲食店営業",
      "address": "岐阜県多治見市池田町９丁目３７－１",
      "lat": 35.331212,
      "lng": 137.102633,
      "geocoding_level": 3,
      "phone": "0572-21-5506",
      "license_no": "59000646",
      "license_date": "2022-08-29",
      "expire_date": "2028-02-29"
    },
    {
      "name": "優貴珈琲工房",
      "name_kana": "",
      "business_type": "飲食店営業",
      "address": "岐阜県多治見市高根町２丁目２３",
      "lat": 35.361662,
      "lng": 137.090865,
      "geocoding_level": 3,
      "phone": "0572-27-5600",
      "license_no": "59000653",
      "license_date": "2022-09-12",
      "expire_date": "2028-02-29"
    },
    {
      "name": "優貴珈琲工房",
      "name_kana": "",
      "business_type": "菓子製造業",
      "address": "岐阜県多治見市高根町２丁目２３",
      "lat": 35.361662,
      "lng": 137.090865,
      "geocoding_level": 3,
      "phone": "0572-27-5600",
      "license_no": "59000654",
      "license_date": "2022-09-12",
      "expire_date": "2028-02-29"
    },
    {
      "name": "ＧＩＲＬＳ　ＢＥＲ　ＰＥＡＣＥ",
      "name_kana": "",
      "business_type": "飲食店営業",
      "address": "岐阜県多治見市本町２丁目２６－３　東文堂ビル２Ｆ",
      "lat": 35.334935,
      "lng": 137.122472,
      "geocoding_level": 3,
      "phone": "",
      "license_no": "59000711",
      "license_date": "2022-09-26",
      "expire_date": "2028-02-29"
    },
    {
      "name": "ｄｉｎｎｉｎｇ　十両",
      "name_kana": "",
      "business_type": "飲食店営業",
      "address": "岐阜県多治見市前畑町３丁目８３",
      "lat": 35.330352,
      "lng": 137.116319,
      "geocoding_level": 3,
      "phone": "0572-22-9754",
      "license_no": "59000713",
      "license_date": "2022-09-26",
      "expire_date": "2028-02-29"
    },
    {
      "name": "焼肉苑　咲万",
      "name_kana": "",
      "business_type": "飲食店営業",
      "address": "岐阜県多治見市本町２丁目２２　リリービル１Ｂ",
      "lat": 35.334935,
      "lng": 137.122472,
      "geocoding_level": 3,
      "phone": "0572-56-8884",
      "license_no": "59000714",
      "license_date": "2022-10-17",
      "expire_date": "2028-02-29"
    },
    {
      "name": "焼肉苑　咲万",
      "name_kana": "",
      "business_type": "食肉販売業",
      "address": "岐阜県多治見市本町２丁目２２　リリービル１Ｂ",
      "lat": 35.334935,
      "lng": 137.122472,
      "geocoding_level": 3,
      "phone": "0572-56-8884",
      "license_no": "59000715",
      "license_date": "2022-10-17",
      "expire_date": "2028-02-29"
    },
    {
      "name": "九十九　多治見店",
      "name_kana": "",
      "business_type": "飲食店営業",
      "address": "岐阜県多治見市本町２丁目３５－３　羅光ビル１Ｆ",
      "lat": 35.334935,
      "lng": 137.122472,
      "geocoding_level": 3,
      "phone": "0572-56-6555",
      "license_no": "59000718",
      "license_date": "2022-09-28",
      "expire_date": "2028-02-29"
    },
    {
      "name": "おもちや　て",
      "name_kana": "",
      "business_type": "菓子製造業",
      "address": "岐阜県多治見市錦町１丁目８－１",
      "lat": 35.329474,
      "lng": 137.124804,
      "geocoding_level": 3,
      "phone": "080-6074-1085",
      "license_no": "59000721",
      "license_date": "2022-09-30",
      "expire_date": "2027-11-30"
    },
    {
      "name": "ステーキハウスメガインディアンズ多治見店",
      "name_kana": "",
      "business_type": "飲食店営業",
      "address": "岐阜県多治見市光ケ丘４丁目５３－１",
      "lat": 35.348158,
      "lng": 137.108186,
      "geocoding_level": 3,
      "phone": "0572-56-9910",
      "license_no": "59000730",
      "license_date": "2022-11-17",
      "expire_date": "2028-02-29"
    },
    {
      "name": "セブン－イレブン多治見笠原町神戸店",
      "name_kana": "",
      "business_type": "飲食店営業",
      "address": "岐阜県多治見市笠原町２８０２－４",
      "lat": 35.293425,
      "lng": 137.160497,
      "geocoding_level": 3,
      "phone": "0572-43-5454",
      "license_no": "59000734",
      "license_date": "2022-11-10",
      "expire_date": "2027-11-30"
    },
    {
      "name": "ｃａｆｅ　ＫａＲＡ　ＫａＲＡ",
      "name_kana": "",
      "business_type": "飲食店営業",
      "address": "岐阜県多治見市笠原町４１１４－２１",
      "lat": 35.293425,
      "lng": 137.160497,
      "geocoding_level": 3,
      "phone": "0572-44-2288",
      "license_no": "59000736",
      "license_date": "2022-11-10",
      "expire_date": "2027-11-30"
    },
    {
      "name": "食事処　はず",
      "name_kana": "",
      "business_type": "飲食店営業",
      "address": "岐阜県多治見市笠原町２１４７－２",
      "lat": 35.293425,
      "lng": 137.160497,
      "geocoding_level": 3,
      "phone": "0572-43-2524",
      "license_no": "59000739",
      "license_date": "2022-11-10",
      "expire_date": "2027-11-30"
    },
    {
      "name": "そば処　桔梗",
      "name_kana": "",
      "business_type": "飲食店営業",
      "address": "岐阜県多治見市笠原町１６４７－１５４",
      "lat": 35.293425,
      "lng": 137.160497,
      "geocoding_level": 3,
      "phone": "0572-44-3388",
      "license_no": "59000740",
      "license_date": "2022-11-10",
      "expire_date": "2027-11-30"
    },
    {
      "name": "すなっく　えぷろん",
      "name_kana": "",
      "business_type": "飲食店営業",
      "address": "岐阜県多治見市新町１丁目２－１２",
      "lat": 35.334186,
      "lng": 137.128986,
      "geocoding_level": 3,
      "phone": "0572-24-2705",
      "license_no": "59000741",
      "license_date": "2022-11-10",
      "expire_date": "2027-11-30"
    },
    {
      "name": "冨貴",
      "name_kana": "",
      "business_type": "飲食店営業",
      "address": "岐阜県多治見市新町１丁目２－１１",
      "lat": 35.334186,
      "lng": 137.128986,
      "geocoding_level": 3,
      "phone": "0572-25-3544",
      "license_no": "59000742",
      "license_date": "2022-11-10",
      "expire_date": "2027-11-30"
    },
    {
      "name": "株式会社トーヨーケン",
      "name_kana": "",
      "business_type": "食品の小分け業",
      "address": "岐阜県多治見市青木町４２",
      "lat": 35.3331,
      "lng": 137.127225,
      "geocoding_level": 3,
      "phone": "0572-23-6200",
      "license_no": "59000743",
      "license_date": "2022-11-10",
      "expire_date": "2027-11-30"
    },
    {
      "name": "ＮＥＵ！",
      "name_kana": "",
      "business_type": "飲食店営業",
      "address": "岐阜県多治見市昭和町１９－１",
      "lat": 35.330795,
      "lng": 137.124437,
      "geocoding_level": 3,
      "phone": "0572-51-4112",
      "license_no": "59000744",
      "license_date": "2022-11-10",
      "expire_date": "2027-11-30"
    },
    {
      "name": "ＮＥＵ！",
      "name_kana": "",
      "business_type": "菓子製造業",
      "address": "岐阜県多治見市昭和町１９－１",
      "lat": 35.330795,
      "lng": 137.124437,
      "geocoding_level": 3,
      "phone": "0572-51-4112",
      "license_no": "59000745",
      "license_date": "2022-11-10",
      "expire_date": "2027-11-30"
    },
    {
      "name": "ＬＩＥＴＯ　ｃａｆｅ",
      "name_kana": "",
      "business_type": "飲食店営業",
      "address": "岐阜県多治見市広小路４丁目１２",
      "lat": 35.331995,
      "lng": 137.13004,
      "geocoding_level": 3,
      "phone": "0572-56-0640",
      "license_no": "59000746",
      "license_date": "2022-11-10",
      "expire_date": "2027-11-30"
    },
    {
      "name": "手打ちうどん　やまだ",
      "name_kana": "",
      "business_type": "飲食店営業",
      "address": "岐阜県多治見市広小路２丁目４５",
      "lat": 35.331584,
      "lng": 137.12731,
      "geocoding_level": 3,
      "phone": "0572-56-2777",
      "license_no": "59000747",
      "license_date": "2022-11-10",
      "expire_date": "2027-11-30"
    },
    {
      "name": "社会就労センターけやき",
      "name_kana": "",
      "business_type": "菓子製造業",
      "address": "岐阜県多治見市平和町６丁目３６４",
      "lat": 35.32607363500001,
      "lng": 137.118115753,
      "geocoding_level": 8,
      "phone": "0572-22-1011",
      "license_no": "59000748",
      "license_date": "2022-11-10",
      "expire_date": "2027-11-30"
    },
    {
      "name": "ファミリーマート多治見平和町店",
      "name_kana": "",
      "business_type": "飲食店営業",
      "address": "岐阜県多治見市平和町５丁目５７－１",
      "lat": 35.328116,
      "lng": 137.117464,
      "geocoding_level": 3,
      "phone": "0572-28-1123",
      "license_no": "59000750",
      "license_date": "2022-11-10",
      "expire_date": "2027-11-30"
    },
    {
      "name": "セブン－イレブン多治見大畑町７丁目店",
      "name_kana": "",
      "business_type": "飲食店営業",
      "address": "岐阜県多治見市大畑町７丁目１０１",
      "lat": 35.319487,
      "lng": 137.140724,
      "geocoding_level": 3,
      "phone": "0572-23-5158",
      "license_no": "59000751",
      "license_date": "2022-11-10",
      "expire_date": "2027-11-30"
    },
    {
      "name": "ローソン多治見大畑町店",
      "name_kana": "",
      "business_type": "飲食店営業",
      "address": "岐阜県多治見市大畑町大洞２－６",
      "lat": 35.314257,
      "lng": 137.124638,
      "geocoding_level": 3,
      "phone": "0572-24-5085",
      "license_no": "59000752",
      "license_date": "2022-11-10",
      "expire_date": "2027-11-30"
    },
    {
      "name": "Ｃａｆｅ　Ｐｌａｔｒｅ",
      "name_kana": "",
      "business_type": "飲食店営業",
      "address": "岐阜県多治見市下沢町４丁目３０－２",
      "lat": 35.320339377,
      "lng": 137.147384417,
      "geocoding_level": 8,
      "phone": "0572-74-1254",
      "license_no": "59000753",
      "license_date": "2022-11-10",
      "expire_date": "2027-11-30"
    },
    {
      "name": "Ｃａｆｅ　Ｐｌａｔｒｅ",
      "name_kana": "",
      "business_type": "菓子製造業",
      "address": "岐阜県多治見市下沢町４丁目３０－２",
      "lat": 35.320339377,
      "lng": 137.147384417,
      "geocoding_level": 8,
      "phone": "0572-74-1254",
      "license_no": "59000754",
      "license_date": "2022-11-10",
      "expire_date": "2027-11-30"
    },
    {
      "name": "豊格院ファミール多治見中央",
      "name_kana": "",
      "business_type": "飲食店営業",
      "address": "岐阜県多治見市錦町３丁目１３",
      "lat": 35.329337,
      "lng": 137.128848,
      "geocoding_level": 3,
      "phone": "0572-23-0004",
      "license_no": "59000755",
      "license_date": "2022-11-10",
      "expire_date": "2027-11-30"
    },
    {
      "name": "居酒屋　鼓舞",
      "name_kana": "",
      "business_type": "飲食店営業",
      "address": "岐阜県多治見市白山町３丁目１２－１　ハイツしろやま１Ｆ－Ｅ",
      "lat": 35.338838,
      "lng": 137.118539,
      "geocoding_level": 3,
      "phone": "080-9482-4193",
      "license_no": "59000758",
      "license_date": "2022-10-28",
      "expire_date": "2028-02-29"
    },
    {
      "name": "ＴＦＰ遊楽苑市之倉",
      "name_kana": "",
      "business_type": "飲食店営業",
      "address": "岐阜県多治見市市之倉町３丁目３０",
      "lat": 35.296016,
      "lng": 137.13111,
      "geocoding_level": 3,
      "phone": "0561-67-0877",
      "license_no": "59000760",
      "license_date": "2022-11-10",
      "expire_date": "2027-11-30"
    },
    {
      "name": "東濃学校給食炊飯センター株式会社",
      "name_kana": "",
      "business_type": "菓子製造業",
      "address": "岐阜県多治見市笠原町１５２３－１",
      "lat": 35.301899732,
      "lng": 137.160910001,
      "geocoding_level": 8,
      "phone": "0572-43-3083",
      "license_no": "59000761",
      "license_date": "2022-11-10",
      "expire_date": "2027-11-30"
    },
    {
      "name": "クエスターベースカフェ",
      "name_kana": "",
      "business_type": "飲食店営業",
      "address": "岐阜県多治見市本町１丁目７８　１Ｆ　北側",
      "lat": 35.334046,
      "lng": 137.121975,
      "geocoding_level": 3,
      "phone": "",
      "license_no": "59000765",
      "license_date": "2022-11-04",
      "expire_date": "2028-02-29"
    },
    {
      "name": "クエスターベースカフェ",
      "name_kana": "",
      "business_type": "飲食店営業",
      "address": "岐阜県多治見市本町１丁目７８　２Ｆ　北側",
      "lat": 35.334046,
      "lng": 137.121975,
      "geocoding_level": 3,
      "phone": "",
      "license_no": "59000766",
      "license_date": "2022-11-04",
      "expire_date": "2028-02-29"
    },
    {
      "name": "ＭＫ１０９０１事業所",
      "name_kana": "",
      "business_type": "飲食店営業",
      "address": "岐阜県多治見市平野町２丁目８０　多治見市養正小学校近接対応調理場内",
      "lat": 35.329916,
      "lng": 137.134094,
      "geocoding_level": 3,
      "phone": "070-2234-4673",
      "license_no": "59000769",
      "license_date": "2022-11-10",
      "expire_date": "2027-11-30"
    },
    {
      "name": "コトノハ食堂アットホーム",
      "name_kana": "",
      "business_type": "飲食店営業",
      "address": "岐阜県多治見市金山町２０－１",
      "lat": 35.332466,
      "lng": 137.128993,
      "geocoding_level": 3,
      "phone": "0572-56-5687",
      "license_no": "59000771",
      "license_date": "2022-11-14",
      "expire_date": "2027-11-30"
    },
    {
      "name": "喫茶　こがねむし",
      "name_kana": "",
      "business_type": "飲食店営業",
      "address": "岐阜県多治見市笠原町１２５７－１６",
      "lat": 35.293425,
      "lng": 137.160497,
      "geocoding_level": 3,
      "phone": "0572-43-5175",
      "license_no": "59000772",
      "license_date": "2022-11-14",
      "expire_date": "2027-11-30"
    },
    {
      "name": "わむたこ　多治見店",
      "name_kana": "",
      "business_type": "飲食店営業",
      "address": "岐阜県多治見市豊岡町１丁目４－１",
      "lat": 35.333525,
      "lng": 137.12483,
      "geocoding_level": 3,
      "phone": "090-8076-4910",
      "license_no": "59000773",
      "license_date": "2022-11-14",
      "expire_date": "2028-02-29"
    },
    {
      "name": "ＴＨＥ　ＧＩＮ",
      "name_kana": "",
      "business_type": "飲食店営業",
      "address": "岐阜県多治見市上野町１丁目２７　カサヒカリⅢ",
      "lat": 35.337799,
      "lng": 137.124787,
      "geocoding_level": 3,
      "phone": "090-8499-2576",
      "license_no": "59000774",
      "license_date": "2022-11-17",
      "expire_date": "2028-02-29"
    },
    {
      "name": "ＣＯＴＯＲＡ　ＣＯＦＦＥＥ",
      "name_kana": "",
      "business_type": "飲食店営業",
      "address": "岐阜県多治見市広小路２丁目５６",
      "lat": 35.331584,
      "lng": 137.12731,
      "geocoding_level": 3,
      "phone": "090-9179-7018",
      "license_no": "59000779",
      "license_date": "2023-02-17",
      "expire_date": "2028-11-30"
    },
    {
      "name": "石窯ピッツァｍｏｏｎ",
      "name_kana": "",
      "business_type": "飲食店営業",
      "address": "岐阜県多治見市市之倉町６丁目３０－１",
      "lat": 35.300152,
      "lng": 137.12547800000002,
      "geocoding_level": 3,
      "phone": "0572-21-3353",
      "license_no": "59000780",
      "license_date": "2022-11-25",
      "expire_date": "2027-11-30"
    },
    {
      "name": "いつものごはん　ひとてま屋",
      "name_kana": "",
      "business_type": "そうざい製造業",
      "address": "岐阜県多治見市三笠町２丁目１　　メゾンエトワール１０５",
      "lat": 35.328548,
      "lng": 137.125346,
      "geocoding_level": 3,
      "phone": "090-7721-9806",
      "license_no": "59000781",
      "license_date": "2022-12-05",
      "expire_date": "2028-11-30"
    },
    {
      "name": "モスバーガー多治見上野町店",
      "name_kana": "",
      "business_type": "飲食店営業",
      "address": "岐阜県多治見市上野町５丁目９８",
      "lat": 35.341516665,
      "lng": 137.127161204,
      "geocoding_level": 8,
      "phone": "0572-24-6855",
      "license_no": "59000782",
      "license_date": "2022-12-02",
      "expire_date": "2028-02-29"
    },
    {
      "name": "市之倉ベーカリー　ｙａｋｉｄｏｋｏｒｏ　壱",
      "name_kana": "",
      "business_type": "菓子製造業",
      "address": "岐阜県多治見市市之倉町２丁目８１",
      "lat": 35.304122,
      "lng": 137.131648,
      "geocoding_level": 3,
      "phone": "0572-51-1162",
      "license_no": "59000783",
      "license_date": "2022-12-02",
      "expire_date": "2028-11-30"
    },
    {
      "name": "３ＳＴＡＲ",
      "name_kana": "",
      "business_type": "飲食店営業",
      "address": "岐阜県多治見市音羽町５丁目４５　音羽プラザ１０５",
      "lat": 35.338112,
      "lng": 137.115925,
      "geocoding_level": 3,
      "phone": "0572-56-7277",
      "license_no": "59000784",
      "license_date": "2022-12-02",
      "expire_date": "2028-02-29"
    },
    {
      "name": "町田商店多治見店",
      "name_kana": "",
      "business_type": "飲食店営業",
      "address": "岐阜県多治見市幸町３丁目８－１",
      "lat": 35.355448,
      "lng": 137.093106,
      "geocoding_level": 3,
      "phone": "0572-26-8663",
      "license_no": "59000788",
      "license_date": "2022-12-20",
      "expire_date": "2028-02-29"
    },
    {
      "name": "℃ＲＩＰ４０９",
      "name_kana": "",
      "business_type": "飲食店営業",
      "address": "岐阜県多治見市栄町２丁目５８－３　センタービル１Ｆ",
      "lat": 35.332884,
      "lng": 137.12281,
      "geocoding_level": 3,
      "phone": "0572-56-0670",
      "license_no": "59000797",
      "license_date": "2023-01-18",
      "expire_date": "2028-02-29"
    },
    {
      "name": "す奈は",
      "name_kana": "",
      "business_type": "飲食店営業",
      "address": "岐阜県多治見市宝町２丁目４９",
      "lat": 35.33954000000001,
      "lng": 137.110277,
      "geocoding_level": 3,
      "phone": "0572-23-8785",
      "license_no": "59000799",
      "license_date": "2023-02-13",
      "expire_date": "2028-02-29"
    },
    {
      "name": "焼肉末広",
      "name_kana": "",
      "business_type": "飲食店営業",
      "address": "岐阜県多治見市虎渓町２丁目１６－３",
      "lat": 35.337452,
      "lng": 137.126156,
      "geocoding_level": 3,
      "phone": "0572-23-9110",
      "license_no": "59000800",
      "license_date": "2023-02-13",
      "expire_date": "2028-02-29"
    },
    {
      "name": "幸寿司",
      "name_kana": "",
      "business_type": "飲食店営業",
      "address": "岐阜県多治見市姫町１丁目５１",
      "lat": 35.38230000000001,
      "lng": 137.073153,
      "geocoding_level": 3,
      "phone": "0572-29-2751",
      "license_no": "59000801",
      "license_date": "2023-02-13",
      "expire_date": "2028-02-29"
    },
    {
      "name": "豚旨うま屋ラーメン多治見店",
      "name_kana": "",
      "business_type": "飲食店営業",
      "address": "岐阜県多治見市若松町３丁目２５－１０",
      "lat": 35.342805,
      "lng": 137.114413,
      "geocoding_level": 3,
      "phone": "0572-22-3427",
      "license_no": "59000802",
      "license_date": "2023-02-13",
      "expire_date": "2028-02-29"
    },
    {
      "name": "ピアゴ多治見店",
      "name_kana": "",
      "business_type": "飲食店営業",
      "address": "岐阜県多治見市住吉町３丁目１９ー１",
      "lat": 35.343703353,
      "lng": 137.122013716,
      "geocoding_level": 8,
      "phone": "0572-25-7111",
      "license_no": "59000804",
      "license_date": "2023-02-13",
      "expire_date": "2028-02-29"
    },
    {
      "name": "ピアゴ多治見店",
      "name_kana": "",
      "business_type": "食肉販売業",
      "address": "岐阜県多治見市住吉町３丁目１９ー１",
      "lat": 35.343703353,
      "lng": 137.122013716,
      "geocoding_level": 8,
      "phone": "0572-25-7111",
      "license_no": "59000805",
      "license_date": "2023-02-13",
      "expire_date": "2028-02-29"
    },
    {
      "name": "ピアゴ多治見店",
      "name_kana": "",
      "business_type": "魚介類販売業",
      "address": "岐阜県多治見市住吉町３丁目１９ー１",
      "lat": 35.343703353,
      "lng": 137.122013716,
      "geocoding_level": 8,
      "phone": "0572-25-7111",
      "license_no": "59000806",
      "license_date": "2023-02-13",
      "expire_date": "2028-02-29"
    },
    {
      "name": "カザマツリキッチン",
      "name_kana": "",
      "business_type": "飲食店営業",
      "address": "岐阜県多治見市住吉町３丁目１９－１",
      "lat": 35.343703353,
      "lng": 137.122013716,
      "geocoding_level": 8,
      "phone": "0572-24-3051",
      "license_no": "59000808",
      "license_date": "2023-02-13",
      "expire_date": "2028-02-29"
    },
    {
      "name": "くれたけインプレミアム多治見駅前",
      "name_kana": "",
      "business_type": "飲食店営業",
      "address": "岐阜県多治見市本町１丁目１２１",
      "lat": 35.334547656,
      "lng": 137.120478573,
      "geocoding_level": 8,
      "phone": "0572-21-5411",
      "license_no": "59000809",
      "license_date": "2022-12-26",
      "expire_date": "2028-02-29"
    },
    {
      "name": "居酒屋　志門",
      "name_kana": "",
      "business_type": "飲食店営業",
      "address": "岐阜県多治見市宝町６丁目２６　宝ハイツ１０５",
      "lat": 35.340444,
      "lng": 137.112378,
      "geocoding_level": 3,
      "phone": "0572-25-4412",
      "license_no": "59000810",
      "license_date": "2023-02-13",
      "expire_date": "2028-02-29"
    },
    {
      "name": "もちや",
      "name_kana": "",
      "business_type": "飲食店営業",
      "address": "岐阜県多治見市本町１丁目７９",
      "lat": 35.334046,
      "lng": 137.121975,
      "geocoding_level": 3,
      "phone": "0572-22-1965",
      "license_no": "59000812",
      "license_date": "2023-02-13",
      "expire_date": "2028-02-29"
    },
    {
      "name": "ＢＵＺＺ　多治見店",
      "name_kana": "",
      "business_type": "飲食店営業",
      "address": "岐阜県多治見市本町３丁目１１　たじみビル２Ｆ",
      "lat": 35.335096,
      "lng": 137.124843,
      "geocoding_level": 3,
      "phone": "0572-25-6535",
      "license_no": "59000813",
      "license_date": "2022-12-28",
      "expire_date": "2028-02-29"
    },
    {
      "name": "とり慶",
      "name_kana": "",
      "business_type": "飲食店営業",
      "address": "岐阜県多治見市白山町３丁目１２",
      "lat": 35.338838,
      "lng": 137.118539,
      "geocoding_level": 3,
      "phone": "090-6072-4670",
      "license_no": "59000815",
      "license_date": "2023-02-13",
      "expire_date": "2028-02-29"
    },
    {
      "name": "舞路麦",
      "name_kana": "",
      "business_type": "飲食店営業",
      "address": "岐阜県多治見市太平町５丁目６",
      "lat": 35.337153,
      "lng": 137.112757,
      "geocoding_level": 3,
      "phone": "0572-23-8860",
      "license_no": "59000817",
      "license_date": "2023-02-13",
      "expire_date": "2028-02-29"
    },
    {
      "name": "スターバックスコーヒー多治見光ケ丘店",
      "name_kana": "",
      "business_type": "飲食店営業",
      "address": "岐阜県多治見市光ケ丘４丁目４８－２",
      "lat": 35.348158,
      "lng": 137.108186,
      "geocoding_level": 3,
      "phone": "0572-21-2130",
      "license_no": "59000818",
      "license_date": "2023-02-13",
      "expire_date": "2028-02-29"
    },
    {
      "name": "やさい暦　暁",
      "name_kana": "",
      "business_type": "飲食店営業",
      "address": "岐阜県多治見市明和町２丁目２２－１１０",
      "lat": 35.35364066,
      "lng": 137.101960566,
      "geocoding_level": 8,
      "phone": "090-7612-3501",
      "license_no": "59000819",
      "license_date": "2023-02-17",
      "expire_date": "2028-02-29"
    },
    {
      "name": "フランス菓子　サンドール",
      "name_kana": "",
      "business_type": "飲食店営業",
      "address": "岐阜県多治見市虎渓山町７丁目１４－１８",
      "lat": 35.354581,
      "lng": 137.130848,
      "geocoding_level": 3,
      "phone": "0572-25-1211",
      "license_no": "59000820",
      "license_date": "2023-02-13",
      "expire_date": "2028-02-29"
    },
    {
      "name": "フランス菓子　サンドール",
      "name_kana": "",
      "business_type": "菓子製造業",
      "address": "岐阜県多治見市虎渓山町７丁目１４－１８",
      "lat": 35.354581,
      "lng": 137.130848,
      "geocoding_level": 3,
      "phone": "0572-25-1211",
      "license_no": "59000821",
      "license_date": "2023-02-13",
      "expire_date": "2028-02-29"
    },
    {
      "name": "ミニストップ多治見旭ヶ丘店",
      "name_kana": "",
      "business_type": "飲食店営業",
      "address": "岐阜県多治見市旭ケ丘１０丁目６－２３",
      "lat": 35.366452,
      "lng": 137.111789,
      "geocoding_level": 3,
      "phone": "0572-29-5322",
      "license_no": "59000823",
      "license_date": "2023-02-13",
      "expire_date": "2028-02-29"
    },
    {
      "name": "カネ美食品株式会社　多治見工場",
      "name_kana": "",
      "business_type": "複合型そうざい製造業",
      "address": "岐阜県多治見市根本町１２丁目１００",
      "lat": 35.359578,
      "lng": 137.075325,
      "geocoding_level": 3,
      "phone": "0572-29-5321",
      "license_no": "59000824",
      "license_date": "2023-01-31",
      "expire_date": "2028-02-29"
    },
    {
      "name": "大石家",
      "name_kana": "",
      "business_type": "飲食店営業",
      "address": "岐阜県多治見市光ケ丘１丁目１３９",
      "lat": 35.344464,
      "lng": 137.111308,
      "geocoding_level": 3,
      "phone": "0572-22-5811",
      "license_no": "59000826",
      "license_date": "2023-02-13",
      "expire_date": "2028-02-29"
    },
    {
      "name": "多治見市民病院内厨房富士産業株式会社事業所",
      "name_kana": "",
      "business_type": "飲食店営業",
      "address": "岐阜県多治見市前畑町３丁目４３",
      "lat": 35.330352,
      "lng": 137.116319,
      "geocoding_level": 3,
      "phone": "0572-25-3166",
      "license_no": "59000827",
      "license_date": "2023-02-13",
      "expire_date": "2028-02-29"
    },
    {
      "name": "多治見市民病院内レストラン富士産業株式会社事業所",
      "name_kana": "",
      "business_type": "飲食店営業",
      "address": "岐阜県多治見市前畑町３丁目４３　７Ｆ",
      "lat": 35.330352,
      "lng": 137.116319,
      "geocoding_level": 3,
      "phone": "0572-24-9001",
      "license_no": "59000828",
      "license_date": "2023-02-13",
      "expire_date": "2028-02-29"
    },
    {
      "name": "中華楼　せん",
      "name_kana": "",
      "business_type": "飲食店営業",
      "address": "岐阜県多治見市音羽町３丁目２０",
      "lat": 35.333751,
      "lng": 137.116297,
      "geocoding_level": 3,
      "phone": "0572-25-2170",
      "license_no": "59000830",
      "license_date": "2023-02-13",
      "expire_date": "2028-02-29"
    },
    {
      "name": "パンコウバ",
      "name_kana": "",
      "business_type": "菓子製造業",
      "address": "岐阜県多治見市池田町２丁目１４４",
      "lat": 35.33067,
      "lng": 137.109613,
      "geocoding_level": 3,
      "phone": "090-9171-6286",
      "license_no": "59000831",
      "license_date": "2023-02-13",
      "expire_date": "2028-02-29"
    },
    {
      "name": "御菓子所　亀屋製菓舗",
      "name_kana": "",
      "business_type": "菓子製造業",
      "address": "岐阜県多治見市高根町４丁目９",
      "lat": 35.361798,
      "lng": 137.094943,
      "geocoding_level": 3,
      "phone": "0572-27-2583",
      "license_no": "59000832",
      "license_date": "2023-01-31",
      "expire_date": "2028-02-29"
    },
    {
      "name": "ファミリーマート多治見駅北店",
      "name_kana": "",
      "business_type": "飲食店営業",
      "address": "岐阜県多治見市音羽町１丁目２４０",
      "lat": 35.336847149,
      "lng": 137.119771497,
      "geocoding_level": 8,
      "phone": "0572-21-6250",
      "license_no": "59000833",
      "license_date": "2023-02-13",
      "expire_date": "2028-02-29"
    },
    {
      "name": "多治見通運株式会社",
      "name_kana": "",
      "business_type": "食品の小分け業",
      "address": "岐阜県多治見市小泉町１丁目２１－１",
      "lat": 35.349896436,
      "lng": 137.100876231,
      "geocoding_level": 8,
      "phone": "0572-20-2501",
      "license_no": "59000834",
      "license_date": "2023-02-13",
      "expire_date": "2028-02-29"
    },
    {
      "name": "丸孝水産　ピアゴ多治見店",
      "name_kana": "",
      "business_type": "飲食店営業",
      "address": "岐阜県多治見市住吉町３丁目１９－１",
      "lat": 35.343703353,
      "lng": 137.122013716,
      "geocoding_level": 8,
      "phone": "0572-23-1123",
      "license_no": "59000835",
      "license_date": "2023-02-13",
      "expire_date": "2028-02-29"
    },
    {
      "name": "丸孝水産　ピアゴ多治見店",
      "name_kana": "",
      "business_type": "魚介類販売業",
      "address": "岐阜県多治見市住吉町３丁目１９－１",
      "lat": 35.343703353,
      "lng": 137.122013716,
      "geocoding_level": 8,
      "phone": "0572-23-1123",
      "license_no": "59000836",
      "license_date": "2023-02-13",
      "expire_date": "2028-02-29"
    },
    {
      "name": "Ｆｒｅｅ　Ｓｔｙｌｅ　Ｂａｒ　ＬＡＳＳＩＥ",
      "name_kana": "",
      "business_type": "飲食店営業",
      "address": "岐阜県多治見市上野町１丁目２２　ファミール上野ビル１０４号",
      "lat": 35.337799,
      "lng": 137.124787,
      "geocoding_level": 3,
      "phone": "",
      "license_no": "59000838",
      "license_date": "2023-02-13",
      "expire_date": "2028-02-29"
    },
    {
      "name": "ＭＯＮＴＡＮＡ",
      "name_kana": "",
      "business_type": "飲食店営業",
      "address": "岐阜県多治見市廿原町４７０－５",
      "lat": 35.320509198,
      "lng": 137.076316448,
      "geocoding_level": 8,
      "phone": "0572-56-2688",
      "license_no": "59000839",
      "license_date": "2023-02-13",
      "expire_date": "2028-02-29"
    },
    {
      "name": "ベル　アンド　ピアノ",
      "name_kana": "",
      "business_type": "飲食店営業",
      "address": "岐阜県多治見市弁天町２丁目２５",
      "lat": 35.340657,
      "lng": 137.128675,
      "geocoding_level": 3,
      "phone": "0572-22-4425",
      "license_no": "59000840",
      "license_date": "2023-02-13",
      "expire_date": "2028-02-29"
    },
    {
      "name": "日本料理　わさび",
      "name_kana": "",
      "business_type": "飲食店営業",
      "address": "岐阜県多治見市住吉町２丁目１－１",
      "lat": 35.346044162,
      "lng": 137.122900903,
      "geocoding_level": 8,
      "phone": "0572-23-8110",
      "license_no": "59000841",
      "license_date": "2023-02-13",
      "expire_date": "2028-02-29"
    },
    {
      "name": "オムライス　エッグボード 多治見店",
      "name_kana": "",
      "business_type": "飲食店営業",
      "address": "岐阜県多治見市住吉町７丁目２９－６　　住吉ファインビルⅡ２０８号",
      "lat": 35.34754,
      "lng": 137.121189,
      "geocoding_level": 3,
      "phone": "0572-24-6587",
      "license_no": "59000842",
      "license_date": "2023-02-13",
      "expire_date": "2028-02-29"
    },
    {
      "name": "魚新",
      "name_kana": "",
      "business_type": "飲食店営業",
      "address": "岐阜県多治見市小田町３丁目１８",
      "lat": 35.33998,
      "lng": 137.129934,
      "geocoding_level": 3,
      "phone": "0572-22-0491",
      "license_no": "59000843",
      "license_date": "2023-02-13",
      "expire_date": "2028-02-29"
    },
    {
      "name": "だいこく家　多治見店",
      "name_kana": "",
      "business_type": "飲食店営業",
      "address": "岐阜県多治見市小田町４丁目２９－１",
      "lat": 35.340876,
      "lng": 137.130245,
      "geocoding_level": 3,
      "phone": "0572-24-4129",
      "license_no": "59000844",
      "license_date": "2023-02-13",
      "expire_date": "2028-02-29"
    },
    {
      "name": "手打ちうどん　竹の子",
      "name_kana": "",
      "business_type": "飲食店営業",
      "address": "岐阜県多治見市本町３丁目９２",
      "lat": 35.335096,
      "lng": 137.124843,
      "geocoding_level": 3,
      "phone": "0572-23-6679",
      "license_no": "59000845",
      "license_date": "2023-02-13",
      "expire_date": "2028-02-29"
    },
    {
      "name": "アドニス",
      "name_kana": "",
      "business_type": "飲食店営業",
      "address": "岐阜県多治見市本町３丁目９－２　ＡＢＣビル１Ｆ",
      "lat": 35.335096,
      "lng": 137.124843,
      "geocoding_level": 3,
      "phone": "0572-24-9003",
      "license_no": "59000846",
      "license_date": "2023-02-13",
      "expire_date": "2028-02-29"
    },
    {
      "name": "とり源太",
      "name_kana": "",
      "business_type": "飲食店営業",
      "address": "岐阜県多治見市本町２丁目４３－３",
      "lat": 35.334935,
      "lng": 137.122472,
      "geocoding_level": 3,
      "phone": "0572-26-8818",
      "license_no": "59000847",
      "license_date": "2023-02-13",
      "expire_date": "2028-02-29"
    },
    {
      "name": "スナックオープン",
      "name_kana": "",
      "business_type": "飲食店営業",
      "address": "岐阜県多治見市池田町１丁目３７",
      "lat": 35.332205,
      "lng": 137.110331,
      "geocoding_level": 3,
      "phone": "0572-24-2708",
      "license_no": "59000848",
      "license_date": "2023-02-13",
      "expire_date": "2028-02-29"
    },
    {
      "name": "風来坊　多治見店",
      "name_kana": "",
      "business_type": "飲食店営業",
      "address": "岐阜県多治見市池田町１０丁目６６－１",
      "lat": 35.333001,
      "lng": 137.099399,
      "geocoding_level": 3,
      "phone": "0572-23-8376",
      "license_no": "59000849",
      "license_date": "2023-02-13",
      "expire_date": "2028-02-29"
    },
    {
      "name": "澤中",
      "name_kana": "",
      "business_type": "飲食店営業",
      "address": "岐阜県多治見市音羽町３丁目１７",
      "lat": 35.333751,
      "lng": 137.116297,
      "geocoding_level": 3,
      "phone": "0572-23-3331",
      "license_no": "59000850",
      "license_date": "2023-02-13",
      "expire_date": "2028-02-29"
    },
    {
      "name": "ネオ",
      "name_kana": "",
      "business_type": "飲食店営業",
      "address": "岐阜県多治見市音羽町４丁目７７　　第２日栄ビル２Ｆ",
      "lat": 35.33624700000001,
      "lng": 137.115533,
      "geocoding_level": 3,
      "phone": "0572-24-4994",
      "license_no": "59000851",
      "license_date": "2023-02-13",
      "expire_date": "2028-02-29"
    },
    {
      "name": "寿がきや",
      "name_kana": "",
      "business_type": "飲食店営業",
      "address": "岐阜県多治見市音羽町５丁目５５　ＺＥＮＴ内",
      "lat": 35.338112,
      "lng": 137.115925,
      "geocoding_level": 3,
      "phone": "080-6993-9662",
      "license_no": "59000852",
      "license_date": "2023-02-13",
      "expire_date": "2028-02-29"
    },
    {
      "name": "ファミリーマート多治見音羽町店",
      "name_kana": "",
      "business_type": "飲食店営業",
      "address": "岐阜県多治見市音羽町５丁目６０ー１",
      "lat": 35.338112,
      "lng": 137.115925,
      "geocoding_level": 3,
      "phone": "0572-28-0811",
      "license_no": "59000853",
      "license_date": "2023-02-13",
      "expire_date": "2028-02-29"
    },
    {
      "name": "ホルモン焼肉酒場　フジ山",
      "name_kana": "",
      "business_type": "飲食店営業",
      "address": "岐阜県多治見市白山町１丁目６１",
      "lat": 35.33656,
      "lng": 137.122146,
      "geocoding_level": 3,
      "phone": "0572-26-8989",
      "license_no": "59000854",
      "license_date": "2023-02-13",
      "expire_date": "2028-02-29"
    },
    {
      "name": "マルサ水産多治見店",
      "name_kana": "",
      "business_type": "飲食店営業",
      "address": "岐阜県多治見市上野町３丁目５－１",
      "lat": 35.339725,
      "lng": 137.126405,
      "geocoding_level": 3,
      "phone": "0572-24-3336",
      "license_no": "59000855",
      "license_date": "2023-02-13",
      "expire_date": "2028-02-29"
    },
    {
      "name": "株式会社森のキッチン多治見営業所",
      "name_kana": "",
      "business_type": "飲食店営業",
      "address": "岐阜県多治見市上野町５丁目１　中部電力多治見ビル内",
      "lat": 35.342318177,
      "lng": 137.125936057,
      "geocoding_level": 8,
      "phone": "0572-53-2190",
      "license_no": "59000856",
      "license_date": "2023-02-13",
      "expire_date": "2028-02-29"
    },
    {
      "name": "灯屋",
      "name_kana": "",
      "business_type": "飲食店営業",
      "address": "岐阜県多治見市虎渓山町３丁目１００",
      "lat": 35.351703,
      "lng": 137.124333,
      "geocoding_level": 3,
      "phone": "0572-25-0515",
      "license_no": "59000857",
      "license_date": "2023-02-13",
      "expire_date": "2028-02-29"
    },