{
  "meta": {
    "updated": 1783906731,
    "sources": [
      {
        "source": "福島県食品営業許可施設一覧",
        "license": "CC BY 2.1 JP"
      },
      {
        "source": "厚生労働省 食品衛生申請等システム（オープンデータ）",
        "license": "公共データ利用規約（第1.0版, PDL1.0）"
      }
    ]
  },
  "data": [
    {
      "name": "白坂肉店",
      "name_kana": "",
      "business_type": "飲食店営業",
      "address": "東白川郡矢祭町大字東舘字石田１６",
      "lat": 36.871334,
      "lng": 140.424755,
      "geocoding_level": 2,
      "phone": "0247-46-2055",
      "license_no": "2-211",
      "license_date": null,
      "expire_date": null
    },
    {
      "name": "白坂肉店",
      "name_kana": "",
      "business_type": "食肉販売業",
      "address": "東白川郡矢祭町大字東舘字石田１６",
      "lat": 36.871334,
      "lng": 140.424755,
      "geocoding_level": 2,
      "phone": "0247-46-2055",
      "license_no": "2-163",
      "license_date": null,
      "expire_date": null
    },
    {
      "name": "山崎館",
      "name_kana": "",
      "business_type": "飲食店営業",
      "address": "東白川郡矢祭町大字戸塚字山崎１１９",
      "lat": 36.871334,
      "lng": 140.424755,
      "geocoding_level": 2,
      "phone": "0247-46-3568",
      "license_no": "2-212",
      "license_date": null,
      "expire_date": null
    },
    {
      "name": "矢澤酒造店",
      "name_kana": "",
      "business_type": "酒類製造業",
      "address": "東白川郡矢祭町大字戸塚字戸塚４１",
      "lat": 36.888097721,
      "lng": 140.420404649,
      "geocoding_level": 8,
      "phone": "0247-46-3101",
      "license_no": "2-113",
      "license_date": null,
      "expire_date": null
    },
    {
      "name": "藤美屋",
      "name_kana": "",
      "business_type": "飲食店営業",
      "address": "東白川郡矢祭町大字山下字下河原９－５",
      "lat": 36.852471432,
      "lng": 140.399051387,
      "geocoding_level": 8,
      "phone": "0247-46-2851",
      "license_no": "2-213",
      "license_date": null,
      "expire_date": null
    },
    {
      "name": "染屋",
      "name_kana": "",
      "business_type": "飲食店営業",
      "address": "東白川郡矢祭町大字関岡字町２２－１",
      "lat": 36.853119483,
      "lng": 140.40303054,
      "geocoding_level": 8,
      "phone": "0247-46-2187",
      "license_no": "2-150",
      "license_date": null,
      "expire_date": null
    },
    {
      "name": "魚宗",
      "name_kana": "",
      "business_type": "飲食店営業",
      "address": "東白川郡矢祭町大字東舘字桃木町３９",
      "lat": 36.871334,
      "lng": 140.424755,
      "geocoding_level": 2,
      "phone": "0247-46-2011",
      "license_no": "2-151",
      "license_date": null,
      "expire_date": null
    },
    {
      "name": "魚宗",
      "name_kana": "",
      "business_type": "魚介類販売業",
      "address": "東白川郡矢祭町大字東舘字桃木町３９",
      "lat": 36.871334,
      "lng": 140.424755,
      "geocoding_level": 2,
      "phone": "0247-46-2011",
      "license_no": "2-152",
      "license_date": null,
      "expire_date": null
    },
    {
      "name": "門屋",
      "name_kana": "",
      "business_type": "飲食店営業",
      "address": "東白川郡矢祭町大字戸塚字山崎９９",
      "lat": 36.871334,
      "lng": 140.424755,
      "geocoding_level": 2,
      "phone": "0247-46-3650",
      "license_no": "2-229",
      "license_date": null,
      "expire_date": null
    },
    {
      "name": "門屋",
      "name_kana": "",
      "business_type": "豆腐製造業",
      "address": "東白川郡矢祭町大字戸塚字山崎９９",
      "lat": 36.871334,
      "lng": 140.424755,
      "geocoding_level": 2,
      "phone": "0247-46-3650",
      "license_no": "2-230",
      "license_date": null,
      "expire_date": null
    },
    {
      "name": "リオン・ドールコーポレーション矢祭店",
      "name_kana": "",
      "business_type": "飲食店営業",
      "address": "東白川郡矢祭町大字東舘字牛小路１２－２",
      "lat": 36.877905395,
      "lng": 140.422487126,
      "geocoding_level": 8,
      "phone": "0247-46-4130",
      "license_no": "2-209",
      "license_date": null,
      "expire_date": null
    },
    {
      "name": "リオン・ドールコーポレーション矢祭店",
      "name_kana": "",
      "business_type": "魚介類販売業",
      "address": "東白川郡矢祭町大字東舘字牛小路１２－２",
      "lat": 36.877905395,
      "lng": 140.422487126,
      "geocoding_level": 8,
      "phone": "0247-46-4130",
      "license_no": "2-210",
      "license_date": null,
      "expire_date": null
    },
    {
      "name": "リオン・ドールコーポレーション矢祭店",
      "name_kana": "",
      "business_type": "食肉販売業",
      "address": "東白川郡矢祭町大字東舘字牛小路１２－２",
      "lat": 36.877905395,
      "lng": 140.422487126,
      "geocoding_level": 8,
      "phone": "0247-46-4130",
      "license_no": "2-212",
      "license_date": null,
      "expire_date": null
    },
    {
      "name": "矢祭山観光センター",
      "name_kana": "",
      "business_type": "飲食店営業",
      "address": "東白川郡矢祭町大字内川字矢祭１２１－２",
      "lat": 36.850500185,
      "lng": 140.395634,
      "geocoding_level": 8,
      "phone": "0247-46-3161",
      "license_no": "2-164",
      "license_date": null,
      "expire_date": null
    },
    {
      "name": "幸楽",
      "name_kana": "",
      "business_type": "飲食店営業",
      "address": "東白川郡矢祭町大字内川字宇津木２",
      "lat": 36.842422636,
      "lng": 140.38478913,
      "geocoding_level": 8,
      "phone": "0247-46-4087",
      "license_no": "2-231",
      "license_date": null,
      "expire_date": null
    },
    {
      "name": "アイリス",
      "name_kana": "",
      "business_type": "飲食店営業",
      "address": "東白川郡矢祭町大字小田川字小塚１９",
      "lat": 36.863456525,
      "lng": 140.422626052,
      "geocoding_level": 8,
      "phone": "0247-46-2515",
      "license_no": "2-165",
      "license_date": null,
      "expire_date": null
    },
    {
      "name": "那須屋旅舘",
      "name_kana": "",
      "business_type": "飲食店営業",
      "address": "東白川郡矢祭町大字東舘字舘本４６－１",
      "lat": 36.873076478,
      "lng": 140.42448287300002,
      "geocoding_level": 8,
      "phone": "0247-46-2010",
      "license_no": "2-166",
      "license_date": null,
      "expire_date": null
    },
    {
      "name": "みどり",
      "name_kana": "",
      "business_type": "飲食店営業",
      "address": "東白川郡矢祭町大字小田川字榎町２９－１",
      "lat": 36.862408574,
      "lng": 140.421425441,
      "geocoding_level": 8,
      "phone": "0247-46-2916",
      "license_no": "2-116",
      "license_date": null,
      "expire_date": null
    },
    {
      "name": "つるや",
      "name_kana": "",
      "business_type": "飲食店営業",
      "address": "東白川郡矢祭町大字内川字矢祭１２０－１４",
      "lat": 36.850695463,
      "lng": 140.395969826,
      "geocoding_level": 8,
      "phone": "0247-46-3081",
      "license_no": "2-232",
      "license_date": null,
      "expire_date": null
    },
    {
      "name": "ユーパル矢祭",
      "name_kana": "",
      "business_type": "飲食店営業",
      "address": "東白川郡矢祭町大字東舘字蔵屋敷１０８－１",
      "lat": 36.871334,
      "lng": 140.424755,
      "geocoding_level": 2,
      "phone": "0247-46-4300",
      "license_no": "2-215",
      "license_date": null,
      "expire_date": null
    },
    {
      "name": "ＳＭＣ第１号棟（ＮＡ－ＲＢ１２０９Ｂ）",
      "name_kana": "",
      "business_type": "調理の機能を有する自動販売機により食品を調理し、調理された食品を販売する営業",
      "address": "東白川郡矢祭町大字小田川字久保５５－２",
      "lat": 36.854690361,
      "lng": 140.428130008,
      "geocoding_level": 8,
      "phone": "0247-46-3000",
      "license_no": "2-161",
      "license_date": null,
      "expire_date": null
    },
    {
      "name": "ＳＭＣ第２号棟（ＦＲＢ２７２－ＢＶＮＡ）",
      "name_kana": "",
      "business_type": "調理の機能を有する自動販売機により食品を調理し、調理された食品を販売する営業",
      "address": "東白川郡矢祭町大字小田川字久保５５－２",
      "lat": 36.854690361,
      "lng": 140.428130008,
      "geocoding_level": 8,
      "phone": "0247-46-3000",
      "license_no": "2-162",
      "license_date": null,
      "expire_date": null
    },
    {
      "name": "ユーパル矢祭　温泉棟",
      "name_kana": "",
      "business_type": "飲食店営業",
      "address": "東白川郡矢祭町大字東舘字蔵屋敷１０８－１",
      "lat": 36.871334,
      "lng": 140.424755,
      "geocoding_level": 2,
      "phone": "0247-46-4300",
      "license_no": "2-117",
      "license_date": null,
      "expire_date": null
    },
    {
      "name": "矢祭町滝川渓谷農産物直売所　滝川の里",
      "name_kana": "",
      "business_type": "飲食店営業",
      "address": "東白川郡矢祭町大字上関河内字馬渡戸１－１",
      "lat": 36.823112649,
      "lng": 140.485833946,
      "geocoding_level": 8,
      "phone": "0247-47-2260",
      "license_no": "2-169",
      "license_date": null,
      "expire_date": null
    },
    {
      "name": "田中商店",
      "name_kana": "",
      "business_type": "そうざい製造業",
      "address": "東白川郡矢祭町大字東舘字並木８－２",
      "lat": 36.877176279,
      "lng": 140.42359204,
      "geocoding_level": 8,
      "phone": "0247-46-2216",
      "license_no": "2-171",
      "license_date": null,
      "expire_date": null
    },
    {
      "name": "珈琲香坊",
      "name_kana": "",
      "business_type": "飲食店営業",
      "address": "東白川郡矢祭町大字小田川字中山１７－１",
      "lat": 36.855241518,
      "lng": 140.430195642,
      "geocoding_level": 8,
      "phone": "0247-34-1131",
      "license_no": "2-235",
      "license_date": null,
      "expire_date": null
    },
    {
      "name": "珈琲香坊",
      "name_kana": "",
      "business_type": "菓子製造業",
      "address": "東白川郡矢祭町大字小田川字中山１７－１",
      "lat": 36.855241518,
      "lng": 140.430195642,
      "geocoding_level": 8,
      "phone": "0247-34-1131",
      "license_no": "2-236",
      "license_date": null,
      "expire_date": null
    },
    {
      "name": "貴ちゃん",
      "name_kana": "",
      "business_type": "菓子製造業",
      "address": "東白川郡矢祭町大字山下字福住１６６",
      "lat": 36.823975611,
      "lng": 140.430015308,
      "geocoding_level": 8,
      "phone": "0247-47-2548",
      "license_no": "2-238",
      "license_date": null,
      "expire_date": null
    },
    {
      "name": "貴ちゃん",
      "name_kana": "",
      "business_type": "そうざい製造業",
      "address": "東白川郡矢祭町大字山下字福住１６６",
      "lat": 36.823975611,
      "lng": 140.430015308,
      "geocoding_level": 8,
      "phone": "0247-47-2548",
      "license_no": "2-239",
      "license_date": null,
      "expire_date": null
    },
    {
      "name": "さくら屋",
      "name_kana": "",
      "business_type": "菓子製造業",
      "address": "東白川郡矢祭町大字高野字高野６７",
      "lat": 36.852120465,
      "lng": 140.412618338,
      "geocoding_level": 8,
      "phone": "0247-46-3867",
      "license_no": "2-240",
      "license_date": null,
      "expire_date": null
    },
    {
      "name": "さくら屋",
      "name_kana": "",
      "business_type": "麺類製造業",
      "address": "東白川郡矢祭町大字高野字高野６７",
      "lat": 36.852120465,
      "lng": 140.412618338,
      "geocoding_level": 8,
      "phone": "0247-46-3867",
      "license_no": "2-241",
      "license_date": null,
      "expire_date": null
    },
    {
      "name": "さくら屋",
      "name_kana": "",
      "business_type": "そうざい製造業",
      "address": "東白川郡矢祭町大字高野字高野６７",
      "lat": 36.852120465,
      "lng": 140.412618338,
      "geocoding_level": 8,
      "phone": "0247-46-3867",
      "license_no": "2-242",
      "license_date": null,
      "expire_date": null
    },
    {
      "name": "とも屋",
      "name_kana": "",
      "business_type": "菓子製造業",
      "address": "東白川郡矢祭町大字東舘字山野井７３４",
      "lat": 36.871334,
      "lng": 140.424755,
      "geocoding_level": 2,
      "phone": "0247-46-2380",
      "license_no": "2-243",
      "license_date": null,
      "expire_date": null
    },
    {
      "name": "とも屋",
      "name_kana": "",
      "business_type": "麺類製造業",
      "address": "東白川郡矢祭町大字東舘字山野井７３４",
      "lat": 36.871334,
      "lng": 140.424755,
      "geocoding_level": 2,
      "phone": "0247-46-2380",
      "license_no": "2-244",
      "license_date": null,
      "expire_date": null
    },
    {
      "name": "とも屋",
      "name_kana": "",
      "business_type": "漬物製造業",
      "address": "東白川郡矢祭町大字東舘字山野井７３４",
      "lat": 36.871334,
      "lng": 140.424755,
      "geocoding_level": 2,
      "phone": "0247-46-2380",
      "license_no": "1-29",
      "license_date": null,
      "expire_date": null
    },
    {
      "name": "工房　あらかると",
      "name_kana": "",
      "business_type": "菓子製造業",
      "address": "東白川郡矢祭町大字下関河内字田中前５６",
      "lat": 36.838635374,
      "lng": 140.446088607,
      "geocoding_level": 8,
      "phone": "0247-47-2223",
      "license_no": "2-245",
      "license_date": null,
      "expire_date": null
    },
    {
      "name": "工房　あらかると",
      "name_kana": "",
      "business_type": "麺類製造業",
      "address": "東白川郡矢祭町大字下関河内字田中前５６",
      "lat": 36.838635374,
      "lng": 140.446088607,
      "geocoding_level": 8,
      "phone": "0247-47-2223",
      "license_no": "2-246",
      "license_date": null,
      "expire_date": null
    },
    {
      "name": "工房　あらかると",
      "name_kana": "",
      "business_type": "そうざい製造業",
      "address": "東白川郡矢祭町大字下関河内字田中前５６",
      "lat": 36.838635374,
      "lng": 140.446088607,
      "geocoding_level": 8,
      "phone": "0247-47-2223",
      "license_no": "2-247",
      "license_date": null,
      "expire_date": null
    },
    {
      "name": "ＳＭＣ（株）矢祭工場　第３工場外",
      "name_kana": "",
      "business_type": "調理の機能を有する自動販売機により食品を調理し、調理された食品を販売する営業",
      "address": "東白川郡矢祭町大字小田川字久保５５－２",
      "lat": 36.854690361,
      "lng": 140.428130008,
      "geocoding_level": 8,
      "phone": "0247-46-3000",
      "license_no": "2-161",
      "license_date": null,
      "expire_date": null
    },
    {
      "name": "ユズシャーベット加工場",
      "name_kana": "",
      "business_type": "アイスクリーム類製造業",
      "address": "東白川郡矢祭町大字東舘字蔵屋敷１０４－１",
      "lat": 36.871334,
      "lng": 140.424755,
      "geocoding_level": 2,
      "phone": "0247-46-2942",
      "license_no": "2-153",
      "license_date": null,
      "expire_date": null
    },
    {
      "name": "金澤糀屋",
      "name_kana": "",
      "business_type": "みそ又はしょうゆ製造業",
      "address": "東白川郡矢祭町大字下関河内字上古宿４２",
      "lat": 36.838920498,
      "lng": 140.44441312,
      "geocoding_level": 8,
      "phone": "0247-47-2637",
      "license_no": "2-119",
      "license_date": null,
      "expire_date": null
    },
    {
      "name": "金澤糀屋",
      "name_kana": "",
      "business_type": "漬物製造業",
      "address": "東白川郡矢祭町大字下関河内字上古宿４２",
      "lat": 36.838920498,
      "lng": 140.44441312,
      "geocoding_level": 8,
      "phone": "0247-47-2637",
      "license_no": "1-37",
      "license_date": null,
      "expire_date": null
    },
    {
      "name": "きりしま屋",
      "name_kana": "",
      "business_type": "菓子製造業",
      "address": "東白川郡矢祭町大字下関河内字トキノス１６番地",
      "lat": 36.837957157,
      "lng": 140.433953477,
      "geocoding_level": 8,
      "phone": "0247-47-2738",
      "license_no": "2-174",
      "license_date": null,
      "expire_date": null
    },
    {
      "name": "きりしま屋",
      "name_kana": "",
      "business_type": "そうざい製造業",
      "address": "東白川郡矢祭町大字下関河内字トキノス１６番地",
      "lat": 36.837957157,
      "lng": 140.433953477,
      "geocoding_level": 8,
      "phone": "0247-47-2738",
      "license_no": "2-175",
      "license_date": null,
      "expire_date": null
    },
    {
      "name": "大笑",
      "name_kana": "",
      "business_type": "飲食店営業",
      "address": "東白川郡矢祭町大字関岡字滝ノ沢４４－１",
      "lat": 36.869757093,
      "lng": 140.415764386,
      "geocoding_level": 8,
      "phone": "0247-46-2852",
      "license_no": "2-249",
      "license_date": null,
      "expire_date": null
    },
    {
      "name": "藤井ハイム矢祭",
      "name_kana": "",
      "business_type": "飲食店営業",
      "address": "東白川郡矢祭町大字東舘字柳町５２番地",
      "lat": 36.871334,
      "lng": 140.424755,
      "geocoding_level": 2,
      "phone": "0247-46-3215",
      "license_no": "2-154",
      "license_date": null,
      "expire_date": null
    },
    {
      "name": "どさん子大将矢祭店",
      "name_kana": "",
      "business_type": "飲食店営業",
      "address": "東白川郡矢祭町大字中石井字早房１５６",
      "lat": 36.871334,
      "lng": 140.424755,
      "geocoding_level": 2,
      "phone": "0247-46-3900",
      "license_no": "2-216",
      "license_date": null,
      "expire_date": null
    },
    {
      "name": "丸安鮮魚店",
      "name_kana": "",
      "business_type": "魚介類販売業",
      "address": "東白川郡矢祭町大字東舘字桃木町３３",
      "lat": 36.871334,
      "lng": 140.424755,
      "geocoding_level": 2,
      "phone": "0247-46-2016",
      "license_no": "1-81",
      "license_date": null,
      "expire_date": null
    },
    {
      "name": "さかな家",
      "name_kana": "",
      "business_type": "飲食店営業",
      "address": "東白川郡矢祭町大字東舘字桃木町３３－７",
      "lat": 36.871795998,
      "lng": 140.42391888,
      "geocoding_level": 8,
      "phone": "0247-46-3802",
      "license_no": "2-155",
      "license_date": null,
      "expire_date": null
    },
    {
      "name": "丸越製菓",
      "name_kana": "",
      "business_type": "菓子製造業",
      "address": "東白川郡矢祭町大字東舘字柳下９",
      "lat": 36.871334,
      "lng": 140.424755,
      "geocoding_level": 2,
      "phone": "0247-46-2217",
      "license_no": "2-121",
      "license_date": null,
      "expire_date": null
    },
    {
      "name": "ひまわり工房",
      "name_kana": "",
      "business_type": "菓子製造業",
      "address": "東白川郡矢祭町大字東舘字上野内５１",
      "lat": 36.869569918,
      "lng": 140.428620362,
      "geocoding_level": 8,
      "phone": "0247-46-2650",
      "license_no": "2-220",
      "license_date": null,
      "expire_date": null
    },
    {
      "name": "ひまわり工房",
      "name_kana": "",
      "business_type": "そうざい製造業",
      "address": "東白川郡矢祭町大字東舘字上野内５１",
      "lat": 36.869569918,
      "lng": 140.428620362,
      "geocoding_level": 8,
      "phone": "0247-46-2650",
      "license_no": "1-124",
      "license_date": null,
      "expire_date": null
    },
    {
      "name": "株式会社山のごちそう本舗",
      "name_kana": "",
      "business_type": "かん詰又はびん詰食品製造業",
      "address": "東白川郡矢祭町大字茗荷字歯朶平６７－１",
      "lat": 36.887380496,
      "lng": 140.38200077,
      "geocoding_level": 8,
      "phone": "0247-46-3872",
      "license_no": "2-224",
      "license_date": null,
      "expire_date": null
    },
    {
      "name": "株式会社山のごちそう本舗",
      "name_kana": "",
      "business_type": "そうざい製造業",
      "address": "東白川郡矢祭町大字茗荷字歯朶平６７－１",
      "lat": 36.887380496,
      "lng": 140.38200077,
      "geocoding_level": 8,
      "phone": "0247-46-3872",
      "license_no": "1-45",
      "license_date": null,
      "expire_date": null
    },
    {
      "name": "丸イ食品株式会社福島第二工場",
      "name_kana": "",
      "business_type": "菓子製造業",
      "address": "東白川郡矢祭町大字中石井字岡下２９４－１",
      "lat": 36.90797945,
      "lng": 140.414413344,
      "geocoding_level": 8,
      "phone": "0247-46-2412",
      "license_no": "2-225",
      "license_date": null,
      "expire_date": null
    },
    {
      "name": "丸イ食品株式会社福島第二工場",
      "name_kana": "",
      "business_type": "そうざい製造業",
      "address": "東白川郡矢祭町大字中石井字岡下２９４－１",
      "lat": 36.90797945,
      "lng": 140.414413344,
      "geocoding_level": 8,
      "phone": "0247-46-2412",
      "license_no": "2-177",
      "license_date": null,
      "expire_date": null
    },
    {
      "name": "有限会社でんぱた",
      "name_kana": "",
      "business_type": "密封包装食品製造業",
      "address": "東白川郡矢祭町大字東舘字蔵屋敷１２－１",
      "lat": 36.871334,
      "lng": 140.424755,
      "geocoding_level": 2,
      "phone": "0247-46-2571",
      "license_no": "2-217",
      "license_date": null,
      "expire_date": null
    },
    {
      "name": "ダイニングバー１４１",
      "name_kana": "",
      "business_type": "飲食店営業",
      "address": "東白川郡矢祭町大字小田川字大高１－１",
      "lat": 36.86380266700001,
      "lng": 140.424799072,
      "geocoding_level": 8,
      "phone": "0247-57-6533",
      "license_no": "2-178",
      "license_date": null,
      "expire_date": null
    },
    {
      "name": "柳屋精肉店",
      "name_kana": "",
      "business_type": "飲食店営業",
      "address": "東白川郡矢祭町大字東舘字舘本４７",
      "lat": 36.871334,
      "lng": 140.424755,
      "geocoding_level": 2,
      "phone": "0247-46-2062",
      "license_no": "2-179",
      "license_date": null,
      "expire_date": null
    },
    {
      "name": "柳屋精肉店",
      "name_kana": "",
      "business_type": "食肉販売業",
      "address": "東白川郡矢祭町大字東舘字舘本４７",
      "lat": 36.871334,
      "lng": 140.424755,
      "geocoding_level": 2,
      "phone": "0247-46-2062",
      "license_no": "2-180",
      "license_date": null,
      "expire_date": null
    },
    {
      "name": "和ダイニング　つどい",
      "name_kana": "",
      "business_type": "飲食店営業",
      "address": "東白川郡矢祭町大字小田川字春田３８の１",
      "lat": 36.863836694,
      "lng": 140.423765914,
      "geocoding_level": 8,
      "phone": "0247-46-2203",
      "license_no": "2-253",
      "license_date": null,
      "expire_date": null
    },
    {
      "name": "さがわ食堂",
      "name_kana": "",
      "business_type": "飲食店営業",
      "address": "東白川郡矢祭町大字東舘字舘本４０",
      "lat": 36.873807739,
      "lng": 140.42441059,
      "geocoding_level": 8,
      "phone": "0247-46-2178",
      "license_no": "2-254",
      "license_date": null,
      "expire_date": null
    },
    {
      "name": "藤田屋",
      "name_kana": "",
      "business_type": "そうざい製造業",
      "address": "東白川郡矢祭町大字茗荷字歯朶平９６",
      "lat": 36.887514677,
      "lng": 140.380776875,
      "geocoding_level": 8,
      "phone": "0247-57-5586",
      "license_no": "1-75",
      "license_date": null,
      "expire_date": null
    },
    {
      "name": "藤田屋",
      "name_kana": "",
      "business_type": "菓子製造業",
      "address": "東白川郡矢祭町大字茗荷字歯朶平９６",
      "lat": 36.887514677,
      "lng": 140.380776875,
      "geocoding_level": 8,
      "phone": "0247-57-5586",
      "license_no": "2-218",
      "license_date": null,
      "expire_date": null
    },
    {
      "name": "藤田屋",
      "name_kana": "",
      "business_type": "漬物製造業",
      "address": "東白川郡矢祭町大字茗荷字歯朶平９６",
      "lat": 36.887514677,
      "lng": 140.380776875,
      "geocoding_level": 8,
      "phone": "0247-57-5586",
      "license_no": "1-18",
      "license_date": null,
      "expire_date": null
    },
    {
      "name": "藤田屋",
      "name_kana": "",
      "business_type": "食品の小分け業",
      "address": "東白川郡矢祭町大字茗荷字歯朶平９６",
      "lat": 36.887514677,
      "lng": 140.380776875,
      "geocoding_level": 8,
      "phone": "0247-57-5586",
      "license_no": "1-126",
      "license_date": null,
      "expire_date": null
    },
    {
      "name": "珈琲　こいずみや",
      "name_kana": "",
      "business_type": "飲食店営業",
      "address": "東白川郡矢祭町大字戸塚字山崎５",
      "lat": 36.890381011,
      "lng": 140.420040573,
      "geocoding_level": 8,
      "phone": "",
      "license_no": "2-122",
      "license_date": null,
      "expire_date": null
    },
    {
      "name": "花子",
      "name_kana": "",
      "business_type": "飲食店営業",
      "address": "東白川郡矢祭町大字関岡字下小坂５６",
      "lat": 36.871334,
      "lng": 140.424755,
      "geocoding_level": 2,
      "phone": "",
      "license_no": "2-156",
      "license_date": null,
      "expire_date": null
    },
    {
      "name": "株式会社　さく丸",
      "name_kana": "",
      "business_type": "飲食店営業",
      "address": "東白川郡矢祭町大字高野字高野６９",
      "lat": 36.85213576300001,
      "lng": 140.413002432,
      "geocoding_level": 8,
      "phone": "0247-46-2477",
      "license_no": "2-158",
      "license_date": null,
      "expire_date": null
    },
    {
      "name": "株式会社　さく丸",
      "name_kana": "",
      "business_type": "菓子製造業",
      "address": "東白川郡矢祭町大字高野字高野６９",
      "lat": 36.85213576300001,
      "lng": 140.413002432,
      "geocoding_level": 8,
      "phone": "0247-46-2477",
      "license_no": "2-157",
      "license_date": null,
      "expire_date": null
    },
    {
      "name": "あつまり処　あおちゃん家",
      "name_kana": "",
      "business_type": "飲食店営業",
      "address": "東白川郡矢祭町大字東舘字石田２３",
      "lat": 36.871334,
      "lng": 140.424755,
      "geocoding_level": 2,
      "phone": "0247-57-7975",
      "license_no": "2-159",
      "license_date": null,
      "expire_date": null
    },
    {
      "name": "メフォス５２０２３号店",
      "name_kana": "",
      "business_type": "飲食店営業",
      "address": "東白川郡矢祭町大字東舘字柳町８",
      "lat": 36.871334,
      "lng": 140.424755,
      "geocoding_level": 2,
      "phone": "0247-57-6500",
      "license_no": "1-30",
      "license_date": null,
      "expire_date": null
    },
    {
      "name": "ファミリーマート　タカシン矢祭店",
      "name_kana": "",
      "business_type": "飲食店営業",
      "address": "東白川郡矢祭町大字東舘字田川１",
      "lat": 36.871334,
      "lng": 140.424755,
      "geocoding_level": 2,
      "phone": "0247-34-1110",
      "license_no": "1-124",
      "license_date": null,
      "expire_date": null
    },
    {
      "name": "いちごや",
      "name_kana": "",
      "business_type": "飲食店営業",
      "address": "東白川郡矢祭町大字東舘字石田１４",
      "lat": 36.869659695,
      "lng": 140.424668183,
      "geocoding_level": 8,
      "phone": "0247-46-3501",
      "license_no": "1-41",
      "license_date": null,
      "expire_date": null
    },
    {
      "name": "いちごや",
      "name_kana": "",
      "business_type": "菓子製造業",
      "address": "東白川郡矢祭町大字東舘字石田１４",
      "lat": 36.869659695,
      "lng": 140.424668183,
      "geocoding_level": 8,
      "phone": "0247-46-3501",
      "license_no": "1-126",
      "license_date": null,
      "expire_date": null
    },
    {
      "name": "セブンイレブン矢祭中石井店",
      "name_kana": "",
      "business_type": "飲食店営業",
      "address": "東白川郡矢祭町大字中石井字岡下１４９－１",
      "lat": 36.909080339,
      "lng": 140.417285571,
      "geocoding_level": 8,
      "phone": "0247-46-2928",
      "license_no": "1-135",
      "license_date": null,
      "expire_date": null
    },
    {
      "name": "らーめん蓮の里",
      "name_kana": "",
      "business_type": "飲食店営業",
      "address": "東白川郡矢祭町大字小田川字春田１２－３",
      "lat": 36.864723768,
      "lng": 140.424307193,
      "geocoding_level": 8,
      "phone": "0247-57-9838",
      "license_no": "1-145",
      "license_date": null,
      "expire_date": null
    },
    {
      "name": "メフォス５２４５８号店",
      "name_kana": "",
      "business_type": "飲食店営業",
      "address": "東白川郡矢祭町大字東舘字蔵屋敷１２２",
      "lat": 36.871334,
      "lng": 140.424755,
      "geocoding_level": 2,
      "phone": "0247-46-3385",
      "license_no": "1-151",
      "license_date": null,
      "expire_date": null
    },
    {
      "name": "メフォス５２４５９号店",
      "name_kana": "",
      "business_type": "飲食店営業",
      "address": "東白川郡矢祭町大字中石井字御殿川原１１－１",
      "lat": 36.9066601,
      "lng": 140.415683652,
      "geocoding_level": 8,
      "phone": "0247-46-2233",
      "license_no": "1-152",
      "license_date": null,
      "expire_date": null
    },
    {
      "name": "株式会社矢澤酒造店",
      "name_kana": "",
      "business_type": "飲食店営業",
      "address": "東白川郡矢祭町大字戸塚字戸塚４１",
      "lat": 36.888097721,
      "lng": 140.420404649,
      "geocoding_level": 8,
      "phone": "0247-46-3101",
      "license_no": "1-118",
      "license_date": null,
      "expire_date": null
    },
    {
      "name": "ＣＲＯＷＮ",
      "name_kana": "",
      "business_type": "飲食店営業",
      "address": "東白川郡矢祭町大字小田川字春田８－７",
      "lat": 36.864157548,
      "lng": 140.424576251,
      "geocoding_level": 8,
      "phone": "",
      "license_no": "1-111",
      "license_date": null,
      "expire_date": null
    },
    {
      "name": "ベーカリー",
      "name_kana": "",
      "business_type": "菓子製造業",
      "address": "東白川郡矢祭町大字下関河内字追分９６",
      "lat": 36.84093627,
      "lng": 140.497503947,
      "geocoding_level": 8,
      "phone": "",
      "license_no": "1-155",
      "license_date": null,
      "expire_date": null
    },
    {
      "name": "ベーカリー",
      "name_kana": "",
      "business_type": "麺類製造業",
      "address": "東白川郡矢祭町大字下関河内字追分９６",
      "lat": 36.84093627,
      "lng": 140.497503947,
      "geocoding_level": 8,
      "phone": "",
      "license_no": "1-156",
      "license_date": null,
      "expire_date": null
    },
    {
      "name": "白河ラーメン　蘭",
      "name_kana": "",
      "business_type": "飲食店営業",
      "address": "東白川郡矢祭町大字小田川字中山２７－６６",
      "lat": 36.853672084,
      "lng": 140.433548479,
      "geocoding_level": 8,
      "phone": "",
      "license_no": "1-26",
      "license_date": null,
      "expire_date": null
    },
    {
      "name": "布川漬物店",
      "name_kana": "",
      "business_type": "漬物製造業",
      "address": "東白川郡矢祭町大字東舘字柳下９",
      "lat": 36.871334,
      "lng": 140.424755,
      "geocoding_level": 2,
      "phone": "0247-46-2217",
      "license_no": "1-40",
      "license_date": null,
      "expire_date": null
    },
    {
      "name": "Ｐｏｏｈ",
      "name_kana": "",
      "business_type": "菓子製造業",
      "address": "東白川郡矢祭町大字関岡字鳶ケ沢１６２　コンドルハイツ１０３",
      "lat": 36.871334,
      "lng": 140.424755,
      "geocoding_level": 2,
      "phone": "",
      "license_no": "1-93",
      "license_date": null,
      "expire_date": null
    },
    {
      "name": "Ｐｏｏｈ",
      "name_kana": "",
      "business_type": "そうざい製造業",
      "address": "東白川郡矢祭町大字関岡字鳶ケ沢１６２　コンドルハイツ１０３",
      "lat": 36.871334,
      "lng": 140.424755,
      "geocoding_level": 2,
      "phone": "",
      "license_no": "1-94",
      "license_date": null,
      "expire_date": null
    },
    {
      "name": "やたて",
      "name_kana": "",
      "business_type": "飲食店営業",
      "address": "東白川郡矢祭町大字内川字矢祭１７９－４",
      "lat": 36.851967198,
      "lng": 140.397616514,
      "geocoding_level": 8,
      "phone": "0247-46-3551",
      "license_no": "1-35",
      "license_date": null,
      "expire_date": null
    },
    {
      "name": "セレモニア富士矢祭館",
      "name_kana": "セレモニアフジヤマツリカン",
      "business_type": "⑬ その他の食料・飲料販売業",
      "address": "福島県東白川郡矢祭町下石井城主内12",
      "lat": 36.905458,
      "lng": 140.418685,
      "geocoding_level": null,
      "phone": "",
      "license_no": "",
      "license_date": null,
      "expire_date": null
    },
    {
      "name": "ツルハドラッグ矢祭店",
      "name_kana": "ツルハドラッグヤマツリテン",
      "business_type": "⑬ その他の食料・飲料販売業",
      "address": "福島県東白川郡矢祭町小田川字恩岩36番地１",
      "lat": 36.866392,
      "lng": 140.425767,
      "geocoding_level": null,
      "phone": "0247-57-5900",
      "license_no": "",
      "license_date": null,
      "expire_date": null
    },
    {
      "name": "コメリハードアンドグリーン矢祭店",
      "name_kana": "コメリハードアンドグリーンヤマツリテン",
      "business_type": "⑧ 米穀類販売業",
      "address": "福島県東白川郡矢祭町大字東舘字牛小路２３－１",
      "lat": 36.878764,
      "lng": 140.421561,
      "geocoding_level": null,
      "phone": "0247-34-1720",
      "license_no": "",
      "license_date": null,
      "expire_date": null
    }
  ]
}
