{
  "meta": {
    "updated": 1783906731,
    "sources": [
      {
        "source": "長野県食品営業許可施設",
        "license": "要確認"
      },
      {
        "source": "厚生労働省 食品衛生申請等システム（オープンデータ）",
        "license": "公共データ利用規約（第1.0版, PDL1.0）"
      }
    ]
  },
  "data": [
    {
      "name": "ほっこり昼神",
      "name_kana": "",
      "business_type": "かん詰またはびん詰食品製造業",
      "address": "下伊那郡阿智村駒場１８３７－１",
      "lat": 35.445384,
      "lng": 137.738273,
      "geocoding_level": 3,
      "phone": "",
      "license_no": "第07234454号",
      "license_date": "2019-08-21",
      "expire_date": "2026-07-31"
    },
    {
      "name": "料理山花　四季　かわのべ",
      "name_kana": "",
      "business_type": "飲食店営業",
      "address": "下伊那郡阿智村駒場１５９１",
      "lat": 35.445384,
      "lng": 137.738273,
      "geocoding_level": 3,
      "phone": "",
      "license_no": "第07235524号",
      "license_date": "2020-01-29",
      "expire_date": "2026-07-31"
    },
    {
      "name": "料理山花　四季　かわのべ",
      "name_kana": "",
      "business_type": "食肉処理業",
      "address": "下伊那郡阿智村駒場１５９１",
      "lat": 35.445384,
      "lng": 137.738273,
      "geocoding_level": 3,
      "phone": "",
      "license_no": "第07235531号",
      "license_date": "2020-01-29",
      "expire_date": "2026-07-31"
    },
    {
      "name": "料理山花　四季　かわのべ",
      "name_kana": "",
      "business_type": "食肉販売業",
      "address": "下伊那郡阿智村駒場１５９１",
      "lat": 35.445384,
      "lng": 137.738273,
      "geocoding_level": 3,
      "phone": "",
      "license_no": "第07235549号",
      "license_date": "2020-01-29",
      "expire_date": "2026-07-31"
    },
    {
      "name": "ひるがみの森（レストラン　木の実）",
      "name_kana": "",
      "business_type": "飲食店営業",
      "address": "下伊那郡阿智村智里５６７－１０",
      "lat": 35.454032848,
      "lng": 137.713760988,
      "geocoding_level": 8,
      "phone": "",
      "license_no": "第07235702号",
      "license_date": "2020-02-19",
      "expire_date": "2026-07-31"
    },
    {
      "name": "耕紡工房",
      "name_kana": "",
      "business_type": "菓子製造業",
      "address": "下伊那郡阿智村清内路３１２３－２６",
      "lat": 35.521819973,
      "lng": 137.662398233,
      "geocoding_level": 8,
      "phone": "",
      "license_no": "第07237094号",
      "license_date": "2020-07-22",
      "expire_date": "2026-07-31"
    },
    {
      "name": "里山ＣＡＭＰＵＳ",
      "name_kana": "",
      "business_type": "飲食店営業",
      "address": "下伊那郡阿智村清内路３１２３－２６",
      "lat": 35.521819973,
      "lng": 137.662398233,
      "geocoding_level": 8,
      "phone": "",
      "license_no": "第07237105号",
      "license_date": "2020-07-22",
      "expire_date": "2026-07-31"
    },
    {
      "name": "長田屋商店",
      "name_kana": "",
      "business_type": "魚介類販売業",
      "address": "下伊那郡阿智村清内路２４６０―３",
      "lat": 35.508155102,
      "lng": 137.677594144,
      "geocoding_level": 8,
      "phone": "",
      "license_no": "第07005621号",
      "license_date": "2020-07-31",
      "expire_date": "2026-07-31"
    },
    {
      "name": "おおまえ食品センター",
      "name_kana": "",
      "business_type": "飲食店営業",
      "address": "下伊那郡阿智村駒場４９２－１０",
      "lat": 35.445384,
      "lng": 137.738273,
      "geocoding_level": 3,
      "phone": "",
      "license_no": "第07041221号",
      "license_date": "2020-07-31",
      "expire_date": "2026-07-31"
    },
    {
      "name": "おおまえ食品センター",
      "name_kana": "",
      "business_type": "魚介類販売業",
      "address": "下伊那郡阿智村駒場４９２－１０",
      "lat": 35.445384,
      "lng": 137.738273,
      "geocoding_level": 3,
      "phone": "",
      "license_no": "第07045839号",
      "license_date": "2020-07-31",
      "expire_date": "2026-07-31"
    },
    {
      "name": "十字屋コーヒーハウス昼神店",
      "name_kana": "",
      "business_type": "飲食店営業",
      "address": "下伊那郡阿智村智里５０３―１８９",
      "lat": 35.463035755,
      "lng": 137.708645365,
      "geocoding_level": 8,
      "phone": "",
      "license_no": "第07041328号",
      "license_date": "2020-07-31",
      "expire_date": "2026-07-31"
    },
    {
      "name": "やまびこ",
      "name_kana": "",
      "business_type": "飲食店営業",
      "address": "下伊那郡阿智村駒場４３１―１",
      "lat": 35.445384,
      "lng": 137.738273,
      "geocoding_level": 3,
      "phone": "",
      "license_no": "第07107291号",
      "license_date": "2020-07-31",
      "expire_date": "2026-07-31"
    },
    {
      "name": "日長庵　桂月",
      "name_kana": "",
      "business_type": "飲食店営業",
      "address": "下伊那郡阿智村智里４２５",
      "lat": 35.445375,
      "lng": 137.659654,
      "geocoding_level": 3,
      "phone": "",
      "license_no": "第07117612号",
      "license_date": "2020-07-31",
      "expire_date": "2026-07-31"
    },
    {
      "name": "さんのう",
      "name_kana": "",
      "business_type": "飲食店営業",
      "address": "下伊那郡阿智村智里２７６―６",
      "lat": 35.454925822,
      "lng": 137.717338791,
      "geocoding_level": 8,
      "phone": "",
      "license_no": "第07119831号",
      "license_date": "2020-07-31",
      "expire_date": "2026-07-31"
    },
    {
      "name": "湯多利の里　伊那華",
      "name_kana": "",
      "business_type": "飲食店営業",
      "address": "下伊那郡阿智村智里５０３－２９４",
      "lat": 35.455019167,
      "lng": 137.712980635,
      "geocoding_level": 8,
      "phone": "",
      "license_no": "第07175156号",
      "license_date": "2020-07-31",
      "expire_date": "2026-07-31"
    },
    {
      "name": "ホテル吉弥",
      "name_kana": "",
      "business_type": "飲食店営業",
      "address": "下伊那郡阿智村智里５０３―２",
      "lat": 35.454768973,
      "lng": 137.712559969,
      "geocoding_level": 8,
      "phone": "",
      "license_no": "第07131851号",
      "license_date": "2020-07-31",
      "expire_date": "2026-07-31"
    },
    {
      "name": "クラブ　姫",
      "name_kana": "",
      "business_type": "飲食店営業",
      "address": "下伊那郡阿智村智里５０３―２",
      "lat": 35.454768973,
      "lng": 137.712559969,
      "geocoding_level": 8,
      "phone": "",
      "license_no": "第07131868号",
      "license_date": "2020-07-31",
      "expire_date": "2026-07-31"
    },
    {
      "name": "辻乃園",
      "name_kana": "",
      "business_type": "飲食店営業",
      "address": "下伊那郡阿智村伍和３０６－３",
      "lat": 35.436449756,
      "lng": 137.746785903,
      "geocoding_level": 8,
      "phone": "",
      "license_no": "第07146069号",
      "license_date": "2020-07-31",
      "expire_date": "2026-07-31"
    },
    {
      "name": "不動温泉　花菱",
      "name_kana": "",
      "business_type": "飲食店営業",
      "address": "下伊那郡阿智村浪合２５４－１",
      "lat": 35.390114967,
      "lng": 137.682053599,
      "geocoding_level": 8,
      "phone": "",
      "license_no": "第07158395号",
      "license_date": "2020-07-31",
      "expire_date": "2026-07-31"
    },
    {
      "name": "（有）かとう",
      "name_kana": "",
      "business_type": "食肉販売業",
      "address": "下伊那郡阿智村智里３５８－１",
      "lat": 35.456007527,
      "lng": 137.716698735,
      "geocoding_level": 8,
      "phone": "",
      "license_no": "第07176265号",
      "license_date": "2020-07-31",
      "expire_date": "2026-07-31"
    },
    {
      "name": "小松加工所",
      "name_kana": "",
      "business_type": "そうざい製造業",
      "address": "下伊那郡阿智村智里７６２－４",
      "lat": 35.447395657,
      "lng": 137.71836344,
      "geocoding_level": 8,
      "phone": "",
      "license_no": "第07195989号",
      "license_date": "2020-07-31",
      "expire_date": "2026-07-31"
    },
    {
      "name": "玉のゆ",
      "name_kana": "",
      "business_type": "飲食店営業",
      "address": "下伊那郡阿智村智里３９５",
      "lat": 35.445375,
      "lng": 137.659654,
      "geocoding_level": 3,
      "phone": "",
      "license_no": "第07197327号",
      "license_date": "2020-07-31",
      "expire_date": "2026-07-31"
    },
    {
      "name": "キッチン　ストーブ",
      "name_kana": "",
      "business_type": "飲食店営業",
      "address": "下伊那郡阿智村浪合１１９２",
      "lat": 35.384101,
      "lng": 137.683604,
      "geocoding_level": 3,
      "phone": "",
      "license_no": "第07198564号",
      "license_date": "2020-07-31",
      "expire_date": "2026-07-31"
    },
    {
      "name": "ＫＯＡ株式会社　七久里の杜　食堂",
      "name_kana": "",
      "business_type": "飲食店営業",
      "address": "下伊那郡阿智村春日１０８８－１",
      "lat": 35.454668,
      "lng": 137.750308,
      "geocoding_level": 3,
      "phone": "",
      "license_no": "第07218433号",
      "license_date": "2020-07-31",
      "expire_date": "2026-07-31"
    },
    {
      "name": "澤．．．ｓａｗａ．．．．",
      "name_kana": "",
      "business_type": "飲食店営業",
      "address": "下伊那郡阿智村智里５１０－２８",
      "lat": 35.453616191,
      "lng": 137.71421394,
      "geocoding_level": 8,
      "phone": "",
      "license_no": "第07238303号",
      "license_date": "2021-01-27",
      "expire_date": "2027-07-31"
    },
    {
      "name": "（有）ホテル恵山",
      "name_kana": "",
      "business_type": "飲食店営業",
      "address": "下伊那郡阿智村智里４０７",
      "lat": 35.457119094,
      "lng": 137.713907573,
      "geocoding_level": 8,
      "phone": "",
      "license_no": "第07144919号",
      "license_date": "2020-07-31",
      "expire_date": "2026-07-31"
    },
    {
      "name": "（有）ホテル恵山",
      "name_kana": "",
      "business_type": "飲食店営業",
      "address": "下伊那郡阿智村智里４０７",
      "lat": 35.457119094,
      "lng": 137.713907573,
      "geocoding_level": 8,
      "phone": "",
      "license_no": "第07144926号",
      "license_date": "2020-07-31",
      "expire_date": "2026-07-31"
    },
    {
      "name": "ＣＡＦＥ　ＣＯＣＯ",
      "name_kana": "",
      "business_type": "飲食店営業",
      "address": "下伊那郡阿智村駒場９５２－５",
      "lat": 35.445384,
      "lng": 137.738273,
      "geocoding_level": 3,
      "phone": "",
      "license_no": "第07218892号",
      "license_date": "2020-07-31",
      "expire_date": "2026-07-31"
    },
    {
      "name": "キッチン　ストーブ",
      "name_kana": "",
      "business_type": "菓子製造業",
      "address": "下伊那郡阿智村浪合１１９２",
      "lat": 35.384101,
      "lng": 137.683604,
      "geocoding_level": 3,
      "phone": "",
      "license_no": "第07198571号",
      "license_date": "2020-07-31",
      "expire_date": "2026-07-31"
    },
    {
      "name": "昼神温泉グランドホテル",
      "name_kana": "",
      "business_type": "飲食店営業",
      "address": "下伊那郡阿智村智里３３１－５",
      "lat": 35.455341296,
      "lng": 137.71441451800004,
      "geocoding_level": 8,
      "phone": "",
      "license_no": "第07158534号",
      "license_date": "2020-07-31",
      "expire_date": "2026-07-31"
    },
    {
      "name": "昼神温泉グランドホテル",
      "name_kana": "",
      "business_type": "飲食店営業",
      "address": "下伊那郡阿智村智里３３１－５",
      "lat": 35.455341296,
      "lng": 137.71441451800004,
      "geocoding_level": 8,
      "phone": "",
      "license_no": "第07158559号",
      "license_date": "2020-07-31",
      "expire_date": "2026-07-31"
    },
    {
      "name": "阿智村多機能型事業所　夢のつばさ",
      "name_kana": "",
      "business_type": "菓子製造業",
      "address": "下伊那郡阿智村春日３２９７",
      "lat": 35.454668,
      "lng": 137.750308,
      "geocoding_level": 3,
      "phone": "",
      "license_no": "第07197067号",
      "license_date": "2020-07-31",
      "expire_date": "2026-07-31"
    },
    {
      "name": "お宿　山翠",
      "name_kana": "",
      "business_type": "喫茶店営業",
      "address": "下伊那郡阿智村智里２９０－１",
      "lat": 35.454065057,
      "lng": 137.717486615,
      "geocoding_level": 8,
      "phone": "",
      "license_no": "第07158228号",
      "license_date": "2020-07-31",
      "expire_date": "2026-07-31"
    },
    {
      "name": "昼神温泉グランドホテル",
      "name_kana": "",
      "business_type": "飲食店営業",
      "address": "下伊那郡阿智村智里３３１－５",
      "lat": 35.455341296,
      "lng": 137.71441451800004,
      "geocoding_level": 8,
      "phone": "",
      "license_no": "第07158541号",
      "license_date": "2020-07-31",
      "expire_date": "2026-07-31"
    },
    {
      "name": "昼神温泉グランドホテル",
      "name_kana": "",
      "business_type": "喫茶店営業",
      "address": "下伊那郡阿智村智里３３１－５",
      "lat": 35.455341296,
      "lng": 137.71441451800004,
      "geocoding_level": 8,
      "phone": "",
      "license_no": "第07158573号",
      "license_date": "2020-07-31",
      "expire_date": "2026-07-31"
    },
    {
      "name": "東山道園原ビジターセンター「はゝき木館」",
      "name_kana": "",
      "business_type": "喫茶店営業",
      "address": "長野県下伊那郡阿智村智里３６０４－１",
      "lat": 35.459070297,
      "lng": 137.667918566,
      "geocoding_level": 8,
      "phone": "",
      "license_no": "第07196888号",
      "license_date": "2020-07-31",
      "expire_date": "2026-07-31"
    },
    {
      "name": "古畑農産加工所",
      "name_kana": "",
      "business_type": "菓子製造業",
      "address": "下伊那郡阿智村智里２７２７－４",
      "lat": 35.446382934,
      "lng": 137.716224395,
      "geocoding_level": 8,
      "phone": "",
      "license_no": "第07238965号",
      "license_date": "2021-06-04",
      "expire_date": "2027-07-31"
    },
    {
      "name": "古畑農産加工所",
      "name_kana": "",
      "business_type": "漬物製造業",
      "address": "下伊那郡阿智村智里２７２７－４",
      "lat": 35.446382934,
      "lng": 137.716224395,
      "geocoding_level": 8,
      "phone": "",
      "license_no": "第07246450号",
      "license_date": "2024-05-17",
      "expire_date": "2029-07-31"
    },
    {
      "name": "古畑農産加工所",
      "name_kana": "",
      "business_type": "そうざい製造業",
      "address": "下伊那郡阿智村智里２７２７－４",
      "lat": 35.446382934,
      "lng": 137.716224395,
      "geocoding_level": 8,
      "phone": "",
      "license_no": "第07217986号",
      "license_date": "2024-07-31",
      "expire_date": "2029-07-31"
    },
    {
      "name": "サクライロ",
      "name_kana": "",
      "business_type": "飲食店営業",
      "address": "下伊那郡阿智村清内路2796-1",
      "lat": 35.51078159800001,
      "lng": 137.676123962,
      "geocoding_level": 8,
      "phone": "",
      "license_no": "第07238980号",
      "license_date": "2021-06-07",
      "expire_date": "2026-07-31"
    },
    {
      "name": "Ｄｏｇｒｕｎ＆Ｃａｆｅ　ＲＯＵＴＥ☆Ａ",
      "name_kana": "",
      "business_type": "飲食店営業",
      "address": "下伊那郡阿智村智里１８４３－２",
      "lat": 35.449891559,
      "lng": 137.719823781,
      "geocoding_level": 8,
      "phone": "",
      "license_no": "第07248023号",
      "license_date": "2024-10-30",
      "expire_date": "2031-07-31"
    },
    {
      "name": "株式会社　ちさと東",
      "name_kana": "",
      "business_type": "そうざい製造業",
      "address": "下伊那郡阿智村智里５５６－１",
      "lat": 35.452139095,
      "lng": 137.71418786,
      "geocoding_level": 8,
      "phone": "",
      "license_no": "第07207127号",
      "license_date": "2023-07-31",
      "expire_date": "2029-07-31"
    },
    {
      "name": "そば処　おにひら　本店",
      "name_kana": "",
      "business_type": "麺類製造業",
      "address": "下伊那郡阿智村智里４４０５－１",
      "lat": 35.43134588,
      "lng": 137.698872182,
      "geocoding_level": 8,
      "phone": "",
      "license_no": "第07207091号",
      "license_date": "2023-07-31",
      "expire_date": "2029-07-31"
    },
    {
      "name": "株式会社ちさと東　製麺工場",
      "name_kana": "",
      "business_type": "麺類製造業",
      "address": "下伊那郡阿智村智里５５６－１",
      "lat": 35.452139095,
      "lng": 137.71418786,
      "geocoding_level": 8,
      "phone": "",
      "license_no": "第07245900号",
      "license_date": "2024-03-15",
      "expire_date": "2030-07-31"
    },
    {
      "name": "掘割",
      "name_kana": "",
      "business_type": "飲食店営業",
      "address": "下伊那郡阿智村清内路４７７－１",
      "lat": 35.477483225,
      "lng": 137.699515441,
      "geocoding_level": 8,
      "phone": "",
      "license_no": "第07239355号",
      "license_date": "2021-07-13",
      "expire_date": "2026-07-31"
    },
    {
      "name": "掘割",
      "name_kana": "",
      "business_type": "飲食店営業",
      "address": "下伊那郡阿智村清内路４７７－１",
      "lat": 35.477483225,
      "lng": 137.699515441,
      "geocoding_level": 8,
      "phone": "",
      "license_no": "第07209531号",
      "license_date": "2024-07-31",
      "expire_date": "2030-07-31"
    },
    {
      "name": "大平神社",
      "name_kana": "",
      "business_type": "飲食店営業",
      "address": "下伊那郡阿智村智里２１３３",
      "lat": 35.446747147,
      "lng": 137.708257798,
      "geocoding_level": 8,
      "phone": "",
      "license_no": "第07154767号",
      "license_date": "2021-07-30",
      "expire_date": "2026-07-31"
    },
    {
      "name": "阿智村商工会",
      "name_kana": "",
      "business_type": "飲食店営業",
      "address": "下伊那郡阿智村駒場１０７８－５",
      "lat": 35.445384,
      "lng": 137.738273,
      "geocoding_level": 3,
      "phone": "",
      "license_no": "第07130039号",
      "license_date": "2021-07-30",
      "expire_date": "2026-07-31"
    },
    {
      "name": "阿智村商工会",
      "name_kana": "",
      "business_type": "飲食店営業",
      "address": "下伊那郡阿智村駒場１０７８－５",
      "lat": 35.445384,
      "lng": 137.738273,
      "geocoding_level": 3,
      "phone": "",
      "license_no": "第07130021号",
      "license_date": "2021-07-30",
      "expire_date": "2026-07-31"
    },
    {
      "name": "阿智村商工会",
      "name_kana": "",
      "business_type": "飲食店営業",
      "address": "下伊那郡阿智村駒場１０７８－５",
      "lat": 35.445384,
      "lng": 137.738273,
      "geocoding_level": 3,
      "phone": "",
      "license_no": "第07154888号",
      "license_date": "2021-07-30",
      "expire_date": "2026-07-31"
    },
    {
      "name": "阿智村商工会",
      "name_kana": "",
      "business_type": "飲食店営業",
      "address": "下伊那郡阿智村駒場１０７８－５",
      "lat": 35.445384,
      "lng": 137.738273,
      "geocoding_level": 3,
      "phone": "",
      "license_no": "第07244321号",
      "license_date": "2023-07-28",
      "expire_date": "2028-07-31"
    },
    {
      "name": "阿智村役場　保健センター",
      "name_kana": "",
      "business_type": "飲食店営業",
      "address": "下伊那郡阿智村駒場４８３",
      "lat": 35.445384,
      "lng": 137.738273,
      "geocoding_level": 3,
      "phone": "",
      "license_no": "第07245187号",
      "license_date": "2023-10-27",
      "expire_date": "2029-07-31"
    },
    {
      "name": "阿智村商工会",
      "name_kana": "",
      "business_type": "飲食店営業",
      "address": "下伊那郡阿智村駒場１０７８－５",
      "lat": 35.445384,
      "lng": 137.738273,
      "geocoding_level": 3,
      "phone": "",
      "license_no": "第07217484号",
      "license_date": "2024-07-31",
      "expire_date": "2029-07-31"
    },
    {
      "name": "阿智村商工会",
      "name_kana": "",
      "business_type": "飲食店営業",
      "address": "下伊那郡阿智村駒場１０７８－５",
      "lat": 35.445384,
      "lng": 137.738273,
      "geocoding_level": 3,
      "phone": "",
      "license_no": "第07217491号",
      "license_date": "2024-07-31",
      "expire_date": "2029-07-31"
    },
    {
      "name": "阿智村商工会",
      "name_kana": "",
      "business_type": "飲食店営業",
      "address": "下伊那郡阿智村駒場１０７８－５",
      "lat": 35.445384,
      "lng": 137.738273,
      "geocoding_level": 3,
      "phone": "",
      "license_no": "第07217502号",
      "license_date": "2024-07-31",
      "expire_date": "2029-07-31"
    },
    {
      "name": "阿智村商工会",
      "name_kana": "",
      "business_type": "飲食店営業",
      "address": "下伊那郡阿智村駒場１０７８－５",
      "lat": 35.445384,
      "lng": 137.738273,
      "geocoding_level": 3,
      "phone": "",
      "license_no": "第07217510号",
      "license_date": "2024-07-31",
      "expire_date": "2029-07-31"
    },
    {
      "name": "阿智の里　ひるがみ",
      "name_kana": "",
      "business_type": "飲食店営業",
      "address": "下伊那郡阿智村智里５０３－３７８",
      "lat": 35.459524533,
      "lng": 137.709268703,
      "geocoding_level": 8,
      "phone": "",
      "license_no": "第07200474号",
      "license_date": "2021-07-30",
      "expire_date": "2027-07-31"
    },
    {
      "name": "阿智の里　ひるがみ",
      "name_kana": "",
      "business_type": "飲食店営業",
      "address": "下伊那郡阿智村智里５０３－３７８",
      "lat": 35.459524533,
      "lng": 137.709268703,
      "geocoding_level": 8,
      "phone": "",
      "license_no": "第07200481号",
      "license_date": "2021-07-30",
      "expire_date": "2027-07-31"
    },
    {
      "name": "富士見台高原山小屋　萬岳荘",
      "name_kana": "",
      "business_type": "飲食店営業",
      "address": "下伊那郡阿智村智里４２５７－９６",
      "lat": 35.445375,
      "lng": 137.659654,
      "geocoding_level": 3,
      "phone": "",
      "license_no": "第07223366号",
      "license_date": "2021-07-30",
      "expire_date": "2026-07-31"
    },
    {
      "name": "農事組合法人　東山道",
      "name_kana": "",
      "business_type": "飲食店営業",
      "address": "下伊那郡阿智村智里４９９－４",
      "lat": 35.445375,
      "lng": 137.659654,
      "geocoding_level": 3,
      "phone": "",
      "license_no": "第07219461号",
      "license_date": "2021-07-31",
      "expire_date": "2027-07-31"
    },
    {
      "name": "食事処　御所の里",
      "name_kana": "",
      "business_type": "飲食店営業",
      "address": "下伊那郡阿智村浪合１４００",
      "lat": 35.371309859,
      "lng": 137.70099214,
      "geocoding_level": 8,
      "phone": "",
      "license_no": "第07200951号",
      "license_date": "2021-07-30",
      "expire_date": "2027-07-31"
    },
    {
      "name": "クレープ屋",
      "name_kana": "",
      "business_type": "飲食店営業",
      "address": "下伊那郡阿智村駒場１１４３－１",
      "lat": 35.445384,
      "lng": 137.738273,
      "geocoding_level": 3,
      "phone": "",
      "license_no": "第07205471号",
      "license_date": "2021-07-30",
      "expire_date": "2026-07-31"
    },
    {
      "name": "門前屋",
      "name_kana": "",
      "business_type": "飲食店営業",
      "address": "下伊那郡阿智村智里３６１４",
      "lat": 35.459279551,
      "lng": 137.668462333,
      "geocoding_level": 8,
      "phone": "",
      "license_no": "第07178491号",
      "license_date": "2021-07-30",
      "expire_date": "2027-07-31"
    },
    {
      "name": "門前屋",
      "name_kana": "",
      "business_type": "豆腐製造業",
      "address": "下伊那郡阿智村智里３６１４",
      "lat": 35.459279551,
      "lng": 137.668462333,
      "geocoding_level": 8,
      "phone": "",
      "license_no": "第07178501号",
      "license_date": "2021-07-30",
      "expire_date": "2027-07-31"
    },
    {
      "name": "トヨタ車体　あららぎ自然村",
      "name_kana": "",
      "business_type": "飲食店営業",
      "address": "下伊那郡阿智村浪合１０５",
      "lat": 35.384101,
      "lng": 137.683604,
      "geocoding_level": 3,
      "phone": "",
      "license_no": "第07198953号",
      "license_date": "2021-07-30",
      "expire_date": "2027-07-31"
    },
    {
      "name": "ふるさとや",
      "name_kana": "",
      "business_type": "飲食店営業",
      "address": "下伊那郡阿智村智里３７３１－４",
      "lat": 35.455055226,
      "lng": 137.668332979,
      "geocoding_level": 8,
      "phone": "",
      "license_no": "第07178370号",
      "license_date": "2021-07-30",
      "expire_date": "2027-07-31"
    },
    {
      "name": "グリーンレストラン",
      "name_kana": "",
      "business_type": "飲食店営業",
      "address": "下伊那郡阿智村智里４２５９－３７０",
      "lat": 35.449913154,
      "lng": 137.636959727,
      "geocoding_level": 8,
      "phone": "",
      "license_no": "第07178355号",
      "license_date": "2021-07-30",
      "expire_date": "2027-07-31"
    },
    {
      "name": "ファーストフード",
      "name_kana": "",
      "business_type": "飲食店営業",
      "address": "下伊那郡阿智村智里４２５７－９９",
      "lat": 35.456874860000006,
      "lng": 137.638867754,
      "geocoding_level": 8,
      "phone": "",
      "license_no": "第07178405号",
      "license_date": "2021-07-30",
      "expire_date": "2027-07-31"
    },
    {
      "name": "レストラン　ヴァルト",
      "name_kana": "",
      "business_type": "飲食店営業",
      "address": "下伊那郡阿智村智里４２５７番地９９",
      "lat": 35.456874860000006,
      "lng": 137.638867754,
      "geocoding_level": 8,
      "phone": "",
      "license_no": "第07178420号",
      "license_date": "2024-07-31",
      "expire_date": "2030-07-31"
    },
    {
      "name": "株式会社　三日庵",
      "name_kana": "",
      "business_type": "麺類製造業",
      "address": "下伊那郡阿智村智里３３６６－８",
      "lat": 35.437354944,
      "lng": 137.707454036,
      "geocoding_level": 8,
      "phone": "",
      "license_no": "第07207021号",
      "license_date": "2021-07-30",
      "expire_date": "2026-07-31"
    },
    {
      "name": "そば　勝縁",
      "name_kana": "",
      "business_type": "飲食店営業",
      "address": "下伊那郡阿智村智里８２９－５",
      "lat": 35.44705929,
      "lng": 137.719810881,
      "geocoding_level": 8,
      "phone": "",
      "license_no": "第07178580号",
      "license_date": "2021-07-30",
      "expire_date": "2027-07-31"
    },
    {
      "name": "おやき工房　えんまん",
      "name_kana": "",
      "business_type": "菓子製造業",
      "address": "下伊那郡阿智村智里２５９－１",
      "lat": 35.45549054,
      "lng": 137.716842025,
      "geocoding_level": 8,
      "phone": "",
      "license_no": "第07206751号",
      "license_date": "2021-07-30",
      "expire_date": "2026-07-31"
    },
    {
      "name": "治部坂つり堀センター",
      "name_kana": "",
      "business_type": "飲食店営業",
      "address": "下伊那郡阿智村浪合１１９２",
      "lat": 35.384101,
      "lng": 137.683604,
      "geocoding_level": 3,
      "phone": "",
      "license_no": "第07188998号",
      "license_date": "2021-07-30",
      "expire_date": "2026-07-31"
    },
    {
      "name": "五平餅ｃａｆｅうりぼう",
      "name_kana": "",
      "business_type": "飲食店営業",
      "address": "下伊那郡阿智村智里４１３９",
      "lat": 35.443485691,
      "lng": 137.66384748,
      "geocoding_level": 8,
      "phone": "",
      "license_no": "第07219478号",
      "license_date": "2021-07-30",
      "expire_date": "2027-07-31"
    },
    {
      "name": "Ｂａｋｅｒｙ＆Ｃａｆｅ　ＡＮＴＯＮ（あんとん）",
      "name_kana": "",
      "business_type": "飲食店営業",
      "address": "下伊那郡阿智村清内路１７５６－２",
      "lat": 35.502073772,
      "lng": 137.685867877,
      "geocoding_level": 8,
      "phone": "",
      "license_no": "第07221689号",
      "license_date": "2021-07-30",
      "expire_date": "2027-07-31"
    },
    {
      "name": "Ｂａｋｅｒｙ＆Ｃａｆｅ　ＡＮＴＯＮ（あんとん）",
      "name_kana": "",
      "business_type": "菓子製造業",
      "address": "下伊那郡阿智村清内路１７５６－２",
      "lat": 35.502073772,
      "lng": 137.685867877,
      "geocoding_level": 8,
      "phone": "",
      "license_no": "第07221696号",
      "license_date": "2021-07-30",
      "expire_date": "2027-07-31"
    },
    {
      "name": "Ｂａｋｅｒｙ＆Ｃａｆｅ　ＡＮＴＯＮ",
      "name_kana": "",
      "business_type": "飲食店営業",
      "address": "下伊那郡阿智村清内路４２８－１８",
      "lat": 35.48767817700001,
      "lng": 137.702006806,
      "geocoding_level": 8,
      "phone": "",
      "license_no": "第07228801号",
      "license_date": "2023-07-31",
      "expire_date": "2028-07-31"
    },
    {
      "name": "彩り季節風　GOKA彩りの里",
      "name_kana": "",
      "business_type": "飲食店営業",
      "address": "下伊那郡阿智村伍和５５８７－４６",
      "lat": 35.421194313,
      "lng": 137.746492524,
      "geocoding_level": 8,
      "phone": "",
      "license_no": "第07221551号",
      "license_date": "2021-07-30",
      "expire_date": "2027-07-31"
    },
    {
      "name": "フレンズ",
      "name_kana": "",
      "business_type": "飲食店営業",
      "address": "下伊那郡阿智村智里４２５９－３７０",
      "lat": 35.449913154,
      "lng": 137.636959727,
      "geocoding_level": 8,
      "phone": "",
      "license_no": "第07158609号",
      "license_date": "2021-07-30",
      "expire_date": "2026-07-31"
    },
    {
      "name": "ラウンヂ　吉弥",
      "name_kana": "",
      "business_type": "飲食店営業",
      "address": "下伊那郡阿智村智里５０３－１",
      "lat": 35.455150385,
      "lng": 137.711152638,
      "geocoding_level": 8,
      "phone": "",
      "license_no": "第07131875号",
      "license_date": "2021-08-01",
      "expire_date": "2026-07-31"
    },
    {
      "name": "前田商店",
      "name_kana": "",
      "business_type": "飲食店営業",
      "address": "下伊那郡阿智村智里中央花桃祭り会場",
      "lat": 35.445375,
      "lng": 137.659654,
      "geocoding_level": 3,
      "phone": "",
      "license_no": "第07230616号",
      "license_date": "2023-05-31",
      "expire_date": "2028-05-31"
    },
    {
      "name": "特別養護老人ホーム　阿智荘",
      "name_kana": "",
      "business_type": "飲食店営業",
      "address": "下伊那郡阿智村智里４９１－４１",
      "lat": 35.459737331,
      "lng": 137.713740415,
      "geocoding_level": 8,
      "phone": "",
      "license_no": "第07221194号",
      "license_date": "2021-10-29",
      "expire_date": "2027-10-31"
    },
    {
      "name": "(株)キラヤ　ピア店",
      "name_kana": "",
      "business_type": "飲食店営業",
      "address": "下伊那郡阿智村駒場４２６－１",
      "lat": 35.445384,
      "lng": 137.738273,
      "geocoding_level": 3,
      "phone": "",
      "license_no": "第07152684号",
      "license_date": "2025-07-31",
      "expire_date": "2030-07-31"
    },
    {
      "name": "(株)キラヤ　ピア店",
      "name_kana": "",
      "business_type": "魚介類販売業",
      "address": "下伊那郡阿智村駒場４２６－１",
      "lat": 35.445384,
      "lng": 137.738273,
      "geocoding_level": 3,
      "phone": "",
      "license_no": "第07152691号",
      "license_date": "2025-07-31",
      "expire_date": "2030-07-31"
    },
    {
      "name": "(株)キラヤ　ピア店",
      "name_kana": "",
      "business_type": "食肉販売業",
      "address": "下伊那郡阿智村駒場４２６－１",
      "lat": 35.445384,
      "lng": 137.738273,
      "geocoding_level": 3,
      "phone": "",
      "license_no": "第07152710号",
      "license_date": "2025-07-31",
      "expire_date": "2030-07-31"
    },
    {
      "name": "わいわい基地かえで　昼神店",
      "name_kana": "",
      "business_type": "飲食店営業",
      "address": "下伊那郡阿智村智里338-25 ＡＣＨＩ ＢＡＳＥ内",
      "lat": 35.45836564,
      "lng": 137.711616208,
      "geocoding_level": 8,
      "phone": "",
      "license_no": "第07249118号",
      "license_date": "2025-05-28",
      "expire_date": "2030-07-31"
    },
    {
      "name": "星空食堂",
      "name_kana": "",
      "business_type": "飲食店営業",
      "address": "下伊那郡阿智村智里５―３",
      "lat": 35.452741698,
      "lng": 137.720300157,
      "geocoding_level": 8,
      "phone": "",
      "license_no": "第07239138号",
      "license_date": "2021-06-16",
      "expire_date": "2027-07-31"
    },
    {
      "name": "星合の森",
      "name_kana": "",
      "business_type": "飲食店営業",
      "address": "下伊那郡阿智村浪合１１９２－３３７",
      "lat": 35.351518953,
      "lng": 137.672924072,
      "geocoding_level": 8,
      "phone": "",
      "license_no": "第07242287号",
      "license_date": "2022-10-20",
      "expire_date": "2029-07-31"
    },
    {
      "name": "橋上医院内　富士産業株式会社営業所",
      "name_kana": "",
      "business_type": "飲食店営業",
      "address": "下伊那郡阿智村駒場３５９－１",
      "lat": 35.445384,
      "lng": 137.738273,
      "geocoding_level": 3,
      "phone": "",
      "license_no": "第07184664号",
      "license_date": "2023-07-31",
      "expire_date": "2029-07-31"
    },
    {
      "name": "富士産業(株)　営業所　アルテンハイム会地の郷",
      "name_kana": "",
      "business_type": "飲食店営業",
      "address": "下伊那郡阿智村駒場１２４－１",
      "lat": 35.445384,
      "lng": 137.738273,
      "geocoding_level": 3,
      "phone": "",
      "license_no": "第07154176号",
      "license_date": "2024-07-31",
      "expire_date": "2030-07-31"
    },
    {
      "name": "サンマルシェ",
      "name_kana": "",
      "business_type": "飲食店営業",
      "address": "下伊那郡阿智村智里３８２－２",
      "lat": 35.445375,
      "lng": 137.659654,
      "geocoding_level": 3,
      "phone": "",
      "license_no": "第07227222号",
      "license_date": "2023-07-31",
      "expire_date": "2029-07-31"
    },
    {
      "name": "サンマルシェ",
      "name_kana": "",
      "business_type": "そうざい製造業",
      "address": "下伊那郡阿智村智里３８２－２",
      "lat": 35.445375,
      "lng": 137.659654,
      "geocoding_level": 3,
      "phone": "",
      "license_no": "第07227230号",
      "license_date": "2023-07-31",
      "expire_date": "2029-07-31"
    },
    {
      "name": "南信州菓子工房　本社工場",
      "name_kana": "",
      "business_type": "菓子製造業",
      "address": "下伊那郡阿智村春日３２９１－１",
      "lat": 35.454668,
      "lng": 137.750308,
      "geocoding_level": 3,
      "phone": "",
      "license_no": "第07227610号",
      "license_date": "2023-07-31",
      "expire_date": "2029-07-31"
    },
    {
      "name": "山なか",
      "name_kana": "",
      "business_type": "飲食店営業",
      "address": "下伊那郡阿智村智里４０８９－３",
      "lat": 35.446611421,
      "lng": 137.664280295,
      "geocoding_level": 8,
      "phone": "",
      "license_no": "第07240959号",
      "license_date": "2022-04-06",
      "expire_date": "2028-07-31"
    },
    {
      "name": "清流の里　車屋",
      "name_kana": "",
      "business_type": "漬物製造業",
      "address": "下伊那郡阿智村浪合８３７",
      "lat": 35.368400506,
      "lng": 137.707911367,
      "geocoding_level": 8,
      "phone": "",
      "license_no": "第07241363号",
      "license_date": "2022-06-23",
      "expire_date": "2028-07-31"
    },
    {
      "name": "清流の里　車屋",
      "name_kana": "",
      "business_type": "飲食店営業",
      "address": "下伊那郡阿智村浪合上半堀８４８―２",
      "lat": 35.384101,
      "lng": 137.683604,
      "geocoding_level": 3,
      "phone": "",
      "license_no": "第07132404号",
      "license_date": "2022-07-29",
      "expire_date": "2028-07-31"
    },
    {
      "name": "有限会社あちの里",
      "name_kana": "",
      "business_type": "漬物製造業",
      "address": "下伊那郡阿智村伍和５５７１－１",
      "lat": 35.422588944,
      "lng": 137.752350347,
      "geocoding_level": 8,
      "phone": "",
      "license_no": "第07241452号",
      "license_date": "2022-07-06",
      "expire_date": "2028-07-31"
    },
    {
      "name": "有限会社あちの里",
      "name_kana": "",
      "business_type": "みそ又はしょうゆ製造業",
      "address": "下伊那郡阿智村伍和５５７１－１",
      "lat": 35.422588944,
      "lng": 137.752350347,
      "geocoding_level": 8,
      "phone": "",
      "license_no": "第07183014号",
      "license_date": "2022-07-29",
      "expire_date": "2028-07-31"
    },
    {
      "name": "有限会社　あちの里",
      "name_kana": "",
      "business_type": "密封包装食品製造業",
      "address": "下伊那郡阿智村伍和５５７１－１",
      "lat": 35.422588944,
      "lng": 137.752350347,
      "geocoding_level": 8,
      "phone": "",
      "license_no": "第07183039号",
      "license_date": "2022-07-29",
      "expire_date": "2028-07-31"
    },
    {
      "name": "有限会社　あちの里",
      "name_kana": "",
      "business_type": "そうざい製造業",
      "address": "下伊那郡阿智村伍和５５７１－１",
      "lat": 35.422588944,
      "lng": 137.752350347,
      "geocoding_level": 8,
      "phone": "",
      "license_no": "第07183021号",
      "license_date": "2022-07-29",
      "expire_date": "2028-07-31"
    },
    {
      "name": "有限会社　あちの里",
      "name_kana": "",
      "business_type": "清涼飲料水製造業",
      "address": "下伊那郡阿智村伍和５５７１－１",
      "lat": 35.422588944,
      "lng": 137.752350347,
      "geocoding_level": 8,
      "phone": "",
      "license_no": "第07183007号",
      "license_date": "2022-07-29",
      "expire_date": "2028-07-31"
    },
    {
      "name": "有限会社あちの里",
      "name_kana": "",
      "business_type": "飲食店営業",
      "address": "下伊那郡阿智村伍和５５７１－１",
      "lat": 35.422588944,
      "lng": 137.752350347,
      "geocoding_level": 8,
      "phone": "",
      "license_no": "第07219318号",
      "license_date": "2024-07-31",
      "expire_date": "2029-07-31"
    },
    {
      "name": "ショベルウッド",
      "name_kana": "",
      "business_type": "飲食店営業",
      "address": "下伊那郡阿智村浪合９３５－１",
      "lat": 35.366945298,
      "lng": 137.714399194,
      "geocoding_level": 8,
      "phone": "",
      "license_no": "第07241623号",
      "license_date": "2022-07-27",
      "expire_date": "2027-07-31"
    },
    {
      "name": "ラーメンふたつ矢　治部坂店",
      "name_kana": "",
      "business_type": "飲食店営業",
      "address": "下伊那郡阿智村浪合１１９２",
      "lat": 35.384101,
      "lng": 137.683604,
      "geocoding_level": 3,
      "phone": "",
      "license_no": "第07242554号",
      "license_date": "2022-12-08",
      "expire_date": "2029-07-31"
    },
    {
      "name": "ｍｏｋｋｉ　ＳＴＡＲＤＵＳＴ　ＧＬＡＮＰＩＮＧ",
      "name_kana": "",
      "business_type": "飲食店営業",
      "address": "下伊那郡阿智村智里4１５２－６７",
      "lat": 35.442458267,
      "lng": 137.665089383,
      "geocoding_level": 8,
      "phone": "",
      "license_no": "第07241705号",
      "license_date": "2022-08-02",
      "expire_date": "2029-07-31"
    },
    {
      "name": "やきとり　かじか",
      "name_kana": "",
      "business_type": "飲食店営業",
      "address": "下伊那郡阿智村智里昼神３５８―１",
      "lat": 35.445375,
      "lng": 137.659654,
      "geocoding_level": 3,
      "phone": "",
      "license_no": "第07123023号",
      "license_date": "2022-07-29",
      "expire_date": "2028-07-31"
    },
    {
      "name": "おとぎ亭光風",
      "name_kana": "",
      "business_type": "飲食店営業",
      "address": "下伊那郡阿智村智里３８９－１",
      "lat": 35.45646915,
      "lng": 137.714491937,
      "geocoding_level": 8,
      "phone": "",
      "license_no": "第07136185号",
      "license_date": "2022-07-29",
      "expire_date": "2028-07-31"
    },
    {
      "name": "おとぎ亭光風",
      "name_kana": "",
      "business_type": "飲食店営業",
      "address": "下伊那郡阿智村智里３８９－１",
      "lat": 35.45646915,
      "lng": 137.714491937,
      "geocoding_level": 8,
      "phone": "",
      "license_no": "第07136192号",
      "license_date": "2022-07-29",
      "expire_date": "2028-07-31"
    },
    {
      "name": "お食事・季節料理　ざこや",
      "name_kana": "",
      "business_type": "飲食店営業",
      "address": "下伊那郡阿智村駒場４９２－１０",
      "lat": 35.445384,
      "lng": 137.738273,
      "geocoding_level": 3,
      "phone": "",
      "license_no": "第07149396号",
      "license_date": "2022-07-29",
      "expire_date": "2028-07-31"
    },
    {
      "name": "春駒",
      "name_kana": "",
      "business_type": "飲食店営業",
      "address": "下伊那郡阿智村駒場８７６－７",
      "lat": 35.445384,
      "lng": 137.738273,
      "geocoding_level": 3,
      "phone": "",
      "license_no": "第07182617号",
      "license_date": "2022-07-29",
      "expire_date": "2028-07-31"
    },
    {
      "name": "阿智村保養センター　鶴巻荘",
      "name_kana": "",
      "business_type": "飲食店営業",
      "address": "下伊那郡阿智村智里３３２の４",
      "lat": 35.445375,
      "lng": 137.659654,
      "geocoding_level": 3,
      "phone": "",
      "license_no": "第07203731号",
      "license_date": "2022-07-29",
      "expire_date": "2028-07-31"
    },
    {
      "name": "阿智村保養センター　鶴巻荘",
      "name_kana": "",
      "business_type": "そうざい製造業",
      "address": "下伊那郡阿智村智里３３２の４",
      "lat": 35.445375,
      "lng": 137.659654,
      "geocoding_level": 3,
      "phone": "",
      "license_no": "第07203748号",
      "license_date": "2022-07-29",
      "expire_date": "2028-07-31"
    },
    {
      "name": "ＫＩＴＣＨＥＮ　はなＭＯＭＯ",
      "name_kana": "",
      "business_type": "飲食店営業",
      "address": "下伊那郡阿智村清内路１６２１－１",
      "lat": 35.502468675,
      "lng": 137.68837453200004,
      "geocoding_level": 8,
      "phone": "",
      "license_no": "第07223494号",
      "license_date": "2022-07-29",
      "expire_date": "2028-07-31"
    },
    {
      "name": "きたせんと",
      "name_kana": "",
      "business_type": "飲食店営業",
      "address": "下伊那郡阿智村駒場１２３３",
      "lat": 35.445384,
      "lng": 137.738273,
      "geocoding_level": 3,
      "phone": "",
      "license_no": "第07223996号",
      "license_date": "2022-07-29",
      "expire_date": "2028-07-31"
    },
    {
      "name": "炭火焼き五平餅　関",
      "name_kana": "",
      "business_type": "飲食店営業",
      "address": "下伊那郡阿智村駒場４２９－６",
      "lat": 35.445384,
      "lng": 137.738273,
      "geocoding_level": 3,
      "phone": "",
      "license_no": "第07225140号",
      "license_date": "2022-07-29",
      "expire_date": "2028-07-31"
    },
    {
      "name": "プチファーム・ヒロ",
      "name_kana": "",
      "business_type": "飲食店営業",
      "address": "下伊那郡阿智村清内路１５７３－２",
      "lat": 35.502024351,
      "lng": 137.687540471,
      "geocoding_level": 8,
      "phone": "",
      "license_no": "第07225506号",
      "license_date": "2022-07-29",
      "expire_date": "2028-07-31"
    },
    {
      "name": "プチファーム・ヒロ",
      "name_kana": "",
      "business_type": "そうざい製造業",
      "address": "下伊那郡阿智村清内路１５７３－２",
      "lat": 35.502024351,
      "lng": 137.687540471,
      "geocoding_level": 8,
      "phone": "",
      "license_no": "第07225513号",
      "license_date": "2022-07-29",
      "expire_date": "2028-07-31"
    },
    {
      "name": "ひるがみ茶屋",
      "name_kana": "",
      "business_type": "飲食店営業",
      "address": "下伊那郡阿智村智里３４６－２２",
      "lat": 35.455003619,
      "lng": 137.71536429,
      "geocoding_level": 8,
      "phone": "",
      "license_no": "第07189661号",
      "license_date": "2022-07-29",
      "expire_date": "2027-07-31"
    },
    {
      "name": "ひるがみ茶屋",
      "name_kana": "",
      "business_type": "飲食店営業",
      "address": "下伊那郡阿智村智里３４６－２２",
      "lat": 35.455003619,
      "lng": 137.71536429,
      "geocoding_level": 8,
      "phone": "",
      "license_no": "第07200701号",
      "license_date": "2024-07-31",
      "expire_date": "2029-07-31"
    },
    {
      "name": "下町公園",
      "name_kana": "",
      "business_type": "飲食店営業",
      "address": "下伊那郡阿智村駒場１０７９－３",
      "lat": 35.445384,
      "lng": 137.738273,
      "geocoding_level": 3,
      "phone": "",
      "license_no": "第07173148号",
      "license_date": "2022-07-29",
      "expire_date": "2027-07-31"
    },
    {
      "name": "全下町祭り実行委員会",
      "name_kana": "",
      "business_type": "飲食店営業",
      "address": "下伊那郡阿智村駒場８６７－２",
      "lat": 35.445384,
      "lng": 137.738273,
      "geocoding_level": 3,
      "phone": "",
      "license_no": "第07228526号",
      "license_date": "2022-07-29",
      "expire_date": "2027-07-31"
    },
    {
      "name": "辻本屋商店",
      "name_kana": "",
      "business_type": "飲食店営業",
      "address": "下伊那郡阿智村伍和７１０－３",
      "lat": 35.436133321,
      "lng": 137.748880493,
      "geocoding_level": 8,
      "phone": "",
      "license_no": "第07211168号",
      "license_date": "2022-07-29",
      "expire_date": "2027-07-31"
    },
    {
      "name": "セブンイレブン飯田山本",
      "name_kana": "",
      "business_type": "飲食店営業",
      "address": "下伊那郡阿智村大字春日５２９－２",
      "lat": 35.454668,
      "lng": 137.750308,
      "geocoding_level": 3,
      "phone": "",
      "license_no": "第07233701号",
      "license_date": "2024-07-31",
      "expire_date": "2029-07-31"
    },
    {
      "name": "セブンイレブン飯田山本",
      "name_kana": "",
      "business_type": "飲食店営業",
      "address": "下伊那郡阿智村大字春日５２９－２",
      "lat": 35.454668,
      "lng": 137.750308,
      "geocoding_level": 3,
      "phone": "",
      "license_no": "第07233719号",
      "license_date": "2024-07-31",
      "expire_date": "2029-07-31"
    },
    {
      "name": "ファミリーマート信州昼神店",
      "name_kana": "",
      "business_type": "飲食店営業",
      "address": "下伊那郡阿智村智里４３０ー１",
      "lat": 35.457478808,
      "lng": 137.714742104,
      "geocoding_level": 8,
      "phone": "",
      "license_no": "第07205126号",
      "license_date": "2022-07-29",
      "expire_date": "2028-07-31"
    },
    {
      "name": "治部屋",
      "name_kana": "",
      "business_type": "飲食店営業",
      "address": "下伊那郡阿智村浪合１１９２",
      "lat": 35.384101,
      "lng": 137.683604,
      "geocoding_level": 3,
      "phone": "",
      "license_no": "第07190471号",
      "license_date": "2022-07-29",
      "expire_date": "2027-07-31"
    },
    {
      "name": "清内路郷土食の会",
      "name_kana": "",
      "business_type": "飲食店営業",
      "address": "下伊那郡阿智村清内路１２３４－２",
      "lat": 35.497703426,
      "lng": 137.705059174,
      "geocoding_level": 8,
      "phone": "",
      "license_no": "第07210988号",
      "license_date": "2022-07-29",
      "expire_date": "2027-07-31"
    },
    {
      "name": "岡庭　啓眞",
      "name_kana": "",
      "business_type": "飲食店営業",
      "address": "下伊那郡阿智村駒場１１６２",
      "lat": 35.445384,
      "lng": 137.738273,
      "geocoding_level": 3,
      "phone": "",
      "license_no": "第07190635号",
      "license_date": "2022-07-29",
      "expire_date": "2027-07-31"
    },
    {
      "name": "（有）春木屋本店",
      "name_kana": "",
      "business_type": "菓子製造業",
      "address": "下伊那郡阿智村駒場１５０７",
      "lat": 35.445384,
      "lng": 137.738273,
      "geocoding_level": 3,
      "phone": "",
      "license_no": "第07045515号",
      "license_date": "2022-07-29",
      "expire_date": "2028-07-31"
    },
    {
      "name": "湯多利の里　伊那華",
      "name_kana": "",
      "business_type": "飲食店営業",
      "address": "下伊那郡阿智村智里５０３―２９４",
      "lat": 35.455019167,
      "lng": 137.712980635,
      "geocoding_level": 8,
      "phone": "",
      "license_no": "第07121888号",
      "license_date": "2022-07-29",
      "expire_date": "2028-07-31"
    },
    {
      "name": "エアストリームスタジオ",
      "name_kana": "",
      "business_type": "飲食店営業",
      "address": "下伊那郡阿智村伍和３５７０－１６",
      "lat": 35.429240977,
      "lng": 137.751656937,
      "geocoding_level": 8,
      "phone": "",
      "license_no": "第07241947号",
      "license_date": "2022-09-15",
      "expire_date": "2027-09-30"
    },
    {
      "name": "西田圃",
      "name_kana": "",
      "business_type": "飲食店営業",
      "address": "下伊那郡阿智村智里４２２－１",
      "lat": 35.45758963,
      "lng": 137.714014845,
      "geocoding_level": 8,
      "phone": "",
      "license_no": "第07148391号",
      "license_date": "2022-07-29",
      "expire_date": "2028-07-31"
    },
    {
      "name": "ｇｒｅｅｎ　ｃａｆｅ",
      "name_kana": "",
      "business_type": "飲食店営業",
      "address": "下伊那郡阿智村駒場６５９－５",
      "lat": 35.445384,
      "lng": 137.738273,
      "geocoding_level": 3,
      "phone": "",
      "license_no": "第07212971号",
      "license_date": "2022-10-31",
      "expire_date": "2027-10-31"
    },
    {
      "name": "Ｔａｍｕｒｏ　Ｆａｒｍ　Ｋａｆｅ",
      "name_kana": "",
      "business_type": "飲食店営業",
      "address": "下伊那郡阿智村春日１１６８－２",
      "lat": 35.454668,
      "lng": 137.750308,
      "geocoding_level": 3,
      "phone": "",
      "license_no": "第07242586号",
      "license_date": "2022-12-14",
      "expire_date": "2029-07-31"
    },
    {
      "name": "ＣＨＥＢＵ　ＦＡＣＴＯＲＹ",
      "name_kana": "",
      "business_type": "菓子製造業",
      "address": "下伊那郡阿智村伍和１９２４－１",
      "lat": 35.43033929700001,
      "lng": 137.745139396,
      "geocoding_level": 8,
      "phone": "",
      "license_no": "第07242593号",
      "license_date": "2022-12-21",
      "expire_date": "2029-07-31"
    },
    {
      "name": "ＣＨＥＢＵ　ＦＡＣＴＯＲＹ",
      "name_kana": "",
      "business_type": "飲食店営業",
      "address": "下伊那郡阿智村伍和１９２４－１",
      "lat": 35.43033929700001,
      "lng": 137.745139396,
      "geocoding_level": 8,
      "phone": "",
      "license_no": "第07242604号",
      "license_date": "2022-12-21",
      "expire_date": "2029-07-31"
    },
    {
      "name": "ＣＨＥＢＵ　ＦＡＣＴＯＲＹ",
      "name_kana": "",
      "business_type": "飲食店営業",
      "address": "下伊那郡阿智村伍和１９２４－１",
      "lat": 35.43033929700001,
      "lng": 137.745139396,
      "geocoding_level": 8,
      "phone": "",
      "license_no": "第07244014号",
      "license_date": "2023-07-07",
      "expire_date": "2028-07-31"
    },
    {
      "name": "やま星",
      "name_kana": "",
      "business_type": "食肉販売業",
      "address": "下伊那郡阿智村駒場２００７－４",
      "lat": 35.445384,
      "lng": 137.738273,
      "geocoding_level": 3,
      "phone": "",
      "license_no": "第07242629号",
      "license_date": "2022-12-21",
      "expire_date": "2029-07-31"
    },
    {
      "name": "トゥルヌソル",
      "name_kana": "",
      "business_type": "飲食店営業",
      "address": "下伊那郡阿智村浪合１２３３　向団地１６－１",
      "lat": 35.384101,
      "lng": 137.683604,
      "geocoding_level": 3,
      "phone": "",
      "license_no": "第07245041号",
      "license_date": "2023-10-16",
      "expire_date": "2029-07-31"
    },
    {
      "name": "トゥルヌソル",
      "name_kana": "",
      "business_type": "飲食店営業",
      "address": "下伊那郡阿智村浪合１２３３　向団地１６－１",
      "lat": 35.384101,
      "lng": 137.683604,
      "geocoding_level": 3,
      "phone": "",
      "license_no": "第07245059号",
      "license_date": "2023-10-16",
      "expire_date": "2029-07-31"
    },
    {
      "name": "駄菓子菓子",
      "name_kana": "",
      "business_type": "飲食店営業",
      "address": "下伊那郡阿智村浪合１１４２－４",
      "lat": 35.38303131,
      "lng": 137.684338808,
      "geocoding_level": 8,
      "phone": "",
      "license_no": "第07247722号",
      "license_date": "2024-10-03",
      "expire_date": "2031-07-31"
    },
    {
      "name": "駄菓子菓子",
      "name_kana": "",
      "business_type": "菓子製造業",
      "address": "下伊那郡阿智村浪合１１４２－４",
      "lat": 35.38303131,
      "lng": 137.684338808,
      "geocoding_level": 8,
      "phone": "",
      "license_no": "第07247730号",
      "license_date": "2024-10-03",
      "expire_date": "2031-07-31"
    },
    {
      "name": "あちっこ",
      "name_kana": "",
      "business_type": "飲食店営業",
      "address": "下伊那郡阿智村伍和６７２９",
      "lat": 35.417887895,
      "lng": 137.763286984,
      "geocoding_level": 8,
      "phone": "",
      "license_no": "第07243542号",
      "license_date": "2023-05-18",
      "expire_date": "2028-07-31"
    },
    {
      "name": "あちっこ",
      "name_kana": "",
      "business_type": "飲食店営業",
      "address": "下伊那郡阿智村伍和６７２９",
      "lat": 35.417887895,
      "lng": 137.763286984,
      "geocoding_level": 8,
      "phone": "",
      "license_no": "第07246556号",
      "license_date": "2024-05-29",
      "expire_date": "2029-05-31"
    },
    {
      "name": "ｃａｌｆ　ｃｒｅｐｅ　ｃａｆｅ　キッチンカー",
      "name_kana": "",
      "business_type": "飲食店営業",
      "address": "下伊那郡阿智村駒場１６６０",
      "lat": 35.445384,
      "lng": 137.738273,
      "geocoding_level": 3,
      "phone": "",
      "license_no": "第07243688号",
      "license_date": "2023-06-13",
      "expire_date": "2028-10-31"
    },
    {
      "name": "石苔亭いしだ",
      "name_kana": "",
      "business_type": "そうざい製造業",
      "address": "下伊那郡阿智村智里３３２－３",
      "lat": 35.456067949,
      "lng": 137.714496072,
      "geocoding_level": 8,
      "phone": "",
      "license_no": "第07248176号",
      "license_date": "2024-11-13",
      "expire_date": "2031-07-31"
    },
    {
      "name": "Ｐａｗ　Ｔｅｒｒａｃｅ",
      "name_kana": "",
      "business_type": "飲食店営業",
      "address": "下伊那郡阿智村智里３７８－１",
      "lat": 35.456490683,
      "lng": 137.715130037,
      "geocoding_level": 8,
      "phone": "",
      "license_no": "第07248621号",
      "license_date": "2025-02-21",
      "expire_date": "2031-08-31"
    },
    {
      "name": "石苔亭いしだ",
      "name_kana": "",
      "business_type": "飲食店営業",
      "address": "下伊那郡阿智村智里３３２―３",
      "lat": 35.456067949,
      "lng": 137.714496072,
      "geocoding_level": 8,
      "phone": "",
      "license_no": "第07125185号",
      "license_date": "2025-07-31",
      "expire_date": "2031-07-31"
    },
    {
      "name": "石苔亭いしだ　茶壷",
      "name_kana": "",
      "business_type": "飲食店営業",
      "address": "下伊那郡阿智村智里３３２―３",
      "lat": 35.456067949,
      "lng": 137.714496072,
      "geocoding_level": 8,
      "phone": "",
      "license_no": "第07125211号",
      "license_date": "2025-07-31",
      "expire_date": "2030-07-31"
    },
    {
      "name": "Ｗａｆｕｒｕ　南信州菓子工房",
      "name_kana": "",
      "business_type": "飲食店営業",
      "address": "下伊那郡阿智村駒場４３４－１",
      "lat": 35.445384,
      "lng": 137.738273,
      "geocoding_level": 3,
      "phone": "",
      "license_no": "第07244092号",
      "license_date": "2023-07-12",
      "expire_date": "2029-07-31"
    },
    {
      "name": "Ｗａｆｕｒｕ　南信州菓子工房",
      "name_kana": "",
      "business_type": "菓子製造業",
      "address": "下伊那郡阿智村駒場４３４－１",
      "lat": 35.445384,
      "lng": 137.738273,
      "geocoding_level": 3,
      "phone": "",
      "license_no": "第07244085号",
      "license_date": "2023-07-12",
      "expire_date": "2029-07-31"
    },
    {
      "name": "尾張旭市保養センター　尾張あさひ苑",
      "name_kana": "",
      "business_type": "飲食店営業",
      "address": "下伊那郡阿智村智里３３１－７",
      "lat": 35.456152849,
      "lng": 137.713653986,
      "geocoding_level": 8,
      "phone": "",
      "license_no": "第07244217号",
      "license_date": "2023-07-19",
      "expire_date": "2029-07-31"
    },
    {
      "name": "青木屋",
      "name_kana": "",
      "business_type": "飲食店営業",
      "address": "下伊那郡阿智村智里４２２４－１",
      "lat": 35.438500901,
      "lng": 137.650280188,
      "geocoding_level": 8,
      "phone": "",
      "license_no": "第07184187号",
      "license_date": "2023-07-31",
      "expire_date": "2029-07-31"
    },
    {
      "name": "青木屋",
      "name_kana": "",
      "business_type": "そうざい製造業",
      "address": "下伊那郡阿智村智里４２２４－１",
      "lat": 35.438500901,
      "lng": 137.650280188,
      "geocoding_level": 8,
      "phone": "",
      "license_no": "第07184170号",
      "license_date": "2023-07-31",
      "expire_date": "2029-07-31"
    },
    {
      "name": "あっくん畑",
      "name_kana": "",
      "business_type": "飲食店営業",
      "address": "下伊那郡阿智村浪合317-2",
      "lat": 35.38725835,
      "lng": 137.683541658,
      "geocoding_level": 8,
      "phone": "",
      "license_no": "第07244466号",
      "license_date": "2023-08-10",
      "expire_date": "2028-08-31"
    },
    {
      "name": "Ｈｉｒｏ",
      "name_kana": "",
      "business_type": "飲食店営業",
      "address": "下伊那郡阿智村浪合１１９２－８７３",
      "lat": 35.358837314,
      "lng": 137.672376957,
      "geocoding_level": 8,
      "phone": "",
      "license_no": "第07227794号",
      "license_date": "2023-07-31",
      "expire_date": "2029-07-31"
    },
    {
      "name": "谷尻商店",
      "name_kana": "",
      "business_type": "飲食店営業",
      "address": "下伊那郡阿智村浪合５９",
      "lat": 35.400031594,
      "lng": 137.691265547,
      "geocoding_level": 8,
      "phone": "",
      "license_no": "第07246912号",
      "license_date": "2024-07-11",
      "expire_date": "2029-07-31"
    },
    {
      "name": "谷尻商店",
      "name_kana": "",
      "business_type": "飲食店営業",
      "address": "下伊那郡阿智村浪合５９",
      "lat": 35.400031594,
      "lng": 137.691265547,
      "geocoding_level": 8,
      "phone": "",
      "license_no": "第07246920号",
      "license_date": "2024-07-11",
      "expire_date": "2029-07-31"
    },
    {
      "name": "谷尻商店",
      "name_kana": "",
      "business_type": "飲食店営業",
      "address": "下伊那郡阿智村智里西　花もも特設会場",
      "lat": 35.445375,
      "lng": 137.659654,
      "geocoding_level": 3,
      "phone": "",
      "license_no": "第07218839号",
      "license_date": "2024-07-31",
      "expire_date": "2029-07-31"
    },
    {
      "name": "日長庵　桂月",
      "name_kana": "",
      "business_type": "飲食店営業",
      "address": "下伊那郡阿智村智里４２５",
      "lat": 35.445375,
      "lng": 137.659654,
      "geocoding_level": 3,
      "phone": "",
      "license_no": "第07135838号",
      "license_date": "2023-07-31",
      "expire_date": "2029-07-31"
    },
    {
      "name": "日長庵　桂月",
      "name_kana": "",
      "business_type": "飲食店営業",
      "address": "下伊那郡阿智村智里４２５",
      "lat": 35.445375,
      "lng": 137.659654,
      "geocoding_level": 3,
      "phone": "",
      "license_no": "第07135821号",
      "license_date": "2023-07-31",
      "expire_date": "2029-07-31"
    },
    {
      "name": "阿智村多機能型事業所　夢のつばさ",
      "name_kana": "",
      "business_type": "飲食店営業",
      "address": "下伊那郡阿智村春日３２９１番地４",
      "lat": 35.454668,
      "lng": 137.750308,
      "geocoding_level": 3,
      "phone": "",
      "license_no": "第07184739号",
      "license_date": "2023-07-31",
      "expire_date": "2029-07-31"
    },
    {
      "name": "喫茶　ふらっとホッと",
      "name_kana": "",
      "business_type": "飲食店営業",
      "address": "下伊那郡阿智村駒場４２６ （ショッピングタウンピア内）",
      "lat": 35.445384,
      "lng": 137.738273,
      "geocoding_level": 3,
      "phone": "",
      "license_no": "第07206089号",
      "license_date": "2023-07-31",
      "expire_date": "2029-07-31"
    },
    {
      "name": "阿智村多機能型事業所　夢のつばさ",
      "name_kana": "",
      "business_type": "菓子製造業",
      "address": "下伊那郡阿智村春日３２９１番地４",
      "lat": 35.454668,
      "lng": 137.750308,
      "geocoding_level": 3,
      "phone": "",
      "license_no": "第07184746号",
      "license_date": "2023-07-31",
      "expire_date": "2029-07-31"
    },
    {
      "name": "株式会社　三日庵",
      "name_kana": "",
      "business_type": "飲食店営業",
      "address": "下伊那郡阿智村智里３３６６番地８",
      "lat": 35.437354944,
      "lng": 137.707454036,
      "geocoding_level": 8,
      "phone": "",
      "license_no": "第07207013号",
      "license_date": "2023-07-31",
      "expire_date": "2029-07-31"
    },
    {
      "name": "ごか食堂",
      "name_kana": "",
      "business_type": "飲食店営業",
      "address": "下伊那郡阿智村伍和４８２－２",
      "lat": 35.441325487,
      "lng": 137.751813136,
      "geocoding_level": 8,
      "phone": "",
      "license_no": "第07208325号",
      "license_date": "2023-07-31",
      "expire_date": "2029-07-31"
    },
    {
      "name": "韓国料理山ちゃん",
      "name_kana": "",
      "business_type": "飲食店営業",
      "address": "下伊那郡阿智村智里４２２－１",
      "lat": 35.45758963,
      "lng": 137.714014845,
      "geocoding_level": 8,
      "phone": "",
      "license_no": "第07208695号",
      "license_date": "2023-07-31",
      "expire_date": "2029-07-31"
    },
    {
      "name": "なみあい遊楽館",
      "name_kana": "",
      "business_type": "飲食店営業",
      "address": "下伊那郡阿智村浪合１５６１",
      "lat": 35.388725964,
      "lng": 137.688425354,
      "geocoding_level": 8,
      "phone": "",
      "license_no": "第07208859号",
      "license_date": "2023-07-31",
      "expire_date": "2029-07-31"
    },
    {
      "name": "スナック　輝龍",
      "name_kana": "",
      "business_type": "飲食店営業",
      "address": "下伊那郡阿智村駒場５２３",
      "lat": 35.445384,
      "lng": 137.738273,
      "geocoding_level": 3,
      "phone": "",
      "license_no": "第07230908号",
      "license_date": "2023-07-31",
      "expire_date": "2028-07-31"
    },
    {
      "name": "スナック　輝龍",
      "name_kana": "",
      "business_type": "飲食店営業",
      "address": "下伊那郡阿智村駒場５２３",
      "lat": 35.445384,
      "lng": 137.738273,
      "geocoding_level": 3,
      "phone": "",
      "license_no": "第07216051号",
      "license_date": "2023-07-31",
      "expire_date": "2028-07-31"
    },
    {
      "name": "スナック　輝龍",
      "name_kana": "",
      "business_type": "飲食店営業",
      "address": "下伊那郡阿智村駒場５２３",
      "lat": 35.445384,
      "lng": 137.738273,
      "geocoding_level": 3,
      "phone": "",
      "license_no": "第07216069号",
      "license_date": "2023-07-31",
      "expire_date": "2028-07-31"
    },
    {
      "name": "輝龍",
      "name_kana": "",
      "business_type": "飲食店営業",
      "address": "下伊那郡阿智村駒場５３５－１",
      "lat": 35.445384,
      "lng": 137.738273,
      "geocoding_level": 3,
      "phone": "",
      "license_no": "第07213661号",
      "license_date": "2025-07-31",
      "expire_date": "2031-07-31"
    },
    {
      "name": "癒楽の宿　清風苑　スナック喫茶（万葉）",
      "name_kana": "",
      "business_type": "飲食店営業",
      "address": "下伊那郡阿智村智里３３８番地１９",
      "lat": 35.457055525,
      "lng": 137.712874204,
      "geocoding_level": 8,
      "phone": "",
      "license_no": "第07178469号",
      "license_date": "2023-07-31",
      "expire_date": "2028-07-31"
    },
    {
      "name": "癒楽の宿　清風苑　喫茶（リラクゼーションルーム）",
      "name_kana": "",
      "business_type": "飲食店営業",
      "address": "下伊那郡阿智村智里３３８番地１９",
      "lat": 35.457055525,
      "lng": 137.712874204,
      "geocoding_level": 8,
      "phone": "",
      "license_no": "第07178476号",
      "license_date": "2023-07-31",
      "expire_date": "2028-07-31"
    },
    {
      "name": "癒楽の宿　清風苑",
      "name_kana": "",
      "business_type": "飲食店営業",
      "address": "下伊那郡阿智村智里３３８番地１９",
      "lat": 35.457055525,
      "lng": 137.712874204,
      "geocoding_level": 8,
      "phone": "",
      "license_no": "第07178444号",
      "license_date": "2024-07-31",
      "expire_date": "2030-07-31"
    },
    {
      "name": "デイリーヤマザキ阿智パーキングエリア上り店",
      "name_kana": "",
      "business_type": "飲食店営業",
      "address": "下伊那郡阿智村駒場１１７－１",
      "lat": 35.445384,
      "lng": 137.738273,
      "geocoding_level": 3,
      "phone": "",
      "license_no": "第07196353号",
      "license_date": "2023-07-31",
      "expire_date": "2028-07-31"
    },
    {
      "name": "（有）昼神食品",
      "name_kana": "",
      "business_type": "魚介類販売業",
      "address": "下伊那郡阿智村智里７２５－３",
      "lat": 35.44888581,
      "lng": 137.720477157,
      "geocoding_level": 8,
      "phone": "",
      "license_no": "第07185531号",
      "license_date": "2023-07-31",
      "expire_date": "2029-07-31"
    },
    {
      "name": "不動温泉花菱ラウンジコーナー　あや",
      "name_kana": "",
      "business_type": "飲食店営業",
      "address": "下伊那郡阿智村浪合２５４番地１",
      "lat": 35.390114967,
      "lng": 137.682053599,
      "geocoding_level": 8,
      "phone": "",
      "license_no": "第07176991号",
      "license_date": "2023-07-31",
      "expire_date": "2028-07-31"
    },
    {
      "name": "不動温泉花菱",
      "name_kana": "",
      "business_type": "飲食店営業",
      "address": "下伊那郡阿智村浪合２５４－１",
      "lat": 35.390114967,
      "lng": 137.682053599,
      "geocoding_level": 8,
      "phone": "",
      "license_no": "第07172338号",
      "license_date": "2025-07-31",
      "expire_date": "2031-07-31"
    },
    {
      "name": "（有）湯川沢",
      "name_kana": "",
      "business_type": "飲食店営業",
      "address": "下伊那郡阿智村春日１６５７",
      "lat": 35.454668,
      "lng": 137.750308,
      "geocoding_level": 3,
      "phone": "",
      "license_no": "第07141734号",
      "license_date": "2024-07-31",
      "expire_date": "2030-07-31"
    },
    {
      "name": "（有）湯川沢",
      "name_kana": "",
      "business_type": "魚介類販売業",
      "address": "下伊那郡阿智村春日１６５７",
      "lat": 35.454668,
      "lng": 137.750308,
      "geocoding_level": 3,
      "phone": "",
      "license_no": "第07141741号",
      "license_date": "2024-07-31",
      "expire_date": "2030-07-31"
    },
    {
      "name": "（有）湯川沢",
      "name_kana": "",
      "business_type": "そうざい製造業",
      "address": "下伊那郡阿智村春日１６５７",
      "lat": 35.454668,
      "lng": 137.750308,
      "geocoding_level": 3,
      "phone": "",
      "license_no": "第07141759号",
      "license_date": "2024-07-31",
      "expire_date": "2030-07-31"
    },
    {
      "name": "治部坂十割そば",
      "name_kana": "",
      "business_type": "飲食店営業",
      "address": "下伊那郡阿智村浪合１１８６－１",
      "lat": 35.353781493,
      "lng": 137.668916839,
      "geocoding_level": 8,
      "phone": "",
      "license_no": "第07229197号",
      "license_date": "2024-07-31",
      "expire_date": "2030-07-31"
    },
    {
      "name": "ふるさと村自然園せいなの森キャンプ場",
      "name_kana": "",
      "business_type": "飲食店営業",
      "address": "下伊那郡阿智村清内路２９９１",
      "lat": 35.511995,
      "lng": 137.693791,
      "geocoding_level": 3,
      "phone": "",
      "license_no": "第07230527号",
      "license_date": "2024-07-31",
      "expire_date": "2030-07-31"
    },
    {
      "name": "昼神荘",
      "name_kana": "",
      "business_type": "飲食店営業",
      "address": "下伊那郡阿智村智里３３８－２１",
      "lat": 35.457795875,
      "lng": 137.712300731,
      "geocoding_level": 8,
      "phone": "",
      "license_no": "第07144901号",
      "license_date": "2024-07-31",
      "expire_date": "2030-07-31"
    },
    {
      "name": "あひる",
      "name_kana": "",
      "business_type": "飲食店営業",
      "address": "下伊那郡阿智村智里２０－４",
      "lat": 35.45464843,
      "lng": 137.718033134,
      "geocoding_level": 8,
      "phone": "",
      "license_no": "第07168884号",
      "license_date": "2024-07-31",
      "expire_date": "2030-07-31"
    },
    {
      "name": "ひるがみ茶屋",
      "name_kana": "",
      "business_type": "飲食店営業",
      "address": "下伊那郡阿智村智里３４６－２２",
      "lat": 35.455003619,
      "lng": 137.71536429,
      "geocoding_level": 8,
      "phone": "",
      "license_no": "第07187921号",
      "license_date": "2024-07-31",
      "expire_date": "2030-07-31"
    },
    {
      "name": "ひるがみ茶屋",
      "name_kana": "",
      "business_type": "菓子製造業",
      "address": "下伊那郡阿智村智里３４６－２２",
      "lat": 35.455003619,
      "lng": 137.71536429,
      "geocoding_level": 8,
      "phone": "",
      "license_no": "第07187938号",
      "license_date": "2024-07-31",
      "expire_date": "2030-07-31"
    },
    {
      "name": "お宿　山翠",
      "name_kana": "",
      "business_type": "飲食店営業",
      "address": "下伊那郡阿智村智里２９０－１",
      "lat": 35.454065057,
      "lng": 137.717486615,
      "geocoding_level": 8,
      "phone": "",
      "license_no": "第07158211号",
      "license_date": "2024-07-31",
      "expire_date": "2030-07-31"
    },
    {
      "name": "湯元ホテル阿智川",
      "name_kana": "",
      "business_type": "飲食店営業",
      "address": "下伊那郡阿智村智里５０３－１１５",
      "lat": 35.461428692,
      "lng": 137.708691681,
      "geocoding_level": 8,
      "phone": "",
      "license_no": "第07165863号",
      "license_date": "2024-07-31",
      "expire_date": "2029-07-31"
    },
    {
      "name": "有限会社　あちの里",
      "name_kana": "",
      "business_type": "飲食店営業",
      "address": "下伊那郡阿智村伍和５５７１－１",
      "lat": 35.422588944,
      "lng": 137.752350347,
      "geocoding_level": 8,
      "phone": "",
      "license_no": "第07183046号",
      "license_date": "2024-07-31",
      "expire_date": "2029-07-31"
    },
    {
      "name": "阿智村中央公民館",
      "name_kana": "",
      "business_type": "飲食店営業",
      "address": "下伊那郡阿智村駒場４６８－１",
      "lat": 35.445384,
      "lng": 137.738273,
      "geocoding_level": 3,
      "phone": "",
      "license_no": "第07199335号",
      "license_date": "2024-07-31",
      "expire_date": "2029-07-31"
    },
    {
      "name": "レストラン　まなーま",
      "name_kana": "",
      "business_type": "飲食店営業",
      "address": "下伊那郡阿智村春日２２６５－４",
      "lat": 35.454668,
      "lng": 137.750308,
      "geocoding_level": 3,
      "phone": "",
      "license_no": "第07200741号",
      "license_date": "2024-07-31",
      "expire_date": "2029-07-31"
    },
    {
      "name": "レストランまなーま",
      "name_kana": "",
      "business_type": "飲食店営業",
      "address": "下伊那郡阿智村智里西　花もも祭会場",
      "lat": 35.445375,
      "lng": 137.659654,
      "geocoding_level": 3,
      "phone": "",
      "license_no": "第07218732号",
      "license_date": "2024-07-31",
      "expire_date": "2029-07-31"
    },
    {
      "name": "ＡＣＨＩ　ＢＡＳＥ（阿智ベース）",
      "name_kana": "",
      "business_type": "飲食店営業",
      "address": "下伊那郡阿智村智里３３８－２５",
      "lat": 35.45836564,
      "lng": 137.711616208,
      "geocoding_level": 8,
      "phone": "",
      "license_no": "第07229514号",
      "license_date": "2024-07-31",
      "expire_date": "2030-07-31"
    },
    {
      "name": "昼神キヲスク",
      "name_kana": "",
      "business_type": "飲食店営業",
      "address": "下伊那郡阿智村智里３４７－１",
      "lat": 35.455230613,
      "lng": 137.715637315,
      "geocoding_level": 8,
      "phone": "",
      "license_no": "第07233815号",
      "license_date": "2024-07-31",
      "expire_date": "2029-07-31"
    },
    {
      "name": "料理旅館　むらさわ",
      "name_kana": "",
      "business_type": "飲食店営業",
      "address": "下伊那郡阿智村智里２６０－１",
      "lat": 35.455417036,
      "lng": 137.716521211,
      "geocoding_level": 8,
      "phone": "",
      "license_no": "第07165490号",
      "license_date": "2024-07-31",
      "expire_date": "2029-07-31"
    },
    {
      "name": "清内路郷土食の会",
      "name_kana": "",
      "business_type": "飲食店営業",
      "address": "下伊那郡阿智村清内路３９５番地２",
      "lat": 35.487817813,
      "lng": 137.701325233,
      "geocoding_level": 8,
      "phone": "",
      "license_no": "第07210995号",
      "license_date": "2024-07-31",
      "expire_date": "2030-07-31"
    },
    {
      "name": "野熊の庄　月川",
      "name_kana": "",
      "business_type": "飲食店営業",
      "address": "下伊那郡阿智村智里４０９２－７",
      "lat": 35.445191479,
      "lng": 137.662814186,
      "geocoding_level": 8,
      "phone": "",
      "license_no": "第07234479号",
      "license_date": "2024-07-31",
      "expire_date": "2029-07-31"
    },
    {
      "name": "野熊の庄　月川",
      "name_kana": "",
      "business_type": "飲食店営業",
      "address": "下伊那郡阿智村智里４０９２－７",
      "lat": 35.445191479,
      "lng": 137.662814186,
      "geocoding_level": 8,
      "phone": "",
      "license_no": "第07234461号",
      "license_date": "2025-07-31",
      "expire_date": "2031-07-31"
    },
    {
      "name": "一般財団法人阿智開発公社　湯ったり－な　昼神",
      "name_kana": "",
      "business_type": "飲食店営業",
      "address": "下伊那郡阿智村智里３７０－１",
      "lat": 35.456053461,
      "lng": 137.715487154,
      "geocoding_level": 8,
      "phone": "",
      "license_no": "第07172046号",
      "license_date": "2025-07-31",
      "expire_date": "2031-07-31"
    },
    {
      "name": "やま星",
      "name_kana": "",
      "business_type": "飲食店営業",
      "address": "下伊那郡阿智村駒場２００７－４",
      "lat": 35.445384,
      "lng": 137.738273,
      "geocoding_level": 3,
      "phone": "",
      "license_no": "第07241185号",
      "license_date": "2022-05-24",
      "expire_date": "2028-07-31"
    },
    {
      "name": "株式会社Ｂｒａｎｄｓ",
      "name_kana": "",
      "business_type": "飲食店営業",
      "address": "下伊那郡阿智村駒場６２０－１",
      "lat": 35.445384,
      "lng": 137.738273,
      "geocoding_level": 3,
      "phone": "",
      "license_no": "第07247708号",
      "license_date": "2024-10-02",
      "expire_date": "2029-10-31"
    },
    {
      "name": "四季の織 はなや",
      "name_kana": "",
      "business_type": "飲食店営業",
      "address": "下伊那郡阿智村智里５３０―１",
      "lat": 35.45393321,
      "lng": 137.711537836,
      "geocoding_level": 8,
      "phone": "",
      "license_no": "第07125922号",
      "license_date": "2025-07-31",
      "expire_date": "2031-07-31"
    },
    {
      "name": "みつば",
      "name_kana": "",
      "business_type": "飲食店営業",
      "address": "下伊那郡阿智村智里西　花桃会場",
      "lat": 35.445375,
      "lng": 137.659654,
      "geocoding_level": 3,
      "phone": "",
      "license_no": "第07248856号",
      "license_date": "2025-04-14",
      "expire_date": "2030-05-31"
    },
    {
      "name": "昼神温泉グランドホテル　天心",
      "name_kana": "",
      "business_type": "飲食店営業",
      "address": "下伊那郡阿智村智里３３１－５",
      "lat": 35.455341296,
      "lng": 137.71441451800004,
      "geocoding_level": 8,
      "phone": "",
      "license_no": "第07182777号",
      "license_date": "2025-07-31",
      "expire_date": "2031-07-31"
    },
    {
      "name": "Ｃａｆｅ＆Ｌｏｕｎｇｅ　やごころ",
      "name_kana": "",
      "business_type": "飲食店営業",
      "address": "下伊那郡阿智村智里５３０－１",
      "lat": 35.45393321,
      "lng": 137.711537836,
      "geocoding_level": 8,
      "phone": "",
      "license_no": "第07248824号",
      "license_date": "2025-04-09",
      "expire_date": "2030-07-31"
    },
    {
      "name": "くらら",
      "name_kana": "",
      "business_type": "飲食店営業",
      "address": "下伊那郡阿智村浪合１１９２－８７３",
      "lat": 35.358837314,
      "lng": 137.672376957,
      "geocoding_level": 8,
      "phone": "",
      "license_no": "第07249723号",
      "license_date": "2025-08-06",
      "expire_date": "2031-08-31"
    },
    {
      "name": "治部坂くらら",
      "name_kana": "",
      "business_type": "食肉販売業",
      "address": "下伊那郡阿智村浪合１１０２－８７３",
      "lat": 35.384101,
      "lng": 137.683604,
      "geocoding_level": 3,
      "phone": "",
      "license_no": "第07250177号",
      "license_date": "2025-09-26",
      "expire_date": "2032-08-31"
    },
    {
      "name": "うどんや　こいけ",
      "name_kana": "",
      "business_type": "飲食店営業",
      "address": "下伊那郡阿智村駒場２４５－１２",
      "lat": 35.445384,
      "lng": 137.738273,
      "geocoding_level": 3,
      "phone": "",
      "license_no": "第07233612号",
      "license_date": "2025-07-31",
      "expire_date": "2031-07-31"
    },
    {
      "name": "大坂屋",
      "name_kana": "",
      "business_type": "飲食店営業",
      "address": "下伊那郡阿智村駒場１１７９―２",
      "lat": 35.445384,
      "lng": 137.738273,
      "geocoding_level": 3,
      "phone": "",
      "license_no": "第07041206号",
      "license_date": "2025-07-31",
      "expire_date": "2031-07-31"
    },
    {
      "name": "みはらし",
      "name_kana": "",
      "business_type": "飲食店営業",
      "address": "下伊那郡阿智村浪合１１３９―２",
      "lat": 35.382778128,
      "lng": 137.669570383,
      "geocoding_level": 8,
      "phone": "",
      "license_no": "第07041805号",
      "license_date": "2025-07-31",
      "expire_date": "2031-07-31"
    },
    {
      "name": "（株）湯元ホテル阿智川　万葉館",
      "name_kana": "",
      "business_type": "飲食店営業",
      "address": "下伊那郡阿智村智里５０３―１１５",
      "lat": 35.461428692,
      "lng": 137.708691681,
      "geocoding_level": 8,
      "phone": "",
      "license_no": "第07125438号",
      "license_date": "2025-07-31",
      "expire_date": "2031-07-31"
    },
    {
      "name": "湯元ホテル阿智川",
      "name_kana": "",
      "business_type": "飲食店営業",
      "address": "下伊那郡阿智村智里５０３－１１５",
      "lat": 35.461428692,
      "lng": 137.708691681,
      "geocoding_level": 8,
      "phone": "",
      "license_no": "第07162671号",
      "license_date": "2025-07-31",
      "expire_date": "2031-07-31"
    },
    {
      "name": "阿智村ジビエ加工施設",
      "name_kana": "",
      "business_type": "食肉処理業",
      "address": "下伊那郡阿智村智里６２８－１",
      "lat": 35.449549897,
      "lng": 137.72677468,
      "geocoding_level": 8,
      "phone": "",
      "license_no": "第07250024号",
      "license_date": "2025-09-05",
      "expire_date": "2032-07-31"
    },
    {
      "name": "和食処　舟よし",
      "name_kana": "",
      "business_type": "飲食店営業",
      "address": "下伊那郡阿智村春日２０５７―３",
      "lat": 35.454668,
      "lng": 137.750308,
      "geocoding_level": 3,
      "phone": "",
      "license_no": "第07128078号",
      "license_date": "2025-07-31",
      "expire_date": "2031-07-31"
    },
    {
      "name": "スナック＆喫茶　まみあな",
      "name_kana": "",
      "business_type": "飲食店営業",
      "address": "下伊那郡阿智村智里４０８",
      "lat": 35.445375,
      "lng": 137.659654,
      "geocoding_level": 3,
      "phone": "",
      "license_no": "第07103460号",
      "license_date": "2025-07-31",
      "expire_date": "2030-07-31"
    },
    {
      "name": "ロ－ソン阿智駒場店",
      "name_kana": "",
      "business_type": "飲食店営業",
      "address": "下伊那郡阿智村駒場４９６－１",
      "lat": 35.445384,
      "lng": 137.738273,
      "geocoding_level": 3,
      "phone": "",
      "license_no": "第07168795号",
      "license_date": "2025-07-31",
      "expire_date": "2030-07-31"
    },
    {
      "name": "南国飯店",
      "name_kana": "",
      "business_type": "飲食店営業",
      "address": "下伊那郡阿智村駒場１５０２―２",
      "lat": 35.445384,
      "lng": 137.738273,
      "geocoding_level": 3,
      "phone": "",
      "license_no": "第07041471号",
      "license_date": "2025-07-31",
      "expire_date": "2031-07-31"
    },
    {
      "name": "ユルイの宿　恵山",
      "name_kana": "",
      "business_type": "飲食店営業",
      "address": "下伊那郡阿智村智里４０７",
      "lat": 35.457119094,
      "lng": 137.713907573,
      "geocoding_level": 8,
      "phone": "",
      "license_no": "第07154087号",
      "license_date": "2025-07-31",
      "expire_date": "2031-07-31"
    },
    {
      "name": "玄竹株式会社",
      "name_kana": "",
      "business_type": "飲食店営業",
      "address": "下伊那郡阿智村智里３３１番地８",
      "lat": 35.45641089,
      "lng": 137.71333111800004,
      "geocoding_level": 8,
      "phone": "",
      "license_no": "第07215106号",
      "license_date": "2025-07-31",
      "expire_date": "2031-07-31"
    },
    {
      "name": "長田屋商店",
      "name_kana": "",
      "business_type": "豆腐製造業",
      "address": "下伊那郡阿智村清内路２４６０―３",
      "lat": 35.508155102,
      "lng": 137.677594144,
      "geocoding_level": 8,
      "phone": "",
      "license_no": "第07022880号",
      "license_date": "2025-07-31",
      "expire_date": "2030-07-31"
    },
    {
      "name": "ナイトイン阿智川",
      "name_kana": "",
      "business_type": "飲食店営業",
      "address": "下伊那郡阿智村智里５０３－１１５",
      "lat": 35.461428692,
      "lng": 137.708691681,
      "geocoding_level": 8,
      "phone": "",
      "license_no": "第07133731号",
      "license_date": "2025-07-31",
      "expire_date": "2030-07-31"
    },
    {
      "name": "古民家つぼや",
      "name_kana": "",
      "business_type": "飲食店営業",
      "address": "下伊那郡阿智村駒場１１５１",
      "lat": 35.445384,
      "lng": 137.738273,
      "geocoding_level": 3,
      "phone": "",
      "license_no": "第07250526号",
      "license_date": "2025-11-12",
      "expire_date": "2032-07-31"
    },
    {
      "name": "ひなたばた",
      "name_kana": "",
      "business_type": "飲食店営業",
      "address": "下伊那郡阿智村駒場７０３－１",
      "lat": 35.445384,
      "lng": 137.738273,
      "geocoding_level": 3,
      "phone": "",
      "license_no": "第07250622号",
      "license_date": "2025-11-26",
      "expire_date": "2032-07-31"
    },
    {
      "name": "ひるがみの森（旅館　本厨房）",
      "name_kana": "",
      "business_type": "飲食店営業",
      "address": "下伊那郡阿智村智里５６７－１０",
      "lat": 35.454032848,
      "lng": 137.713760988,
      "geocoding_level": 8,
      "phone": "",
      "license_no": "第07235691号",
      "license_date": "2020-02-19",
      "expire_date": "2026-07-31"
    },
    {
      "name": "昼神温泉ひるがみの森",
      "name_kana": "",
      "business_type": "菓子製造業",
      "address": "下伊那郡阿智村智里５６７－１０",
      "lat": 35.454032848,
      "lng": 137.713760988,
      "geocoding_level": 8,
      "phone": "",
      "license_no": "第07247882号",
      "license_date": "2024-10-16",
      "expire_date": "2031-07-31"
    },
    {
      "name": "木下工務所・リニア萩の平／広瀬",
      "name_kana": "",
      "business_type": "飲食店営業",
      "address": "下伊那郡阿智村春日２５０９",
      "lat": 35.454668,
      "lng": 137.750308,
      "geocoding_level": 3,
      "phone": "",
      "license_no": "第07251261号",
      "license_date": "2026-03-30",
      "expire_date": "2032-05-31"
    },
    {
      "name": "Ａ・コープラックあち店",
      "name_kana": "",
      "business_type": "飲食店営業",
      "address": "下伊那郡阿智村春日３２２０",
      "lat": 35.454668,
      "lng": 137.750308,
      "geocoding_level": 3,
      "phone": "",
      "license_no": "第07221618号",
      "license_date": "2021-07-30",
      "expire_date": "2027-07-31"
    },
    {
      "name": "Ａ・コープラックあち店",
      "name_kana": "",
      "business_type": "食肉販売業",
      "address": "下伊那郡阿智村春日３２２０",
      "lat": 35.454668,
      "lng": 137.750308,
      "geocoding_level": 3,
      "phone": "",
      "license_no": "第07221632号",
      "license_date": "2021-07-30",
      "expire_date": "2027-07-31"
    },
    {
      "name": "Ａ・コープラックあち店",
      "name_kana": "",
      "business_type": "魚介類販売業",
      "address": "下伊那郡阿智村春日３２２０",
      "lat": 35.454668,
      "lng": 137.750308,
      "geocoding_level": 3,
      "phone": "",
      "license_no": "第07221625号",
      "license_date": "2021-07-30",
      "expire_date": "2027-07-31"
    },
    {
      "name": "そば処おにひら　治部坂店",
      "name_kana": "",
      "business_type": "飲食店営業",
      "address": "下伊那郡阿智村浪合１１９２－２００６",
      "lat": 35.353697123,
      "lng": 137.669790157,
      "geocoding_level": 8,
      "phone": "",
      "license_no": "第07242320号",
      "license_date": "2022-10-26",
      "expire_date": "2029-07-31"
    },
    {
      "name": "そば処　おにひら　本店",
      "name_kana": "",
      "business_type": "飲食店営業",
      "address": "下伊那郡阿智村智里４４０５－１",
      "lat": 35.43134588,
      "lng": 137.698872182,
      "geocoding_level": 8,
      "phone": "",
      "license_no": "第07207084号",
      "license_date": "2023-07-31",
      "expire_date": "2029-07-31"
    },
    {
      "name": "一般社団法人阿智村全村博物館協会",
      "name_kana": "",
      "business_type": "飲食店営業",
      "address": "下伊那郡阿智村駒場１１５１",
      "lat": 35.445384,
      "lng": 137.738273,
      "geocoding_level": 3,
      "phone": "",
      "license_no": "第07251464号",
      "license_date": "2026-04-02",
      "expire_date": "2031-07-31"
    },
    {
      "name": "山下　尚之",
      "name_kana": "",
      "business_type": "飲食店営業",
      "address": "下伊那郡阿智村浪合９３４－２",
      "lat": 35.367093265,
      "lng": 137.714551149,
      "geocoding_level": 8,
      "phone": "",
      "license_no": "第07251521号",
      "license_date": "2026-04-08",
      "expire_date": "2032-07-31"
    },
    {
      "name": "山下　尚之",
      "name_kana": "",
      "business_type": "菓子製造業",
      "address": "下伊那郡阿智村浪合９３４－２",
      "lat": 35.367093265,
      "lng": 137.714551149,
      "geocoding_level": 8,
      "phone": "",
      "license_no": "第07251539号",
      "license_date": "2026-04-08",
      "expire_date": "2032-07-31"
    },
    {
      "name": "やごころＳａｋｅ Ｂａｒ地酒の館",
      "name_kana": "",
      "business_type": "飲食店営業",
      "address": "下伊那郡阿智村智里３１５－３",
      "lat": 35.454280684,
      "lng": 137.716540554,
      "geocoding_level": 8,
      "phone": "",
      "license_no": "第07251561号",
      "license_date": "2026-04-08",
      "expire_date": "2031-07-31"
    },
    {
      "name": "ファミリーマート阿智ＰＡ下り店",
      "name_kana": "",
      "business_type": "飲食店営業",
      "address": "下伊那郡阿智村駒場１２１－２",
      "lat": 35.445384,
      "lng": 137.738273,
      "geocoding_level": 3,
      "phone": "",
      "license_no": "第07196104号",
      "license_date": "2023-07-31",
      "expire_date": "2028-07-31"
    },
    {
      "name": "あららぎカントリークラブレストラン",
      "name_kana": "",
      "business_type": "飲食店営業",
      "address": "下伊那郡阿智村浪合恩田１５３",
      "lat": 35.384101,
      "lng": 137.683604,
      "geocoding_level": 3,
      "phone": "",
      "license_no": "第07233288号",
      "license_date": "2025-07-31",
      "expire_date": "2031-07-31"
    },
    {
      "name": "ファミリーマート　阿智ＰＡ下り",
      "name_kana": "ファミリーマート　アチパーキングエリアクダリ",
      "business_type": "⑩ コンビニエンスストア",
      "address": "長野県下伊那郡阿智村駒場１２１－２ 中央自動車道阿智ＰＡ（下り）",
      "lat": 35.448861,
      "lng": 137.746375,
      "geocoding_level": null,
      "phone": "0265-45-1044",
      "license_no": "",
      "license_date": null,
      "expire_date": null
    },
    {
      "name": "Ａ・コープラックあち店",
      "name_kana": "エーコープラックアチテン",
      "business_type": "③ 食肉販売業",
      "address": "長野県下伊那郡阿智村春日３２２０",
      "lat": 35.44851,
      "lng": 137.750185,
      "geocoding_level": null,
      "phone": "0265-43-2003",
      "license_no": "07221632",
      "license_date": "2021-07-30",
      "expire_date": "2027-07-31"
    },
    {
      "name": "Ａ・コープラックあち店",
      "name_kana": "エーコープラックアチテン",
      "business_type": "④ 魚介類販売業",
      "address": "長野県下伊那郡阿智村春日３２２０",
      "lat": 35.44851,
      "lng": 137.750185,
      "geocoding_level": null,
      "phone": "0265-43-2003",
      "license_no": "07221625",
      "license_date": "2021-07-30",
      "expire_date": "2027-07-31"
    },
    {
      "name": "Ａ・コープラックあち店",
      "name_kana": "エーコープラックアチテン",
      "business_type": "① 飲食店営業",
      "address": "長野県下伊那郡阿智村春日３２２０",
      "lat": 35.44851,
      "lng": 137.750185,
      "geocoding_level": null,
      "phone": "0265-43-2003",
      "license_no": "07221618",
      "license_date": "2021-07-30",
      "expire_date": "2027-07-31"
    },
    {
      "name": "古畑農産加工所",
      "name_kana": "フルハタノウサンカコウジョ",
      "business_type": "⑪ 菓子製造業",
      "address": "長野県下伊那郡阿智村智里２７２７－４",
      "lat": 35.446404,
      "lng": 137.716291,
      "geocoding_level": null,
      "phone": "",
      "license_no": "07238965",
      "license_date": "2021-06-04",
      "expire_date": "2027-07-31"
    },
    {
      "name": "古畑農産加工所",
      "name_kana": "フルハタノウサンカコウジョ",
      "business_type": "⑰ 農産保存食料品製造・加工業",
      "address": "長野県下伊那郡阿智村智里２７２７－４",
      "lat": 35.446401,
      "lng": 137.716312,
      "geocoding_level": null,
      "phone": "090-9354-2108",
      "license_no": "",
      "license_date": null,
      "expire_date": null
    },
    {
      "name": "古畑農産加工所",
      "name_kana": "フルハタノウサンカコウジョ",
      "business_type": "㉙ 漬物製造業",
      "address": "長野県下伊那郡阿智村智里２７２７－４",
      "lat": 35.446404,
      "lng": 137.716291,
      "geocoding_level": null,
      "phone": "090-9354-2108",
      "license_no": "07246450",
      "license_date": "2024-05-17",
      "expire_date": "2029-07-31"
    },
    {
      "name": "古畑農産加工所",
      "name_kana": "フルハタノウサンカコウジョ",
      "business_type": "㉕ そうざい製造業",
      "address": "長野県下伊那郡阿智村智里２７２７－４",
      "lat": 35.446404,
      "lng": 137.716291,
      "geocoding_level": null,
      "phone": "0265-43-4102",
      "license_no": "07217986",
      "license_date": "2024-07-31",
      "expire_date": "2029-07-31"
    },
    {
      "name": "サクライロ",
      "name_kana": "サクライロ",
      "business_type": "① 飲食店営業",
      "address": "長野県下伊那郡阿智村清内路2796-1",
      "lat": 35.510798,
      "lng": 137.676117,
      "geocoding_level": null,
      "phone": "080-7119-8008",
      "license_no": "07238980",
      "license_date": "2021-06-07",
      "expire_date": "2026-07-31"
    },
    {
      "name": "サクライロ",
      "name_kana": "サクライロ",
      "business_type": "⑦ 野菜果物販売業",
      "address": "長野県下伊那郡阿智村清内路２７９６－１",
      "lat": 35.507963,
      "lng": 137.694751,
      "geocoding_level": null,
      "phone": "080-7119-8008",
      "license_no": "",
      "license_date": null,
      "expire_date": null
    },
    {
      "name": "サクライロ",
      "name_kana": "サクライロ",
      "business_type": "⑬ その他の食料・飲料販売業",
      "address": "長野県下伊那郡阿智村清内路２７９６－１",
      "lat": 35.507963,
      "lng": 137.694751,
      "geocoding_level": null,
      "phone": "080-7119-8008",
      "license_no": "",
      "license_date": null,
      "expire_date": null
    },
    {
      "name": "サクライロ",
      "name_kana": "サクライロ",
      "business_type": "⑰ 農産保存食料品製造・加工業",
      "address": "長野県下伊那郡阿智村清内路２７９６－１",
      "lat": 35.507963,
      "lng": 137.694751,
      "geocoding_level": null,
      "phone": "080-7119-8008",
      "license_no": "",
      "license_date": null,
      "expire_date": null
    },
    {
      "name": "上枡",
      "name_kana": "カミマス",
      "business_type": "⑰ 農産保存食料品製造・加工業",
      "address": "長野県下伊那郡阿智村智里4879",
      "lat": 35.425054,
      "lng": 137.703244,
      "geocoding_level": null,
      "phone": "0265-43-2403",
      "license_no": "",
      "license_date": null,
      "expire_date": null
    },
    {
      "name": "Ｄｏｇｒｕｎ＆Ｃａｆｅ　ＲＯＵＴＥ☆Ａ",
      "name_kana": "ドッグランアンドカフェ　ルートエー",
      "business_type": "① 飲食店営業",
      "address": "長野県下伊那郡阿智村智里１８４３－２",
      "lat": 35.449996,
      "lng": 137.7199,
      "geocoding_level": null,
      "phone": "0265-49-9015",
      "license_no": "07248023",
      "license_date": "2024-10-30",
      "expire_date": "2031-07-31"
    },
    {
      "name": "株式会社ちさと東",
      "name_kana": "カブシキカイシャチサトヒガシ",
      "business_type": "⑨ 通信販売・訪問販売による販売業",
      "address": "長野県下伊那郡阿智村智里５５６－１",
      "lat": 35.451961,
      "lng": 137.714038,
      "geocoding_level": null,
      "phone": "0265-43-3938",
      "license_no": "",
      "license_date": null,
      "expire_date": null
    },
    {
      "name": "株式会社ちさと東",
      "name_kana": "カブシキカイシャチサトヒガシ",
      "business_type": "⑰ 農産保存食料品製造・加工業",
      "address": "長野県下伊那郡阿智村智里５５６－１",
      "lat": 35.451961,
      "lng": 137.714038,
      "geocoding_level": null,
      "phone": "0265-43-3938",
      "license_no": "",
      "license_date": null,
      "expire_date": null
    },
    {
      "name": "そば処おにひら本店",
      "name_kana": "ソバドコロオニヒラホンテン",
      "business_type": "⑦ 野菜果物販売業",
      "address": "長野県下伊那郡阿智村智里４４０５－１",
      "lat": 35.431431,
      "lng": 137.69879,
      "geocoding_level": null,
      "phone": "0265-43-3398",
      "license_no": "",
      "license_date": null,
      "expire_date": null
    },
    {
      "name": "そば処おにひら本店",
      "name_kana": "ソバドコロオニヒラホンテン",
      "business_type": "⑨ 通信販売・訪問販売による販売業",
      "address": "長野県下伊那郡阿智村智里４４０５－１",
      "lat": 35.431431,
      "lng": 137.69879,
      "geocoding_level": null,
      "phone": "0265-43-3398",
      "license_no": "",
      "license_date": null,
      "expire_date": null
    },
    {
      "name": "そば処おにひら本店",
      "name_kana": "ソバドコロオニヒラホンテン",
      "business_type": "⑳ 精穀・製粉業",
      "address": "長野県下伊那郡阿智村智里４４０５－１",
      "lat": 35.431431,
      "lng": 137.69879,
      "geocoding_level": null,
      "phone": "0265-43-3398",
      "license_no": "",
      "license_date": null,
      "expire_date": null
    },
    {
      "name": "そば処おにひら　治部坂店",
      "name_kana": "ソバドコロオニヒラ　ジブザカテン",
      "business_type": "① 飲食店営業",
      "address": "長野県下伊那郡阿智村浪合１１９２－２００６",
      "lat": 35.353668,
      "lng": 137.669622,
      "geocoding_level": null,
      "phone": "0265-48-6339",
      "license_no": "07242320",
      "license_date": "2022-10-26",
      "expire_date": "2029-07-31"
    },
    {
      "name": "そば処おにひら　治部坂店",
      "name_kana": "ソバドコロオニヒラ　ジブザカテン",
      "business_type": "② 食肉販売業（包装済みの食肉のみの販売）",
      "address": "長野県下伊那郡阿智村浪合１１９２－２００６",
      "lat": 35.35804,
      "lng": 137.671661,
      "geocoding_level": null,
      "phone": "0265-48-6339",
      "license_no": "",
      "license_date": null,
      "expire_date": null
    },
    {
      "name": "そば処おにひら　治部坂店",
      "name_kana": "ソバドコロオニヒラ　ジブザカテン",
      "business_type": "⑦ 野菜果物販売業",
      "address": "長野県下伊那郡阿智村浪合１１９２－２００６",
      "lat": 35.35804,
      "lng": 137.671661,
      "geocoding_level": null,
      "phone": "0265-48-6339",
      "license_no": "",
      "license_date": null,
      "expire_date": null
    },
    {
      "name": "そば処おにひら　治部坂店",
      "name_kana": "ソバドコロオニヒラ　ジブザカテン",
      "business_type": "⑬ その他の食料・飲料販売業",
      "address": "長野県下伊那郡阿智村浪合１１９２－２００６",
      "lat": 35.35804,
      "lng": 137.671661,
      "geocoding_level": null,
      "phone": "0265-48-6339",
      "license_no": "",
      "license_date": null,
      "expire_date": null
    },
    {
      "name": "そば処　おにひら　本店",
      "name_kana": "ソバドコロ　オニヒラ　ホンテン",
      "business_type": "① 飲食店営業",
      "address": "長野県下伊那郡阿智村智里４４０５－１",
      "lat": 35.431431,
      "lng": 137.69879,
      "geocoding_level": null,
      "phone": "0265-43-3398",
      "license_no": "07207084",
      "license_date": "2023-07-31",
      "expire_date": "2029-07-31"
    },
    {
      "name": "株式会社　ちさと東",
      "name_kana": "カブシキガイシャ  チサトヒガシ",
      "business_type": "㉕ そうざい製造業",
      "address": "長野県下伊那郡阿智村智里５５６－１",
      "lat": 35.451934,
      "lng": 137.714034,
      "geocoding_level": null,
      "phone": "0265-43-3938",
      "license_no": "07207127",
      "license_date": "2023-07-31",
      "expire_date": "2029-07-31"
    },
    {
      "name": "そば処　おにひら　本店",
      "name_kana": "ソバドコロ　オニヒラ　ホンテン",
      "business_type": "㉔ 麺類製造業",
      "address": "長野県下伊那郡阿智村智里４４０５－１",
      "lat": 35.431431,
      "lng": 137.69879,
      "geocoding_level": null,
      "phone": "0265-43-3398",
      "license_no": "07207091",
      "license_date": "2023-07-31",
      "expire_date": "2029-07-31"
    },
    {
      "name": "株式会社ちさと東　製麺工場",
      "name_kana": "カブシキガイシャチサトヒガシ　セイメンコウジョウ",
      "business_type": "㉔ 麺類製造業",
      "address": "長野県下伊那郡阿智村智里５５６－１",
      "lat": 35.451934,
      "lng": 137.714034,
      "geocoding_level": null,
      "phone": "0265-43-3938",
      "license_no": "07245900",
      "license_date": "2024-03-15",
      "expire_date": "2030-07-31"
    },
    {
      "name": "阿智温泉療護園",
      "name_kana": "アチオンセンリョウゴエン",
      "business_type": "㉖ 集団給食施設",
      "address": "長野県下伊那郡阿智村智里287-1",
      "lat": 35.453774,
      "lng": 137.717002,
      "geocoding_level": null,
      "phone": "0265433172",
      "license_no": "",
      "license_date": null,
      "expire_date": null
    },
    {
      "name": "ファミリーマート信州昼神店",
      "name_kana": "ファミリーマートシンシュウヒルカミテン",
      "business_type": "⑩ コンビニエンスストア",
      "address": "長野県下伊那郡阿智村智里４３０－１",
      "lat": 35.454928,
      "lng": 137.65536,
      "geocoding_level": null,
      "phone": "0265-45-0032",
      "license_no": "",
      "license_date": null,
      "expire_date": null
    },
    {
      "name": "掘割",
      "name_kana": "ホリワリ",
      "business_type": "① 飲食店営業",
      "address": "長野県下伊那郡阿智村清内路４７７－１",
      "lat": 35.477345,
      "lng": 137.700697,
      "geocoding_level": null,
      "phone": "0000-00-0000",
      "license_no": "07239355",
      "license_date": "2021-07-13",
      "expire_date": "2026-07-31"
    },
    {
      "name": "掘割",
      "name_kana": "ホリワリ",
      "business_type": "① 飲食店営業",
      "address": "長野県下伊那郡阿智村清内路４７７－１",
      "lat": 35.477345,
      "lng": 137.700697,
      "geocoding_level": null,
      "phone": "090-5316-3612",
      "license_no": "07209531",
      "license_date": "2024-07-31",
      "expire_date": "2030-07-31"
    },
    {
      "name": "大平神社",
      "name_kana": "オオヒラジンジャ",
      "business_type": "① 飲食店営業",
      "address": "長野県下伊那郡阿智村智里２１３３",
      "lat": 35.446777,
      "lng": 137.708293,
      "geocoding_level": null,
      "phone": "0265-43-2487",
      "license_no": "07154767",
      "license_date": "2021-07-30",
      "expire_date": "2026-07-31"
    },
    {
      "name": "阿智村商工会",
      "name_kana": "アチムラショウコウカイ",
      "business_type": "① 飲食店営業",
      "address": "長野県下伊那郡阿智村駒場１０７８－５",
      "lat": 35.443477,
      "lng": 137.742876,
      "geocoding_level": null,
      "phone": "0265-43-2241",
      "license_no": "07130039",
      "license_date": "2021-07-30",
      "expire_date": "2026-07-31"
    },
    {
      "name": "阿智村商工会",
      "name_kana": "アチムラショウコウカイ",
      "business_type": "① 飲食店営業",
      "address": "長野県下伊那郡阿智村駒場１０７８－５",
      "lat": 35.443477,
      "lng": 137.742876,
      "geocoding_level": null,
      "phone": "0265-43-2241",
      "license_no": "07130021",
      "license_date": "2021-07-30",
      "expire_date": "2026-07-31"
    },
    {
      "name": "阿智村商工会",
      "name_kana": "アチムラショウコウカイ",
      "business_type": "① 飲食店営業",
      "address": "長野県下伊那郡阿智村駒場１０７８－５",
      "lat": 35.443477,
      "lng": 137.742876,
      "geocoding_level": null,
      "phone": "0265-43-2241",
      "license_no": "07154888",
      "license_date": "2021-07-30",
      "expire_date": "2026-07-31"
    },
    {
      "name": "阿智村商工会",
      "name_kana": "アチムラショウコウカイ",
      "business_type": "① 飲食店営業",
      "address": "長野県下伊那郡阿智村駒場１０７８－５",
      "lat": 35.443477,
      "lng": 137.742876,
      "geocoding_level": null,
      "phone": "0265-43-2241",
      "license_no": "07244321",
      "license_date": "2023-07-28",
      "expire_date": "2028-07-31"
    },
    {
      "name": "阿智村役場　保健センター",
      "name_kana": "アチムラヤクバ　ホケンセンター",
      "business_type": "① 飲食店営業",
      "address": "長野県下伊那郡阿智村駒場４８３",
      "lat": 35.443822,
      "lng": 137.747536,
      "geocoding_level": null,
      "phone": "0265-45-1230",
      "license_no": "07245187",
      "license_date": "2023-10-27",
      "expire_date": "2029-07-31"
    },
    {
      "name": "阿智村商工会",
      "name_kana": "アチムラショウコウカイ",
      "business_type": "① 飲食店営業",
      "address": "長野県下伊那郡阿智村駒場１０７８－５",
      "lat": 35.443477,
      "lng": 137.742876,
      "geocoding_level": null,
      "phone": "0265-43-2241",
      "license_no": "07217484",
      "license_date": "2024-07-31",
      "expire_date": "2029-07-31"
    },
    {
      "name": "阿智村商工会",
      "name_kana": "アチムラショウコウカイ",
      "business_type": "① 飲食店営業",
      "address": "長野県下伊那郡阿智村駒場１０７８－５",
      "lat": 35.443477,
      "lng": 137.742876,
      "geocoding_level": null,
      "phone": "0265-43-2241",
      "license_no": "07217491",
      "license_date": "2024-07-31",
      "expire_date": "2029-07-31"
    },
    {
      "name": "阿智村商工会",
      "name_kana": "アチムラショウコウカイ",
      "business_type": "① 飲食店営業",
      "address": "長野県下伊那郡阿智村駒場１０７８－５",
      "lat": 35.443477,
      "lng": 137.742876,
      "geocoding_level": null,
      "phone": "0265-43-2241",
      "license_no": "07217502",
      "license_date": "2024-07-31",
      "expire_date": "2029-07-31"
    },
    {
      "name": "阿智村商工会",
      "name_kana": "アチムラショウコウカイ",
      "business_type": "① 飲食店営業",
      "address": "長野県下伊那郡阿智村駒場１０７８－５",
      "lat": 35.443477,
      "lng": 137.742876,
      "geocoding_level": null,
      "phone": "0265-43-2241",
      "license_no": "07217510",
      "license_date": "2024-07-31",
      "expire_date": "2029-07-31"
    },
    {
      "name": "阿智の里　ひるがみ",
      "name_kana": "アチノサト　ヒルガミ",
      "business_type": "① 飲食店営業",
      "address": "長野県下伊那郡阿智村智里５０３－３７８",
      "lat": 35.460208,
      "lng": 137.70879,
      "geocoding_level": null,
      "phone": "0265-43-2800",
      "license_no": "07200474",
      "license_date": "2021-07-30",
      "expire_date": "2027-07-31"
    },
    {
      "name": "阿智の里　ひるがみ",
      "name_kana": "アチノサト　ヒルガミ",
      "business_type": "① 飲食店営業",
      "address": "長野県下伊那郡阿智村智里５０３－３７８",
      "lat": 35.460208,
      "lng": 137.70879,
      "geocoding_level": null,
      "phone": "0265-43-2800",
      "license_no": "07200481",
      "license_date": "2021-07-30",
      "expire_date": "2027-07-31"
    },
    {
      "name": "富士見台高原山小屋　萬岳荘",
      "name_kana": "フジミダイコウゲンヤマゴヤ　バンガクソウ",
      "business_type": "① 飲食店営業",
      "address": "長野県下伊那郡阿智村智里４２５７－９６",
      "lat": 35.476481,
      "lng": 137.633626,
      "geocoding_level": null,
      "phone": "070-2667-6618",
      "license_no": "07223366",
      "license_date": "2021-07-30",
      "expire_date": "2026-07-31"
    },
    {
      "name": "農事組合法人　東山道",
      "name_kana": "ノウジクミアイホウジン　トウサンドウ",
      "business_type": "① 飲食店営業",
      "address": "長野県下伊那郡阿智村智里４９９－４",
      "lat": 35.458609,
      "lng": 137.677236,
      "geocoding_level": null,
      "phone": "0265-44-2008",
      "license_no": "07219461",
      "license_date": "2021-07-30",
      "expire_date": "2027-07-31"
    },
    {
      "name": "食事処　御所の里",
      "name_kana": "ショクジドコロ　ゴショノサト",
      "business_type": "① 飲食店営業",
      "address": "長野県下伊那郡阿智村浪合１４００",
      "lat": 35.371338,
      "lng": 137.701028,
      "geocoding_level": null,
      "phone": "0265-47-1060",
      "license_no": "07200951",
      "license_date": "2021-07-30",
      "expire_date": "2027-07-31"
    },
    {
      "name": "クレープ屋",
      "name_kana": "クレープヤ",
      "business_type": "① 飲食店営業",
      "address": "長野県下伊那郡阿智村駒場１１４３－１",
      "lat": 35.444895,
      "lng": 137.739217,
      "geocoding_level": null,
      "phone": "090-2222-4829",
      "license_no": "07205471",
      "license_date": "2021-07-30",
      "expire_date": "2026-07-30"
    },
    {
      "name": "門前屋",
      "name_kana": "モンゼンヤ",
      "business_type": "① 飲食店営業",
      "address": "長野県下伊那郡阿智村智里３６１４",
      "lat": 35.459228,
      "lng": 137.668392,
      "geocoding_level": null,
      "phone": "0265-44-2221",
      "license_no": "07178491",
      "license_date": "2021-07-30",
      "expire_date": "2027-07-31"
    },
    {
      "name": "門前屋",
      "name_kana": "モンゼンヤ",
      "business_type": "㉒ 豆腐製造業",
      "address": "長野県下伊那郡阿智村智里３６１４",
      "lat": 35.459228,
      "lng": 137.668392,
      "geocoding_level": null,
      "phone": "0265-44-2258",
      "license_no": "07178501",
      "license_date": "2021-07-30",
      "expire_date": "2027-07-31"
    },
    {
      "name": "トヨタ車体　あららぎ自然村",
      "name_kana": "トヨタシャタイ　アララギシゼンムラ",
      "business_type": "① 飲食店営業",
      "address": "長野県下伊那郡阿智村浪合１０５",
      "lat": 35.402376,
      "lng": 137.686413,
      "geocoding_level": null,
      "phone": "0265-47-2235",
      "license_no": "07198953",
      "license_date": "2021-07-30",
      "expire_date": "2027-07-31"
    },
    {
      "name": "ふるさとや",
      "name_kana": "フルサトヤ",
      "business_type": "① 飲食店営業",
      "address": "長野県下伊那郡阿智村智里３７３１－４",
      "lat": 35.455399,
      "lng": 137.668753,
      "geocoding_level": null,
      "phone": "0265-44-2311",
      "license_no": "07178370",
      "license_date": "2021-07-30",
      "expire_date": "2027-07-31"
    },
    {
      "name": "グリーンレストラン",
      "name_kana": "グリーンレストラン",
      "business_type": "① 飲食店営業",
      "address": "長野県下伊那郡阿智村智里４２５９－３７０",
      "lat": 35.455197,
      "lng": 137.6419,
      "geocoding_level": null,
      "phone": "0265-44-2311",
      "license_no": "07178355",
      "license_date": "2021-07-30",
      "expire_date": "2027-07-31"
    },
    {
      "name": "ファーストフード",
      "name_kana": "ファーストフード",
      "business_type": "① 飲食店営業",
      "address": "長野県下伊那郡阿智村智里４２５７－９９",
      "lat": 35.455422,
      "lng": 137.641802,
      "geocoding_level": null,
      "phone": "0265-44-2311",
      "license_no": "07178405",
      "license_date": "2021-07-30",
      "expire_date": "2027-07-31"
    },
    {
      "name": "レストラン　ヴァルト",
      "name_kana": "レストラン　ヴァルト",
      "business_type": "① 飲食店営業",
      "address": "長野県下伊那郡阿智村智里４２５７番地９９",
      "lat": 35.455422,
      "lng": 137.641802,
      "geocoding_level": null,
      "phone": "0265-44-2311",
      "license_no": "07178420",
      "license_date": "2024-07-31",
      "expire_date": "2030-07-31"
    },
    {
      "name": "株式会社　三日庵",
      "name_kana": "カブシキガイシャ　ミッカアン",
      "business_type": "㉔ 麺類製造業",
      "address": "長野県下伊那郡阿智村智里３３６６－８",
      "lat": 35.437339,
      "lng": 137.707335,
      "geocoding_level": null,
      "phone": "0265-45-1188",
      "license_no": "07207021",
      "license_date": "2021-07-30",
      "expire_date": "2026-07-31"
    },