{
  "meta": {
    "updated": 1783906731,
    "sources": [
      {
        "source": "福島県食品営業許可施設一覧",
        "license": "CC BY 2.1 JP"
      },
      {
        "source": "厚生労働省 食品衛生申請等システム（オープンデータ）",
        "license": "公共データ利用規約（第1.0版, PDL1.0）"
      }
    ]
  },
  "data": [
    {
      "name": "ホテル　ｉＺＵＭｉ",
      "name_kana": "",
      "business_type": "飲食店営業",
      "address": "岩瀬郡鏡石町諏訪町５４９－１",
      "lat": 37.225175518,
      "lng": 140.385848778,
      "geocoding_level": 8,
      "phone": "0248-62-5302",
      "license_no": "2-239",
      "license_date": null,
      "expire_date": null
    },
    {
      "name": "鏡石舘",
      "name_kana": "",
      "business_type": "飲食店営業",
      "address": "岩瀬郡鏡石町本町３２５",
      "lat": 37.252374732,
      "lng": 140.345978752,
      "geocoding_level": 8,
      "phone": "0248-62-3171",
      "license_no": "2-459",
      "license_date": null,
      "expire_date": null
    },
    {
      "name": "有限会社菊寿司",
      "name_kana": "",
      "business_type": "飲食店営業",
      "address": "岩瀬郡鏡石町中町２５６",
      "lat": 37.248285406,
      "lng": 140.341222125,
      "geocoding_level": 8,
      "phone": "",
      "license_no": "2-460",
      "license_date": null,
      "expire_date": null
    },
    {
      "name": "割烹　秀月",
      "name_kana": "",
      "business_type": "飲食店営業",
      "address": "岩瀬郡鏡石町中央１４１",
      "lat": 37.250394203,
      "lng": 140.343261731,
      "geocoding_level": 8,
      "phone": "0248-62-3375",
      "license_no": "2-462",
      "license_date": null,
      "expire_date": null
    },
    {
      "name": "カマクラヤ",
      "name_kana": "",
      "business_type": "魚介類販売業",
      "address": "岩瀬郡鏡石町本町３５１",
      "lat": 37.255991,
      "lng": 140.3492,
      "geocoding_level": 3,
      "phone": "0248-62-5111",
      "license_no": "2-357",
      "license_date": null,
      "expire_date": null
    },
    {
      "name": "味の旅　ろばた焼",
      "name_kana": "",
      "business_type": "飲食店営業",
      "address": "岩瀬郡鏡石町岡ノ内３２８",
      "lat": 37.253709794,
      "lng": 140.341857985,
      "geocoding_level": 8,
      "phone": "0248-62-4273",
      "license_no": "2-296",
      "license_date": null,
      "expire_date": null
    },
    {
      "name": "バステル花",
      "name_kana": "",
      "business_type": "飲食店営業",
      "address": "岩瀬郡鏡石町境１７２",
      "lat": 37.247291,
      "lng": 140.334205,
      "geocoding_level": 3,
      "phone": "0248-62-2619",
      "license_no": "2-297",
      "license_date": null,
      "expire_date": null
    },
    {
      "name": "四号食堂",
      "name_kana": "",
      "business_type": "飲食店営業",
      "address": "岩瀬郡鏡石町久来石３１",
      "lat": 37.231758,
      "lng": 140.329611,
      "geocoding_level": 3,
      "phone": "0248-62-3337",
      "license_no": "2-360",
      "license_date": null,
      "expire_date": null
    },
    {
      "name": "福島県立岩瀬農業高等学校",
      "name_kana": "",
      "business_type": "菓子製造業",
      "address": "岩瀬郡鏡石町桜町２０７",
      "lat": 37.255678,
      "lng": 140.36279,
      "geocoding_level": 3,
      "phone": "0248-62-3145",
      "license_no": "2-463",
      "license_date": null,
      "expire_date": null
    },
    {
      "name": "福島県立岩瀬農業高等学校",
      "name_kana": "",
      "business_type": "みそ製造業",
      "address": "岩瀬郡鏡石町桜町２０７",
      "lat": 37.255678,
      "lng": 140.36279,
      "geocoding_level": 3,
      "phone": "0248-62-3145",
      "license_no": "2-464",
      "license_date": null,
      "expire_date": null
    },
    {
      "name": "福島県立岩瀬農業高等学校",
      "name_kana": "",
      "business_type": "乳処理業",
      "address": "岩瀬郡鏡石町桜町２０７",
      "lat": 37.255678,
      "lng": 140.36279,
      "geocoding_level": 3,
      "phone": "0248-62-3145",
      "license_no": "2-319",
      "license_date": null,
      "expire_date": null
    },
    {
      "name": "福島県立岩瀬農業高等学校",
      "name_kana": "",
      "business_type": "乳製品製造業",
      "address": "岩瀬郡鏡石町桜町２０７",
      "lat": 37.255678,
      "lng": 140.36279,
      "geocoding_level": 3,
      "phone": "0248-62-3145",
      "license_no": "2-320",
      "license_date": null,
      "expire_date": null
    },
    {
      "name": "福島県立岩瀬農業高等学校",
      "name_kana": "",
      "business_type": "アイスクリーム類製造業",
      "address": "岩瀬郡鏡石町桜町２０７",
      "lat": 37.255678,
      "lng": 140.36279,
      "geocoding_level": 3,
      "phone": "0248-62-3145",
      "license_no": "2-322",
      "license_date": null,
      "expire_date": null
    },
    {
      "name": "福島県立岩瀬農業高等学校",
      "name_kana": "",
      "business_type": "食肉販売業",
      "address": "岩瀬郡鏡石町桜町２０７",
      "lat": 37.255678,
      "lng": 140.36279,
      "geocoding_level": 3,
      "phone": "0248-62-3145",
      "license_no": "2-323",
      "license_date": null,
      "expire_date": null
    },
    {
      "name": "福島県立岩瀬農業高等学校",
      "name_kana": "",
      "business_type": "食肉製品製造業",
      "address": "岩瀬郡鏡石町桜町２０７",
      "lat": 37.255678,
      "lng": 140.36279,
      "geocoding_level": 3,
      "phone": "0248-62-3145",
      "license_no": "2-324",
      "license_date": null,
      "expire_date": null
    },
    {
      "name": "福島県立岩瀬農業高等学校",
      "name_kana": "",
      "business_type": "密封包装食品製造業",
      "address": "岩瀬郡鏡石町桜町２０７",
      "lat": 37.255678,
      "lng": 140.36279,
      "geocoding_level": 3,
      "phone": "0248-62-3145",
      "license_no": "2-321",
      "license_date": null,
      "expire_date": null
    },
    {
      "name": "居酒屋　わか葉",
      "name_kana": "",
      "business_type": "飲食店営業",
      "address": "岩瀬郡鏡石町本町２１９",
      "lat": 37.252782865,
      "lng": 140.346773325,
      "geocoding_level": 8,
      "phone": "0248-62-5973",
      "license_no": "2-328",
      "license_date": null,
      "expire_date": null
    },
    {
      "name": "そば処柏屋",
      "name_kana": "",
      "business_type": "飲食店営業",
      "address": "岩瀬郡鏡石町鏡沼１３１－２",
      "lat": 37.262403387,
      "lng": 140.349992154,
      "geocoding_level": 8,
      "phone": "0248-62-5990",
      "license_no": "2-307",
      "license_date": null,
      "expire_date": null
    },
    {
      "name": "中華飯店だるま",
      "name_kana": "",
      "business_type": "飲食店営業",
      "address": "岩瀬郡鏡石町旭町２６５",
      "lat": 37.247458276,
      "lng": 140.348183189,
      "geocoding_level": 8,
      "phone": "0248-62-4463",
      "license_no": "2-477",
      "license_date": null,
      "expire_date": null
    },
    {
      "name": "鏡石第一ホテル・牧歌亭",
      "name_kana": "",
      "business_type": "飲食店営業",
      "address": "岩瀬郡鏡石町本町２１７",
      "lat": 37.255991,
      "lng": 140.3492,
      "geocoding_level": 3,
      "phone": "0248-62-3171",
      "license_no": "2-310",
      "license_date": null,
      "expire_date": null
    },
    {
      "name": "有限会社かぎや",
      "name_kana": "",
      "business_type": "菓子製造業",
      "address": "岩瀬郡鏡石町旭町１６",
      "lat": 37.247227174,
      "lng": 140.348543442,
      "geocoding_level": 8,
      "phone": "0248-62-2242",
      "license_no": "2-247",
      "license_date": null,
      "expire_date": null
    },
    {
      "name": "やきとり都道府懸",
      "name_kana": "",
      "business_type": "飲食店営業",
      "address": "岩瀬郡鏡石町中央８５",
      "lat": 37.250962891,
      "lng": 140.34379424,
      "geocoding_level": 8,
      "phone": "0248-62-4278",
      "license_no": "2-489",
      "license_date": null,
      "expire_date": null
    },
    {
      "name": "有限会社つむらや食品",
      "name_kana": "",
      "business_type": "豆腐製造業",
      "address": "岩瀬郡鏡石町諏訪町５１０－２",
      "lat": 37.226857225,
      "lng": 140.38538718,
      "geocoding_level": 8,
      "phone": "0248-62-2563",
      "license_no": "2-340",
      "license_date": null,
      "expire_date": null
    },
    {
      "name": "瀧乃家",
      "name_kana": "",
      "business_type": "飲食店営業",
      "address": "岩瀬郡鏡石町諏訪町４１３",
      "lat": 37.227319,
      "lng": 140.382558,
      "geocoding_level": 3,
      "phone": "0248-62-4744",
      "license_no": "2-249",
      "license_date": null,
      "expire_date": null
    },
    {
      "name": "有限会社港屋魚店",
      "name_kana": "",
      "business_type": "魚介類販売業",
      "address": "岩瀬郡鏡石町不時沼２６３",
      "lat": 37.254599831,
      "lng": 140.344681917,
      "geocoding_level": 8,
      "phone": "0248-62-2027",
      "license_no": "2-250",
      "license_date": null,
      "expire_date": null
    },
    {
      "name": "小料理やまびこ",
      "name_kana": "",
      "business_type": "飲食店営業",
      "address": "岩瀬郡鏡石町岡ノ内１９－２",
      "lat": 37.256736998,
      "lng": 140.339946468,
      "geocoding_level": 8,
      "phone": "0248-62-7713",
      "license_no": "2-314",
      "license_date": null,
      "expire_date": null
    },
    {
      "name": "有限会社アサヒフーズ",
      "name_kana": "",
      "business_type": "飲食店営業",
      "address": "岩瀬郡鏡石町中町３１７－１",
      "lat": 37.247076854,
      "lng": 140.34136573,
      "geocoding_level": 8,
      "phone": "0248-62-5413",
      "license_no": "2-315",
      "license_date": null,
      "expire_date": null
    },
    {
      "name": "リオン・ドール鏡石店",
      "name_kana": "",
      "business_type": "飲食店営業",
      "address": "岩瀬郡鏡石町中央８",
      "lat": 37.25088,
      "lng": 140.343177,
      "geocoding_level": 3,
      "phone": "0248-62-6161",
      "license_no": "2-351",
      "license_date": null,
      "expire_date": null
    },
    {
      "name": "リオン・ドール鏡石店",
      "name_kana": "",
      "business_type": "魚介類販売業",
      "address": "岩瀬郡鏡石町中央８",
      "lat": 37.25088,
      "lng": 140.343177,
      "geocoding_level": 3,
      "phone": "0248-62-6161",
      "license_no": "2-352",
      "license_date": null,
      "expire_date": null
    },
    {
      "name": "リオン・ドール鏡石店",
      "name_kana": "",
      "business_type": "食肉販売業",
      "address": "岩瀬郡鏡石町中央８",
      "lat": 37.25088,
      "lng": 140.343177,
      "geocoding_level": 3,
      "phone": "0248-62-6161",
      "license_no": "2-353",
      "license_date": null,
      "expire_date": null
    },
    {
      "name": "お好み焼きみこ",
      "name_kana": "",
      "business_type": "飲食店営業",
      "address": "岩瀬郡鏡石町笠石１",
      "lat": 37.238367,
      "lng": 140.33597,
      "geocoding_level": 3,
      "phone": "0248-62-7666",
      "license_no": "2-355",
      "license_date": null,
      "expire_date": null
    },
    {
      "name": "食彩工房　花の木",
      "name_kana": "",
      "business_type": "飲食店営業",
      "address": "岩瀬郡鏡石町前山２７８",
      "lat": 37.250188905,
      "lng": 140.335769434,
      "geocoding_level": 8,
      "phone": "0248-92-2577",
      "license_no": "2-259",
      "license_date": null,
      "expire_date": null
    },
    {
      "name": "幸田鶏卵店",
      "name_kana": "",
      "business_type": "そうざい製造業",
      "address": "岩瀬郡鏡石町本町３３７",
      "lat": 37.255991,
      "lng": 140.3492,
      "geocoding_level": 3,
      "phone": "0248-62-2205",
      "license_no": "2-361",
      "license_date": null,
      "expire_date": null
    },
    {
      "name": "ＩＣＨＩＩ’Ｓ　ロシナンテ　ＭＡＲＫＥＴ鏡石店",
      "name_kana": "",
      "business_type": "食肉処理業",
      "address": "岩瀬郡鏡石町本町１７９",
      "lat": 37.255023058,
      "lng": 140.346903816,
      "geocoding_level": 8,
      "phone": "0248-62-1700",
      "license_no": "1-113",
      "license_date": null,
      "expire_date": null
    },
    {
      "name": "ＩＣＨＩＩ’Ｓ　ロシナンテ　ＭＡＲＫＥＴ鏡石店",
      "name_kana": "",
      "business_type": "菓子製造業",
      "address": "岩瀬郡鏡石町本町１７９",
      "lat": 37.255023058,
      "lng": 140.346903816,
      "geocoding_level": 8,
      "phone": "0248-62-1700",
      "license_no": "2-329",
      "license_date": null,
      "expire_date": null
    },
    {
      "name": "ＩＣＨＩＩ’Ｓ　ロシナンテ　ＭＡＲＫＥＴ鏡石店",
      "name_kana": "",
      "business_type": "魚介類販売業",
      "address": "岩瀬郡鏡石町本町１７９",
      "lat": 37.255023058,
      "lng": 140.346903816,
      "geocoding_level": 8,
      "phone": "0248-62-1700",
      "license_no": "2-330",
      "license_date": null,
      "expire_date": null
    },
    {
      "name": "ＩＣＨＩＩ’Ｓ　ロシナンテ　ＭＡＲＫＥＴ鏡石店",
      "name_kana": "",
      "business_type": "そうざい製造業",
      "address": "岩瀬郡鏡石町本町１７９",
      "lat": 37.255023058,
      "lng": 140.346903816,
      "geocoding_level": 8,
      "phone": "0248-62-1700",
      "license_no": "1-108",
      "license_date": null,
      "expire_date": null
    },
    {
      "name": "食彩酒楽のきらく",
      "name_kana": "",
      "business_type": "飲食店営業",
      "address": "岩瀬郡鏡石町本町２１９　鏡石プラザ１０６号",
      "lat": 37.252782865,
      "lng": 140.346773325,
      "geocoding_level": 8,
      "phone": "",
      "license_no": "2-401",
      "license_date": null,
      "expire_date": null
    },
    {
      "name": "イオンスーパーセンター鏡石店水産",
      "name_kana": "",
      "business_type": "魚介類販売業",
      "address": "岩瀬郡鏡石町桜岡３７５－９",
      "lat": 37.242891093,
      "lng": 140.334196383,
      "geocoding_level": 8,
      "phone": "0248-92-3160",
      "license_no": "2-265",
      "license_date": null,
      "expire_date": null
    },
    {
      "name": "イオンスーパーセンター鏡石店畜産",
      "name_kana": "",
      "business_type": "食肉販売業",
      "address": "岩瀬郡鏡石町桜岡３７５－９",
      "lat": 37.242891093,
      "lng": 140.334196383,
      "geocoding_level": 8,
      "phone": "0248-92-3080",
      "license_no": "2-266",
      "license_date": null,
      "expire_date": null
    },
    {
      "name": "イオンスーパーセンター鏡石店ホットデリカ",
      "name_kana": "",
      "business_type": "飲食店営業",
      "address": "岩瀬郡鏡石町桜岡３７５－９",
      "lat": 37.242891093,
      "lng": 140.334196383,
      "geocoding_level": 8,
      "phone": "0248-92-3160",
      "license_no": "2-267",
      "license_date": null,
      "expire_date": null
    },
    {
      "name": "イオンスーパーセンター鏡石店パン工場",
      "name_kana": "",
      "business_type": "飲食店営業",
      "address": "岩瀬郡鏡石町桜岡３７５－９",
      "lat": 37.242891093,
      "lng": 140.334196383,
      "geocoding_level": 8,
      "phone": "0248-92-3080",
      "license_no": "2-268",
      "license_date": null,
      "expire_date": null
    },
    {
      "name": "イオンスーパーセンター鏡石店パン工場",
      "name_kana": "",
      "business_type": "菓子製造業",
      "address": "岩瀬郡鏡石町桜岡３７５－９",
      "lat": 37.242891093,
      "lng": 140.334196383,
      "geocoding_level": 8,
      "phone": "0248-92-3080",
      "license_no": "2-269",
      "license_date": null,
      "expire_date": null
    },
    {
      "name": "イオンスーパーセンター鏡石店寿司米飯",
      "name_kana": "",
      "business_type": "飲食店営業",
      "address": "岩瀬郡鏡石町桜岡３７５－９",
      "lat": 37.242891093,
      "lng": 140.334196383,
      "geocoding_level": 8,
      "phone": "0248-92-3160",
      "license_no": "2-270",
      "license_date": null,
      "expire_date": null
    },
    {
      "name": "滝田",
      "name_kana": "",
      "business_type": "そうざい製造業",
      "address": "岩瀬郡鏡石町鏡沼１２２",
      "lat": 37.26380142,
      "lng": 140.351683197,
      "geocoding_level": 8,
      "phone": "0248-62-3624",
      "license_no": "2-277",
      "license_date": null,
      "expire_date": null
    },
    {
      "name": "いろは",
      "name_kana": "",
      "business_type": "飲食店営業",
      "address": "岩瀬郡鏡石町不時沼２３１",
      "lat": 37.25481868800001,
      "lng": 140.345953541,
      "geocoding_level": 8,
      "phone": "0248-92-3880",
      "license_no": "2-372",
      "license_date": null,
      "expire_date": null
    },
    {
      "name": "あいりすホール鏡石",
      "name_kana": "",
      "business_type": "飲食店営業",
      "address": "岩瀬郡鏡石町本町１５１",
      "lat": 37.256749383,
      "lng": 140.348759491,
      "geocoding_level": 8,
      "phone": "0248-92-3883",
      "license_no": "2-334",
      "license_date": null,
      "expire_date": null
    },
    {
      "name": "ホームベーカリーまつや",
      "name_kana": "",
      "business_type": "飲食店営業",
      "address": "岩瀬郡鏡石町不時沼３４２",
      "lat": 37.252733554,
      "lng": 140.34408818,
      "geocoding_level": 8,
      "phone": "0248-62-5864",
      "license_no": "2-409",
      "license_date": null,
      "expire_date": null
    },
    {
      "name": "ホームベーカリーまつや",
      "name_kana": "",
      "business_type": "菓子製造業",
      "address": "岩瀬郡鏡石町不時沼３４２",
      "lat": 37.252733554,
      "lng": 140.34408818,
      "geocoding_level": 8,
      "phone": "0248-62-5864",
      "license_no": "2-410",
      "license_date": null,
      "expire_date": null
    },
    {
      "name": "味の里",
      "name_kana": "",
      "business_type": "飲食店営業",
      "address": "岩瀬郡鏡石町本町２１９",
      "lat": 37.252782865,
      "lng": 140.346773325,
      "geocoding_level": 8,
      "phone": "0248-62-6002",
      "license_no": "2-547",
      "license_date": null,
      "expire_date": null
    },
    {
      "name": "陽だまり",
      "name_kana": "",
      "business_type": "菓子製造業",
      "address": "岩瀬郡鏡石町中町１７３－６",
      "lat": 37.247087464,
      "lng": 140.339528774,
      "geocoding_level": 8,
      "phone": "0248-94-8361",
      "license_no": "2-383",
      "license_date": null,
      "expire_date": null
    },
    {
      "name": "ナストロ",
      "name_kana": "",
      "business_type": "飲食店営業",
      "address": "岩瀬郡鏡石町中央１６６",
      "lat": 37.250618499,
      "lng": 140.344243415,
      "geocoding_level": 8,
      "phone": "0248-62-2061",
      "license_no": "2-386",
      "license_date": null,
      "expire_date": null
    },
    {
      "name": "らーめん　うさぎ",
      "name_kana": "",
      "business_type": "飲食店営業",
      "address": "岩瀬郡鏡石町中町５６－６",
      "lat": 37.246136,
      "lng": 140.340543,
      "geocoding_level": 3,
      "phone": "0248-62-6777",
      "license_no": "2-339",
      "license_date": null,
      "expire_date": null
    },
    {
      "name": "ペコリーノ",
      "name_kana": "",
      "business_type": "飲食店営業",
      "address": "岩瀬郡鏡石町本町２７４",
      "lat": 37.253347615,
      "lng": 140.345332656,
      "geocoding_level": 8,
      "phone": "0248-62-3225",
      "license_no": "2-341",
      "license_date": null,
      "expire_date": null
    },
    {
      "name": "シフォン・シフォン",
      "name_kana": "",
      "business_type": "菓子製造業",
      "address": "岩瀬郡鏡石町本町９３",
      "lat": 37.257580435,
      "lng": 140.349117575,
      "geocoding_level": 8,
      "phone": "0248-62-6566",
      "license_no": "2-256",
      "license_date": null,
      "expire_date": null
    },
    {
      "name": "ダイニングキッチン　こうげつ",
      "name_kana": "",
      "business_type": "飲食店営業",
      "address": "岩瀬郡鏡石町岡ノ内１４９",
      "lat": 37.254771998,
      "lng": 140.342972472,
      "geocoding_level": 8,
      "phone": "0248-62-3406",
      "license_no": "2-344",
      "license_date": null,
      "expire_date": null
    },
    {
      "name": "ミニストップ鏡石パーキングエリア店",
      "name_kana": "",
      "business_type": "飲食店営業",
      "address": "岩瀬郡鏡石町岡ノ内１０－１０",
      "lat": 37.255759026,
      "lng": 140.33497986000003,
      "geocoding_level": 8,
      "phone": "0248-62-1508",
      "license_no": "2-352",
      "license_date": null,
      "expire_date": null
    },
    {
      "name": "中華食菜シェイシェイ",
      "name_kana": "",
      "business_type": "飲食店営業",
      "address": "岩瀬郡鏡石町中央１４",
      "lat": 37.250506711,
      "lng": 140.342112366,
      "geocoding_level": 8,
      "phone": "0248-62-6372",
      "license_no": "2-353",
      "license_date": null,
      "expire_date": null
    },
    {
      "name": "大成",
      "name_kana": "",
      "business_type": "飲食店営業",
      "address": "岩瀬郡鏡石町中央１３",
      "lat": 37.250616583,
      "lng": 140.342220017,
      "geocoding_level": 8,
      "phone": "0248-62-3790",
      "license_no": "2-284",
      "license_date": null,
      "expire_date": null
    },
    {
      "name": "サンマート鏡石店",
      "name_kana": "",
      "business_type": "魚介類販売業",
      "address": "岩瀬郡鏡石町本町３１８",
      "lat": 37.255991,
      "lng": 140.3492,
      "geocoding_level": 3,
      "phone": "0248-62-2021",
      "license_no": "2-289",
      "license_date": null,
      "expire_date": null
    },
    {
      "name": "焼き処　縁",
      "name_kana": "",
      "business_type": "飲食店営業",
      "address": "岩瀬郡鏡石町不時沼３３６",
      "lat": 37.252970521,
      "lng": 140.344171881,
      "geocoding_level": 8,
      "phone": "0248-92-3725",
      "license_no": "2-338",
      "license_date": null,
      "expire_date": null
    },
    {
      "name": "セブン－イレブン鏡石バイパス店",
      "name_kana": "",
      "business_type": "飲食店営業",
      "address": "岩瀬郡鏡石町不時沼５－１",
      "lat": 37.260369813,
      "lng": 140.348368988,
      "geocoding_level": 8,
      "phone": "0248-62-7781",
      "license_no": "2-348",
      "license_date": null,
      "expire_date": null
    },
    {
      "name": "有限会社　かぎや",
      "name_kana": "",
      "business_type": "飲食店営業",
      "address": "岩瀬郡鏡石町旭町１６",
      "lat": 37.247227174,
      "lng": 140.348543442,
      "geocoding_level": 8,
      "phone": "0248-62-2242",
      "license_no": "2-443",
      "license_date": null,
      "expire_date": null
    },
    {
      "name": "有限会社　かぎや",
      "name_kana": "",
      "business_type": "菓子製造業",
      "address": "岩瀬郡鏡石町旭町１６",
      "lat": 37.247227174,
      "lng": 140.348543442,
      "geocoding_level": 8,
      "phone": "0248-62-2242",
      "license_no": "2-444",
      "license_date": null,
      "expire_date": null
    },
    {
      "name": "メフォス北日本５０２０８号店",
      "name_kana": "",
      "business_type": "飲食店営業",
      "address": "岩瀬郡鏡石町岡ノ内４２８",
      "lat": 37.252735238,
      "lng": 140.339205062,
      "geocoding_level": 8,
      "phone": "0248-62-4076",
      "license_no": "2-561",
      "license_date": null,
      "expire_date": null
    },
    {
      "name": "さがみ鏡石斎場",
      "name_kana": "",
      "business_type": "飲食店営業",
      "address": "岩瀬郡鏡石町本町１６",
      "lat": 37.259740177,
      "lng": 140.351073265,
      "geocoding_level": 8,
      "phone": "0248-92-3794",
      "license_no": "2-466",
      "license_date": null,
      "expire_date": null
    },
    {
      "name": "Ｋ＋",
      "name_kana": "",
      "business_type": "飲食店営業",
      "address": "岩瀬郡鏡石町高久田１７－２",
      "lat": 37.272554164,
      "lng": 140.36160678,
      "geocoding_level": 8,
      "phone": "0248-76-8633",
      "license_no": "2-353",
      "license_date": null,
      "expire_date": null
    },
    {
      "name": "鏡石温泉扇屋会館",
      "name_kana": "",
      "business_type": "飲食店営業",
      "address": "岩瀬郡鏡石町本町３２４",
      "lat": 37.252501766,
      "lng": 140.345953884,
      "geocoding_level": 8,
      "phone": "0248-62-2026",
      "license_no": "2-473",
      "license_date": null,
      "expire_date": null
    },
    {
      "name": "不二家イオンスーパーセンター鏡石店",
      "name_kana": "",
      "business_type": "飲食店営業",
      "address": "岩瀬郡鏡石町桜岡３７５－９",
      "lat": 37.242891093,
      "lng": 140.334196383,
      "geocoding_level": 8,
      "phone": "0248-92-3080",
      "license_no": "2-567",
      "license_date": null,
      "expire_date": null
    },
    {
      "name": "不二家イオンスーパーセンター鏡石店",
      "name_kana": "",
      "business_type": "菓子製造業",
      "address": "岩瀬郡鏡石町桜岡３７５－９",
      "lat": 37.242891093,
      "lng": 140.334196383,
      "geocoding_level": 8,
      "phone": "0248-92-3080",
      "license_no": "2-568",
      "license_date": null,
      "expire_date": null
    },
    {
      "name": "ピザーラ　イオンスーパーセンター鏡石店",
      "name_kana": "",
      "business_type": "飲食店営業",
      "address": "岩瀬郡鏡石町桜岡３７５－９　イオンスーパーセンター鏡石店内",
      "lat": 37.242891093,
      "lng": 140.334196383,
      "geocoding_level": 8,
      "phone": "0248-62-3181",
      "license_no": "2-576",
      "license_date": null,
      "expire_date": null
    },
    {
      "name": "ｃａｆｅ＆ｋａｒａｏｋｅ　武",
      "name_kana": "",
      "business_type": "飲食店営業",
      "address": "岩瀬郡鏡石町中央１４４－２",
      "lat": 37.250441708,
      "lng": 140.342836946,
      "geocoding_level": 8,
      "phone": "0248-94-5517",
      "license_no": "2-404",
      "license_date": null,
      "expire_date": null
    },
    {
      "name": "瀧乃家イオンスーパーセンター鏡石店",
      "name_kana": "",
      "business_type": "飲食店営業",
      "address": "岩瀬郡鏡石町桜岡３７５－９",
      "lat": 37.242891093,
      "lng": 140.334196383,
      "geocoding_level": 8,
      "phone": "0248-62-3330",
      "license_no": "2-409",
      "license_date": null,
      "expire_date": null
    },
    {
      "name": "宮前",
      "name_kana": "",
      "business_type": "そうざい製造業",
      "address": "岩瀬郡鏡石町桜岡６３５",
      "lat": 37.239279606,
      "lng": 140.33348099,
      "geocoding_level": 8,
      "phone": "",
      "license_no": "2-417",
      "license_date": null,
      "expire_date": null
    },
    {
      "name": "メフォス５２２１７号店",
      "name_kana": "",
      "business_type": "飲食店営業",
      "address": "岩瀬郡鏡石町鏡田かげ沼町１３９－１",
      "lat": 37.252858,
      "lng": 140.343405,
      "geocoding_level": 2,
      "phone": "0248-94-2580",
      "license_no": "2-300",
      "license_date": null,
      "expire_date": null
    },
    {
      "name": "ホテル　ルームス",
      "name_kana": "",
      "business_type": "飲食店営業",
      "address": "岩瀬郡鏡石町蒲之沢町２６３",
      "lat": 37.272973259,
      "lng": 140.354145297,
      "geocoding_level": 8,
      "phone": "0248-75-2307",
      "license_no": "2-377",
      "license_date": null,
      "expire_date": null
    },
    {
      "name": "ミニストップ鏡石ＰＡ上り店",
      "name_kana": "",
      "business_type": "飲食店営業",
      "address": "岩瀬郡鏡石町岡ノ内７２－３",
      "lat": 37.255315574,
      "lng": 140.33605935,
      "geocoding_level": 8,
      "phone": "0248-62-4618",
      "license_no": "2-303",
      "license_date": null,
      "expire_date": null
    },
    {
      "name": "リオン・ドール鏡石店　ベーカリー",
      "name_kana": "",
      "business_type": "菓子製造業",
      "address": "岩瀬郡鏡石町中央８",
      "lat": 37.25088,
      "lng": 140.343177,
      "geocoding_level": 3,
      "phone": "0248-62-6161",
      "license_no": "2-310",
      "license_date": null,
      "expire_date": null
    },
    {
      "name": "キッチン　さくら木",
      "name_kana": "",
      "business_type": "飲食店営業",
      "address": "岩瀬郡鏡石町本町２０８",
      "lat": 37.251392666,
      "lng": 140.34676561,
      "geocoding_level": 8,
      "phone": "0248-94-7955",
      "license_no": "2-355",
      "license_date": null,
      "expire_date": null
    },
    {
      "name": "ファミリーマート鏡石境店",
      "name_kana": "",
      "business_type": "飲食店営業",
      "address": "岩瀬郡鏡石町境４７５",
      "lat": 37.247291,
      "lng": 140.334205,
      "geocoding_level": 3,
      "phone": "0248-92-3065",
      "license_no": "2-356",
      "license_date": null,
      "expire_date": null
    },
    {
      "name": "鏡石まちの駅　かんかんてらす",
      "name_kana": "",
      "business_type": "飲食店営業",
      "address": "岩瀬郡鏡石町中央２４５",
      "lat": 37.25088,
      "lng": 140.343177,
      "geocoding_level": 3,
      "phone": "0248-94-8110",
      "license_no": "2-359",
      "license_date": null,
      "expire_date": null
    },
    {
      "name": "鏡石まちの駅　かんかんてらす",
      "name_kana": "",
      "business_type": "菓子製造業",
      "address": "岩瀬郡鏡石町中央２４５",
      "lat": 37.25088,
      "lng": 140.343177,
      "geocoding_level": 3,
      "phone": "0248-94-8110",
      "license_no": "2-360",
      "license_date": null,
      "expire_date": null
    },
    {
      "name": "セブンイレブン鏡石中央店",
      "name_kana": "",
      "business_type": "飲食店営業",
      "address": "岩瀬郡鏡石町中央５０－２",
      "lat": 37.250287611,
      "lng": 140.34157762,
      "geocoding_level": 8,
      "phone": "0248-62-3939",
      "license_no": "2-369",
      "license_date": null,
      "expire_date": null
    },
    {
      "name": "ＮｅＮｅ",
      "name_kana": "",
      "business_type": "飲食店営業",
      "address": "岩瀬郡鏡石町本町２１９　鏡石プラザ１０５",
      "lat": 37.252782865,
      "lng": 140.346773325,
      "geocoding_level": 8,
      "phone": "0248-62-4075",
      "license_no": "2-317",
      "license_date": null,
      "expire_date": null
    },
    {
      "name": "焼肉ダイニング　あじ庵",
      "name_kana": "",
      "business_type": "飲食店営業",
      "address": "岩瀬郡鏡石町中央５０－１",
      "lat": 37.250162115,
      "lng": 140.341243148,
      "geocoding_level": 8,
      "phone": "0248-62-1224",
      "license_no": "2-269",
      "license_date": null,
      "expire_date": null
    },
    {
      "name": "マー農園",
      "name_kana": "",
      "business_type": "密封包装食品製造業",
      "address": "岩瀬郡鏡石町久来石５５４",
      "lat": 37.231758,
      "lng": 140.329611,
      "geocoding_level": 3,
      "phone": "0248-62-3734",
      "license_no": "2-271",
      "license_date": null,
      "expire_date": null
    },
    {
      "name": "Ｉｃｉｎｇ　ｏｎ　ｔｈｅ　Ｃａｋｅ",
      "name_kana": "",
      "business_type": "菓子製造業",
      "address": "岩瀬郡鏡石町旭町３３２",
      "lat": 37.247213739,
      "lng": 140.345679174,
      "geocoding_level": 8,
      "phone": "0248-94-4107",
      "license_no": "2-378",
      "license_date": null,
      "expire_date": null
    },
    {
      "name": "べんとう屋",
      "name_kana": "",
      "business_type": "飲食店営業",
      "address": "岩瀬郡鏡石町境８５－１５－１",
      "lat": 37.247291,
      "lng": 140.334205,
      "geocoding_level": 3,
      "phone": "0248-62-6842",
      "license_no": "2-277",
      "license_date": null,
      "expire_date": null
    },
    {
      "name": "ミールケア　岡ノ内保育園事業所",
      "name_kana": "",
      "business_type": "飲食店営業",
      "address": "岩瀬郡鏡石町岡ノ内５５６",
      "lat": 37.258056111,
      "lng": 140.339288547,
      "geocoding_level": 8,
      "phone": "",
      "license_no": "1-211",
      "license_date": null,
      "expire_date": null
    },
    {
      "name": "本田商店",
      "name_kana": "",
      "business_type": "飲食店営業",
      "address": "岩瀬郡鏡石町本町１５４－８",
      "lat": 37.25658954600001,
      "lng": 140.348331416,
      "geocoding_level": 8,
      "phone": "0248-62-2303",
      "license_no": "1-10",
      "license_date": null,
      "expire_date": null
    },
    {
      "name": "片岡精肉店",
      "name_kana": "",
      "business_type": "食肉販売業",
      "address": "岩瀬郡鏡石町不時沼２６０",
      "lat": 37.254750613,
      "lng": 140.344399057,
      "geocoding_level": 8,
      "phone": "0248-62-2319",
      "license_no": "1-32",
      "license_date": null,
      "expire_date": null
    },
    {
      "name": "芳賀菓子店",
      "name_kana": "",
      "business_type": "菓子製造業",
      "address": "岩瀬郡鏡石町本町３３２",
      "lat": 37.251941557,
      "lng": 140.345630763,
      "geocoding_level": 8,
      "phone": "0248-62-2339",
      "license_no": "1-157",
      "license_date": null,
      "expire_date": null
    },
    {
      "name": "メフォス５０９９３号店",
      "name_kana": "",
      "business_type": "飲食店営業",
      "address": "岩瀬郡鏡石町中央１",
      "lat": 37.25088,
      "lng": 140.343177,
      "geocoding_level": 3,
      "phone": "0248-62-2006",
      "license_no": "1-45",
      "license_date": null,
      "expire_date": null
    },
    {
      "name": "メフォス５１６３４号店",
      "name_kana": "",
      "business_type": "飲食店営業",
      "address": "岩瀬郡鏡石町旭町１５８",
      "lat": 37.246044565,
      "lng": 140.348722239,
      "geocoding_level": 8,
      "phone": "0248-62-2015",
      "license_no": "1-46",
      "license_date": null,
      "expire_date": null
    },
    {
      "name": "ローソン鏡石本町店",
      "name_kana": "",
      "business_type": "飲食店営業",
      "address": "岩瀬郡鏡石町本町２４５",
      "lat": 37.253771683,
      "lng": 140.346992186,
      "geocoding_level": 8,
      "phone": "0248-62-3750",
      "license_no": "1-104",
      "license_date": null,
      "expire_date": null
    },
    {
      "name": "末広すし",
      "name_kana": "",
      "business_type": "飲食店営業",
      "address": "岩瀬郡鏡石町本町２７０",
      "lat": 37.253504705,
      "lng": 140.345610074,
      "geocoding_level": 8,
      "phone": "0248-62-2366",
      "license_no": "1-139",
      "license_date": null,
      "expire_date": null
    },
    {
      "name": "焼菓子の店　ボナール",
      "name_kana": "",
      "business_type": "飲食店営業",
      "address": "岩瀬郡鏡石町中央１８０",
      "lat": 37.249515882,
      "lng": 140.343203257,
      "geocoding_level": 8,
      "phone": "0248-94-2086",
      "license_no": "1-163",
      "license_date": null,
      "expire_date": null
    },
    {
      "name": "焼菓子の店　ボナール",
      "name_kana": "",
      "business_type": "菓子製造業",
      "address": "岩瀬郡鏡石町中央１８０",
      "lat": 37.249515882,
      "lng": 140.343203257,
      "geocoding_level": 8,
      "phone": "0248-94-2086",
      "license_no": "1-164",
      "license_date": null,
      "expire_date": null
    },
    {
      "name": "岡ノ内幼稚園",
      "name_kana": "",
      "business_type": "飲食店営業",
      "address": "岩瀬郡鏡石町岡ノ内１４－８",
      "lat": 37.258153473,
      "lng": 140.33961479,
      "geocoding_level": 8,
      "phone": "0248-62-5035",
      "license_no": "1-178",
      "license_date": null,
      "expire_date": null
    },
    {
      "name": "福島県立岩瀬農業高等学校",
      "name_kana": "",
      "business_type": "飲食店営業",
      "address": "岩瀬郡鏡石町豊田５５２",
      "lat": 37.259246,
      "lng": 140.369992,
      "geocoding_level": 3,
      "phone": "0248-62-3145",
      "license_no": "1-2",
      "license_date": null,
      "expire_date": null
    },
    {
      "name": "いちご家族",
      "name_kana": "",
      "business_type": "飲食店営業",
      "address": "岩瀬郡鏡石町境１３０－１",
      "lat": 37.247291,
      "lng": 140.334205,
      "geocoding_level": 3,
      "phone": "",
      "license_no": "1-12",
      "license_date": null,
      "expire_date": null
    },
    {
      "name": "いちご家族",
      "name_kana": "",
      "business_type": "菓子製造業",
      "address": "岩瀬郡鏡石町境１３０－１",
      "lat": 37.247291,
      "lng": 140.334205,
      "geocoding_level": 3,
      "phone": "",
      "license_no": "1-164",
      "license_date": null,
      "expire_date": null
    },
    {
      "name": "鏡屋",
      "name_kana": "",
      "business_type": "漬物製造業",
      "address": "岩瀬郡鏡石町南町６５０",
      "lat": 37.223138624,
      "lng": 140.340844054,
      "geocoding_level": 8,
      "phone": "0248-62-2895",
      "license_no": "1-17",
      "license_date": null,
      "expire_date": null
    },
    {
      "name": "イオンスーパーセンター鏡石店　水産寿司作業場",
      "name_kana": "",
      "business_type": "飲食店営業",
      "address": "岩瀬郡鏡石町桜岡３７５－９",
      "lat": 37.242891093,
      "lng": 140.334196383,
      "geocoding_level": 8,
      "phone": "0248-92-3080",
      "license_no": "1-72",
      "license_date": null,
      "expire_date": null
    },
    {
      "name": "牧場の朝",
      "name_kana": "",
      "business_type": "飲食店営業",
      "address": "岩瀬郡鏡石町桜町２２５－１５",
      "lat": 37.253881952,
      "lng": 140.364932557,
      "geocoding_level": 8,
      "phone": "",
      "license_no": "1-68",
      "license_date": null,
      "expire_date": null
    },
    {
      "name": "やまびこプラス",
      "name_kana": "",
      "business_type": "飲食店営業",
      "address": "岩瀬郡鏡石町岡ノ内１９－２",
      "lat": 37.256736998,
      "lng": 140.339946468,
      "geocoding_level": 8,
      "phone": "0248-62-7713",
      "license_no": "1-72",
      "license_date": null,
      "expire_date": null
    },
    {
      "name": "ｐｏｃｏ　ａ　ｐｏｃｏ",
      "name_kana": "",
      "business_type": "飲食店営業",
      "address": "岩瀬郡鏡石町本町２７１",
      "lat": 37.253500902,
      "lng": 140.34540634100003,
      "geocoding_level": 8,
      "phone": "",
      "license_no": "1-112",
      "license_date": null,
      "expire_date": null
    },
    {
      "name": "メフォス　５２５３３号店",
      "name_kana": "",
      "business_type": "飲食店営業",
      "address": "岩瀬郡鏡石町豊郷中２３８",
      "lat": 37.24198224,
      "lng": 140.357543951,
      "geocoding_level": 8,
      "phone": "0248-62-2033",
      "license_no": "1-14",
      "license_date": null,
      "expire_date": null
    },
    {
      "name": "セブン－イレブン鏡石東町店",
      "name_kana": "",
      "business_type": "飲食店営業",
      "address": "岩瀬郡鏡石町東町２９１－１",
      "lat": 37.24316319,
      "lng": 140.348860212,
      "geocoding_level": 8,
      "phone": "0248-94-2888",
      "license_no": "1-83",
      "license_date": null,
      "expire_date": null
    },
    {
      "name": "インド・ネパールレストラン　チーズナン・カレーハウス",
      "name_kana": "",
      "business_type": "飲食店営業",
      "address": "岩瀬郡鏡石町久来石８４９",
      "lat": 37.231758,
      "lng": 140.329611,
      "geocoding_level": 3,
      "phone": "0248-94-6635",
      "license_no": "1-3",
      "license_date": null,
      "expire_date": null
    },
    {
      "name": "ひろちゃん",
      "name_kana": "",
      "business_type": "飲食店営業",
      "address": "岩瀬郡鏡石町不時沼２６２",
      "lat": 37.254655957,
      "lng": 140.344599245,
      "geocoding_level": 8,
      "phone": "9019358620",
      "license_no": "1-33",
      "license_date": null,
      "expire_date": null
    },
    {
      "name": "白河手打中華　しょうはく",
      "name_kana": "",
      "business_type": "飲食店営業",
      "address": "岩瀬郡鏡石町不時沼２６５",
      "lat": 37.254465956,
      "lng": 140.344814777,
      "geocoding_level": 8,
      "phone": "248947263",
      "license_no": "1-34",
      "license_date": null,
      "expire_date": null
    },
    {
      "name": "好房よかよか。",
      "name_kana": "",
      "business_type": "そうざい製造業",
      "address": "岩瀬郡鏡石町旭町２０７",
      "lat": 37.243281291,
      "lng": 140.351643561,
      "geocoding_level": 8,
      "phone": "0248-94-6593",
      "license_no": "1-44",
      "license_date": null,
      "expire_date": null
    },
    {
      "name": "あじまん　イオン鏡石店",
      "name_kana": "",
      "business_type": "飲食店営業",
      "address": "岩瀬郡鏡石町桜岡３７５－９",
      "lat": 37.242891093,
      "lng": 140.334196383,
      "geocoding_level": 8,
      "phone": "248243100",
      "license_no": "1-59",
      "license_date": null,
      "expire_date": null
    },
    {
      "name": "いちご家族",
      "name_kana": "",
      "business_type": "そうざい製造業",
      "address": "岩瀬郡鏡石町境１２８",
      "lat": 37.247291,
      "lng": 140.334205,
      "geocoding_level": 3,
      "phone": "",
      "license_no": "1-103",
      "license_date": null,
      "expire_date": null
    },
    {
      "name": "セブン－イレブン鏡石境店",
      "name_kana": "",
      "business_type": "飲食店営業",
      "address": "岩瀬郡鏡石町境１６９－１",
      "lat": 37.247291,
      "lng": 140.334205,
      "geocoding_level": 3,
      "phone": "",
      "license_no": "1-111",
      "license_date": null,
      "expire_date": null
    },
    {
      "name": "晴時Ｃｏｆｆｅｅロシナンテ鏡石店",
      "name_kana": "",
      "business_type": "飲食店営業",
      "address": "岩瀬郡鏡石町本町１７９　ロシナンテ鏡石店敷地内、別棟",
      "lat": 37.255023058,
      "lng": 140.346903816,
      "geocoding_level": 8,
      "phone": "",
      "license_no": "1-118",
      "license_date": null,
      "expire_date": null
    },
    {
      "name": "薬王堂　福島鏡石店",
      "name_kana": "ヤクオウドウ　フクシマカガミイシテン",
      "business_type": "① 魚介類販売業（包装済みの魚介類のみの販売）",
      "address": "福島県岩瀬郡鏡石町東町333",
      "lat": 37.242174,
      "lng": 140.346893,
      "geocoding_level": null,
      "phone": "0248-94-5470",
      "license_no": "",
      "license_date": null,
      "expire_date": null
    },
    {
      "name": "薬王堂　福島鏡石店",
      "name_kana": "ヤクオウドウ　フクシマカガミイシテン",
      "business_type": "② 食肉販売業（包装済みの食肉のみの販売）",
      "address": "福島県岩瀬郡鏡石町東町333",
      "lat": 37.242174,
      "lng": 140.346893,
      "geocoding_level": null,
      "phone": "0248-94-5470",
      "license_no": "",
      "license_date": null,
      "expire_date": null
    },
    {
      "name": "薬王堂　福島鏡石店",
      "name_kana": "ヤクオウドウ　フクシマカガミイシテン",
      "business_type": "③ 乳類販売業",
      "address": "福島県岩瀬郡鏡石町東町333",
      "lat": 37.242174,
      "lng": 140.346893,
      "geocoding_level": null,
      "phone": "0248-94-5470",
      "license_no": "",
      "license_date": null,
      "expire_date": null
    },
    {
      "name": "クスリのアオキ鏡石店",
      "name_kana": "クスリノアオキカガミイシテン",
      "business_type": "⑪ 百貨店、総合スーパー",
      "address": "福島県岩瀬郡鏡石町中町105番地1",
      "lat": 37.247907,
      "lng": 140.338749,
      "geocoding_level": null,
      "phone": "0248-94-5572",
      "license_no": "",
      "license_date": null,
      "expire_date": null
    },
    {
      "name": "東北ニプロ製薬",
      "name_kana": "トウホクニプロセイヤク",
      "business_type": "⑫ 自動販売機による販売業（コップ式自動販売機（自動洗浄・屋内設置）及び営業許可の対象となる自動販売機を除く）",
      "address": "福島県岩瀬郡鏡石町岡ノ内428",
      "lat": 37.252317,
      "lng": 140.338719,
      "geocoding_level": null,
      "phone": "",
      "license_no": "",
      "license_date": null,
      "expire_date": null
    },
    {
      "name": "ウエルシア岩瀬鏡石店",
      "name_kana": "イワセカガミイシテン",
      "business_type": "⑪ 百貨店、総合スーパー",
      "address": "福島県岩瀬郡鏡石町不時沼205",
      "lat": 37.25601,
      "lng": 140.346753,
      "geocoding_level": null,
      "phone": "0248-92-3141",
      "license_no": "",
      "license_date": null,
      "expire_date": null
    },
    {
      "name": "有限会社東北エンドレス工業",
      "name_kana": "ユウゲンカイシャトウホクエンドレスコウギョウ",
      "business_type": "㉗ 器具、容器包装の製造・加工業（合成樹脂が使用された器具又は容器包装の製造、加工に限る。）",
      "address": "福島県岩瀬郡鏡石町五斗蒔町212-2",
      "lat": 37.25844,
      "lng": 140.345724,
      "geocoding_level": null,
      "phone": "0248-62-3509",
      "license_no": "",
      "license_date": null,
      "expire_date": null
    },
    {
      "name": "イオン東北㈱　イオンスーパーセンター鏡石店",
      "name_kana": "イオントウホクカブシキガイシャ　イオンスーパーセンターカガミイシテン",
      "business_type": "⑪ 百貨店、総合スーパー",
      "address": "福島県岩瀬郡鏡石町桜岡375-9",
      "lat": 37.24227,
      "lng": 140.333669,
      "geocoding_level": null,
      "phone": "07064297208",
      "license_no": "",
      "license_date": null,
      "expire_date": null
    }
  ]
}
